stop_name,type,line_name,stop_id,location,identifier,latitude,longitude,match_score,matched_name,matched_stop_id,matched_historical_lines,location_from,neighbourhood,district,east_west,postal_code
"Glienicke, Kirche",autobus,7,19710_east,"52.63062737,13.31286192",,,,,,,,1971329.0,,,east,
Elsässerstr.,autobus,7,19711_east,"52.63337295,13.34510342",,,,,,,,1971250.0,,,east,
"Schildow, Kirche",autobus,7,19712_east,"52.63581867,13.37771917",,,,,,,,1971965.0,,,east,
"Blankenfelde, Hauptstr.",autobus,7,19713_east,"52.63002535,13.38262328",,,,,,,,1971136.0,Blankenfelde,Pankow,east,13159
Industriebahn,autobus,7,19714_east,"52.61860431,13.39039578",,,,,,,,1971486.0,Blankenfelde,Pankow,east,13159
Nordend,autobus,7,19715_east,"52.59006569,13.40174057",,,,,,,,1971731.0,Rosenthal,Pankow,east,13158
Kurt-Fischer-Platz,autobus,7,19716_east,"52.57973293,13.39833073",,,,,,,,1971579.0,Niederschönhausen,Pankow,east,13156
"Pankow, Rathaus",autobus,7,19717_east,"52.56953909,13.40418644",,,,,,,,1971777.0,Pankow,Pankow,east,13187
U-Bhf. Pankow,autobus,7,19718_east,"52.56721534,13.41219922",,,,,,,,19711140.0,Pankow,Pankow,east,13187
Mahlsdorferallee,autobus,8,19719_east,"52.47821522,13.62080081",,,,,,,,1971663.0,,,east,
Hultschinerdamm,autobus,8,197110_east,"52.47711374,13.60059814",,,,,,,,1971470.0,Mahlsdorf,Marzahn-Hellersdorf,east,12623
Sadowastr.,autobus,8,197111_east,"52.48267547,13.58483307",,,,,,,,1971958.0,Mahlsdorf,Marzahn-Hellersdorf,east,12621
Köpenickerstr.,autobus,8,197112_east,"52.48661965,13.56035513",,,,,,,,1971594.0,Biesdorf,Marzahn-Hellersdorf,east,12683
Oberfeldstr.,autobus,8,197113_east,"52.50917456,13.55329997",,,,,,,,1971735.0,Biesdorf,Marzahn-Hellersdorf,east,12683
Am Tierpark,autobus,8,197114_east,"52.50960268,13.51897760",,,,,,,,197153.0,Friedrichsfelde,Lichtenberg,east,10315
U-Bhf. Friedrichsfelde,autobus,8,197115_east,"52.50624112,13.51285306",,,,,,,,19711120.0,Friedrichsfelde,Lichtenberg,east,10315
Kurischestr.,autobus,9,197116_east,"52.53541469,13.43908579",,,,,,,,1971578.0,Prenzlauer Berg,Pankow,east,10407
Hufelandstr.,autobus,9,197117_east,"52.53302774,13.42935531",,,,,,,,1971469.0,Prenzlauer Berg,Pankow,east,10405
Königstor,autobus,9,197118_east,"52.52520269,13.41983499",,,,,,,,1971588.0,Mitte,Mitte,east,10178
Hans-Beimlerstr.,autobus,9,197119_east,"52.52515376,13.41990595",,,,,,,,1971388.0,Mitte,Mitte,east,10178
Breitestr.,autobus,9,197120_east,"52.51406755,13.40574007",,,,,,,,1971153.0,Mitte,Mitte,east,10179
Charlottenstr.,autobus,9,197121_east,"52.51488332,13.39112662",,,,,,,,1971194.0,Mitte,Mitte,east,10117
Otto-Grotewohlstr.,autobus,9,197122_east,"52.51648504,13.38074919",,,,,,,,1971769.0,Mitte,Mitte,east,10117
Arkonaplatz,autobus,16,197123_east,"52.53753415,13.40176762",,,,,,,,197162.0,Mitte,Mitte,east,10435
Brunnenstr.,autobus,16,197124_east,"52.53262273,13.39887552",,,,,,,,1971166.0,Mitte,Mitte,east,10115
Rosenthalerplatz,autobus,16,197125_east,"52.52967295,13.40142893",,,,,,,,1971890.0,Mitte,Mitte,east,10119
Alexanderplatz,autobus,16,197126_east,"52.52005247,13.41395724",Q65548996+nan,,,,,,,197113.0,Mitte,Mitte,east,10178
S-Bhf. Jannowitzbr.,autobus,16,197127_east,"52.51476200,13.41800446",,,,,,,,1971927.0,Mitte,Mitte,east,10179
Annenstr.,autobus,16,197128_east,"52.50661087,13.41780312",,,,,,,,197159.0,Mitte,Mitte,east,10179
Adalbertstr.,autobus,16,197129_east,"52.50548700,13.42221404",,,,,,,,19712.0,Mitte,Mitte,east,10179
Adalbertstr.,autobus,18,197130_east,"52.50548700,13.42221404",,,,,,,,19712.0,Mitte,Mitte,east,10179
S-Bhf. Jannowitzbrücke,autobus,18,197131_east,"52.51486586,13.41796028",,,,,,,,1971928.0,Mitte,Mitte,east,10179
Alexanderplatz,autobus,18,197132_east,"52.52005247,13.41395724",Q65548996+nan,,,,,,,197113.0,Mitte,Mitte,east,10178
Charlottenstr. Ecke Französischestr.,autobus,18,197133_east,"52.51487005,13.39112326",,,,,,,,1971195.0,Mitte,Mitte,east,10117
Bhf. Friedrichstr.,autobus,18,197134_east,"52.52056066,13.38823192",,,,,,,,1971109.0,Mitte,Mitte,east,10117
Schumannstr. Ecke Reinhardtstr.,autobus,18,197135_east,"52.52325899,13.38382070",,,,,,,,1971984.0,Mitte,Mitte,east,10117
Robert-Koch-Platz,autobus,18,197136_east,"52.52757051,13.37877230",,,,,,,,1971882.0,Mitte,Mitte,east,10115
"Hessenwinkel, Lutherstr.",autobus,22,197137_east,"52.43013677,13.73098778",,,,,,,,1971439.0,Rahnsdorf,Treptow-Köpenick,east,12589
Fahlenbergstr.,autobus,22,197138_east,"52.43147015,13.71870886",,,,,,,,1980346.0,Rahnsdorf,Treptow-Köpenick,east,12589
S-Bhf. Wilhelmshagen,autobus,22,197139_east,"52.43886122,13.72106025",,,,,,,,1971949.0,Rahnsdorf,Treptow-Köpenick,east,12589
Zentralschule,autobus,22,197140_east,"52.43465069,13.70369221",,,,,,,,19711278.0,Rahnsdorf,Treptow-Köpenick,east,12589
Waldschänke,autobus,22,197141_east,"52.44331814,13.68593963",,,,,,,,19711185.0,Rahnsdorf,Treptow-Köpenick,east,12589
S-Bhf. Rahnsdorf,autobus,22,197142_east,"52.45162837,13.69157910",,,,,,,,1971943.0,Rahnsdorf,Treptow-Köpenick,east,12589
Hamburgerstr.,autobus,22,197143_east,"52.45967576,13.70340863",,,,,,,,1971387.0,,,east,
"Fichtenau, Post",autobus,22,197144_east,"52.46613932,13.69970161",,,,,,,,1971275.0,,,east,
Falkenhöhe,autobus,23,197145_east,"52.40050703,13.53822948",,,,,,,,1971265.0,,,east,
S-Bhf. Grünbergallee,autobus,23,197146_east,"52.39982233,13.54017097",,,,,,,,1971926.0,Altglienicke,Treptow-Köpenick,east,12524
S-Bhf. Altglienicke,autobus,23,197147_east,"52.40840520,13.55881617",,,,,,,,1971913.0,Altglienicke,Treptow-Köpenick,east,12524
Wolfmarsteig,autobus,23,197148_east,"52.41268952,13.53660263",,,,,,,,19711259.0,Altglienicke,Treptow-Köpenick,east,12524
Schönefelderchaussee,autobus,23,197149_east,"52.40977888,13.52697490",,,,,,,,19761374.0,Altglienicke,Treptow-Köpenick,east,12524
"Altglienicke, Kirche",autobus,23,197150_east,"52.42184573,13.53940770",,,,,,,,197142.0,Altglienicke,Treptow-Köpenick,east,12524
Kanalbrücke,autobus,23,197151_east,"52.42511716,13.54513738",,,,,,,,1976720.0,Adlershof,Treptow-Köpenick,east,12489
VEB Bautransporte,autobus,26,197152_east,"52.44295542,13.51951909",,,,,,,,19711169.0,Johannisthal,Treptow-Köpenick,east,12487
Bhf. Schöneweide,autobus,26,197153_east,"52.45374952,13.51020040",,,,,,,,1971115.0,Niederschöneweide,Treptow-Köpenick,east,12487
S-Bhf. Kaulsdorf,autobus,27,197154_east,"52.51244831,13.58958284",,,,,,,,19761299.0,Kaulsdorf,Marzahn-Hellersdorf,east,12621
Chemnitzerstr.,autobus,27,197155_east,"52.50512886,13.58158505",,,,,,,,1976283.0,Kaulsdorf,Marzahn-Hellersdorf,east,12621
Jägerstr.,autobus,27,197156_east,"52.48596831,13.57416719",,,,,,,,1971506.0,Kaulsdorf,Marzahn-Hellersdorf,east,12621
Gehsenerstr.,autobus,27,197157_east,"52.46321578,13.58365869",,,,,,,,1971321.0,Köpenick,Treptow-Köpenick,east,12555
S-Bhf. Köpenick,autobus,27,197158_east,"52.45882190,13.57956468",,,,,,,,1971931.0,Köpenick,Treptow-Köpenick,east,12555
Lindenstr. Ecke Bahnhofstr.,autobus,27,197159_east,"52.45100062,13.57206056",,,,,,,,1971635.0,Köpenick,Treptow-Köpenick,east,12555
Schloßplatz,autobus,27,197160_east,"52.44444072,13.57513262",,,,,,,,1971973.0,Köpenick,Treptow-Köpenick,east,12555
Wendenschloßstr.,autobus,27,197161_east,"52.44265529,13.58213941",,,,,,,,19761701.0,Köpenick,Treptow-Köpenick,east,12555
"Krankenhaus, Köpenick",autobus,27,197162_east,"52.43883960,13.59207630",,,,,,,,1984813.0,Köpenick,Treptow-Köpenick,east,12559
Müggelturm,autobus,27,197163_east,"52.42940100,13.61606553",,,,,,,,1971714.0,Köpenick,Treptow-Köpenick,east,12559
Müggelheim,autobus,27,197164_east,"52.41018331,13.66589753",,,,,,,,1971711.0,Müggelheim,Treptow-Köpenick,east,12559
Chemnitzerstr.,autobus,27E,197165_east,"52.50512886,13.58158505",,,,,,,,1976283.0,Kaulsdorf,Marzahn-Hellersdorf,east,12621
Jägerstr.,autobus,27E,197166_east,"52.48596831,13.57416719",,,,,,,,1971506.0,Kaulsdorf,Marzahn-Hellersdorf,east,12621
S-Bhf. Köpenick,autobus,27E,197167_east,"52.45882190,13.57956468",,,,,,,,1971931.0,Köpenick,Treptow-Köpenick,east,12555
Lindenstr. Ecke Bahnhofstr.,autobus,27E,197168_east,"52.45100062,13.57206056",,,,,,,,1971635.0,Köpenick,Treptow-Köpenick,east,12555
Schloßplatz,autobus,27E,197169_east,"52.44444072,13.57513262",,,,,,,,1971973.0,Köpenick,Treptow-Köpenick,east,12555
"Krankenhaus, Köpenick",autobus,27E,197170_east,"52.43883960,13.59207630",,,,,,,,1984813.0,Köpenick,Treptow-Köpenick,east,12559
Müggelturm,autobus,27E,197171_east,"52.42940100,13.61606553",,,,,,,,1971714.0,Köpenick,Treptow-Köpenick,east,12559
Müggelheim,autobus,27E,197172_east,"52.41018331,13.66589753",,,,,,,,1971711.0,Müggelheim,Treptow-Köpenick,east,12559
Ostbahnhof,autobus,30,197173_east,"52.50976671,13.43372198",,,,,,,,1971762.0,Friedrichshain,Friedrichshain-Kreuzberg,east,10243
Warschauerstr.,autobus,30,197174_east,"52.51243227,13.45259884",,,,,,,,19711199.0,Friedrichshain,Friedrichshain-Kreuzberg,east,10245
Holteistr.,autobus,30,197175_east,"52.50859354,13.46628815",,,,,,,,1971461.0,Friedrichshain,Friedrichshain-Kreuzberg,east,10245
S-Bhf. Rummelsburg,autobus,30,197176_east,"52.50179539,13.47802858",,,,,,,,1971945.0,Rummelsburg,Lichtenberg,east,10317
Schlichtallee,autobus,30,197177_east,"52.50240918,13.48669425",,,,,,,,1971969.0,Rummelsburg,Lichtenberg,east,10317
Bhf. Lichtenberg,autobus,30,197178_east,"52.51128756,13.49959112",,,,,,,,1971112.0,Rummelsburg,Lichtenberg,east,10317
VEB Elektrokohle,autobus,30,197180_east,"52.52657182,13.49026938",,,,,,,,19711171.0,Lichtenberg,Lichtenberg,east,10365
Roederplatz,autobus,30,197181_east,"52.52671389,13.47966235",,,,,,,,1971885.0,Fennpfuhl,Lichtenberg,east,10369
U-Bhf. Luxemburgplatz,autobus,30,197184_east,"52.52797823,13.41037278",,,,,,,,19711133.0,Mitte,Mitte,east,10178
Rosenthalerplatz,autobus,30,197185_east,"52.52967295,13.40142893",,,,,,,,1971890.0,Mitte,Mitte,east,10119
Robert-Koch-Platz,autobus,30,197186_east,"52.52757051,13.37877230",,,,,,,,1971882.0,Mitte,Mitte,east,10115
S-Bhf. Buch,autobus,31,197187_east,"52.63683138,13.49252086",,,,,,,,1971917.0,Buch,Pankow,east,13125
Karowerstr.,autobus,31,197188_east,"52.63265719,13.50019714",,,,,,,,1971528.0,Buch,Pankow,east,13125
Alt-Karow,autobus,31,197189_east,"52.60931229,13.48126585",,,,,,,,197122.0,Karow,Pankow,east,13125
Blankenburg,autobus,31,197190_east,"52.58148764,13.44517140",,,,,,,,1971133.0,Blankenburg,Pankow,east,13129
"Heinersdorf, Kirche",autobus,31,197191_east,"52.56826376,13.44060190",,,,,,,,1971420.0,Heinersdorf,Pankow,east,13089
Prenzlauer Promenade,autobus,31,197192_east,"52.55167517,13.43032601",,,,,,,,1971821.0,Prenzlauer Berg,Pankow,east,13086
Ostseestr.,autobus,31,197193_east,"52.54785806,13.43852996",,,,,,,,1971768.0,Prenzlauer Berg,Pankow,east,10409
Hans-Beimlerstr.,autobus,32,197194_east,"52.52515376,13.41990595",,,,,,,,1971388.0,Mitte,Mitte,east,10178
Leninplatz,autobus,32,197195_east,"52.52323900,13.43359458",,,,,,,,1971612.0,Friedrichshain,Friedrichshain-Kreuzberg,east,10249
Karl-Marx-Allee,autobus,32,197196_east,"52.51831920,13.43000366",,,,,,,,1971518.0,Friedrichshain,Friedrichshain-Kreuzberg,east,10243
Ostbahnhof,autobus,32,197197_east,"52.50976671,13.43372198",,,,,,,,1971762.0,Friedrichshain,Friedrichshain-Kreuzberg,east,10243
S-Bhf. Jannowitzbrücke,autobus,32,197198_east,"52.51486586,13.41796028",,,,,,,,1971928.0,Mitte,Mitte,east,10179
Spittelmarkt,autobus,32,197199_east,"52.51130560,13.40143797",,,,,,,,19711040.0,Mitte,Mitte,east,10117
U-Bhf. Thälmannplatz,autobus,32,1971100_east,"52.51143283,13.38345010",,,,,,,,19711152.0,Mitte,Mitte,east,10117
Alt-Stralau,autobus,34,1971101_east,"52.49250215,13.47790175",,,,,,,,197137.0,Friedrichshain,Friedrichshain-Kreuzberg,east,10245
Friedrich-Jungestr.,autobus,34,1971102_east,"52.49382897,13.47157287",,,,,,,,1971293.0,Friedrichshain,Friedrichshain-Kreuzberg,east,10245
Corinthstr.,autobus,34,1971103_east,"52.49877913,13.46554751",,,,,,,,1971201.0,Friedrichshain,Friedrichshain-Kreuzberg,east,10245
Modersohnstr.,autobus,34,1971104_east,"52.50191344,13.45784635",,,,,,,,1971698.0,Friedrichshain,Friedrichshain-Kreuzberg,east,10245
Warschauerstr.,autobus,34,1971105_east,"52.51243227,13.45259884",,,,,,,,19711199.0,Friedrichshain,Friedrichshain-Kreuzberg,east,10245
Grünbergerstr.,autobus,34,1971106_east,"52.51247914,13.45260837",,,,,,,,1971367.0,Friedrichshain,Friedrichshain-Kreuzberg,east,10243
U-Bhf. Marchlewskistr.,autobus,34,1971107_east,"52.51694156,13.44263127",,,,,,,,19711135.0,Friedrichshain,Friedrichshain-Kreuzberg,east,10243
Pirolstr.,autobus,35,1971108_east,"52.49453185,13.55501571",,,,,,,,1971804.0,Biesdorf,Marzahn-Hellersdorf,east,12683
Dohlengrund,autobus,35,1971109_east,"52.49817919,13.56339788",,,,,,,,1971225.0,Biesdorf,Marzahn-Hellersdorf,east,12683
Oberfeldstr.,autobus,35,1971110_east,"52.50917456,13.55329997",,,,,,,,1971735.0,Biesdorf,Marzahn-Hellersdorf,east,12683
Am Tierpark,autobus,35,1971111_east,"52.50960268,13.51897760",,,,,,,,197153.0,Friedrichsfelde,Lichtenberg,east,10315
U-Bhf. Friedrichsfelde,autobus,35,1971112_east,"52.50624112,13.51285306",,,,,,,,19711120.0,Friedrichsfelde,Lichtenberg,east,10315
Lincolnstr.,autobus,35,1971113_east,"52.50195493,13.50196650",,,,,,,,1971631.0,Friedrichsfelde,Lichtenberg,east,10315
S-Bhf. Nöldnerplatz,autobus,35,1971114_east,"52.50326620,13.48429373",,,,,,,,1971937.0,Rummelsburg,Lichtenberg,east,10317
Zentralflughafen,autobus,36,1971115_east,"52.39057738,13.51559457",,,,,,,,19711276.0,,,east,
Bhf. Schönefeld,autobus,36,1971116_east,"52.38192403,13.51154508",,,,,,,,1971114.0,,,east,
S-Bhf. Grünbergallee,autobus,36,1971117_east,"52.39982233,13.54017097",,,,,,,,1971926.0,Altglienicke,Treptow-Köpenick,east,12524
"Bohnsdorf, Kirche",autobus,36,1971118_east,"52.39948771,13.55557443",,,,,,,,1971143.0,Bohnsdorf,Treptow-Köpenick,east,12526
Gartenstadtweg,autobus,36,1971119_east,"52.41231391,13.56660268",,,,,,,,1971314.0,Bohnsdorf,Treptow-Köpenick,east,12524
S-Bhf. Grünau,autobus,36,1971120_east,"52.41361516,13.57379629",,,,,,,,1971924.0,Grünau,Treptow-Köpenick,east,12527
Bhf. Lichtenberg,autobus,37,1971121_east,"52.51128756,13.49959112",,,,,,,,1971112.0,Rummelsburg,Lichtenberg,east,10317
Am Tierpark,autobus,37,1971122_east,"52.50960268,13.51897760",,,,,,,,197153.0,Friedrichsfelde,Lichtenberg,east,10315
S-Bhf. Biesdorf,autobus,37,1971123_east,"52.51343259,13.55538728",,,,,,,,1971916.0,Biesdorf,Marzahn-Hellersdorf,east,12683
Boschpolerstr.,autobus,37,1971124_east,"52.52812259,13.54886933",,,,,,,,1971150.0,Marzahn,Marzahn-Hellersdorf,east,12681
Alt-Marzahn,autobus,37,1971125_east,"52.54211668,13.56385484",,,,,,,,197132.0,Marzahn,Marzahn-Hellersdorf,east,12685
Marzahnerchaussee,autobus,37,1971126_east,"52.53978689,13.53943029",,,,,,,,1971684.0,Marzahn,Marzahn-Hellersdorf,east,12681
Bürknersfelde,autobus,37,1971127_east,"52.53888981,13.53415938",,,,,,,,1971188.0,Marzahn,Marzahn-Hellersdorf,east,12681
Dingelstädterstr.,autobus,37,1971128_east,"52.53587673,13.52191373",,,,,,,,1971223.0,Marzahn,Marzahn-Hellersdorf,east,12681
Weißenseerweg,autobus,37,1971129_east,"52.53305920,13.47625284",,,,,,,,19711213.0,Fennpfuhl,Lichtenberg,east,10367
S-Bhf. Leninallee,autobus,37,1971130_east,"52.52851327,13.45560255",,,,,,,,1971933.0,Prenzlauer Berg,Pankow,east,10407
"Wartenberg, Siedlung",autobus,39,1971132_east,"52.58393196,13.53076034",,,,,,,,19711202.0,Wartenberg,Lichtenberg,east,13059
Lindenbergerstr.,autobus,39,1971133_east,"52.57864777,13.51973511",,,,,,,,1976890.0,Wartenberg,Lichtenberg,east,13059
Falkenbergerchaussee,autobus,39,1971134_east,"52.56581423,13.51192462",,,,,,,,1976371.0,Neu-Hohenschönhausen,Lichtenberg,east,13051
Falkenbergerstr.,autobus,39,1971135_east,"52.55648662,13.48662123",,,,,,,,1971261.0,Weißensee,Pankow,east,13088
Ostbahnhof,autobus,40,1971136_east,"52.50976671,13.43372198",,,,,,,,1971762.0,Friedrichshain,Friedrichshain-Kreuzberg,east,10243
Karl-Marx-Allee,autobus,40,1971137_east,"52.51831920,13.43000366",,,,,,,,1971518.0,Friedrichshain,Friedrichshain-Kreuzberg,east,10243
Leninplatz,autobus,40,1971138_east,"52.52323900,13.43359458",,,,,,,,1971612.0,Friedrichshain,Friedrichshain-Kreuzberg,east,10249
U-Bhf. Luxemburgplatz,autobus,40,1971139_east,"52.52797823,13.41037278",,,,,,,,19711133.0,Mitte,Mitte,east,10178
Rosenthalerplatz,autobus,40,1971140_east,"52.52967295,13.40142893",,,,,,,,1971890.0,Mitte,Mitte,east,10119
Robert-Koch-Platz,autobus,40,1971141_east,"52.52757051,13.37877230",,,,,,,,1971882.0,Mitte,Mitte,east,10115
Buch,autobus,42,1971142_east,"52.64171951,13.51591123",,,,,,,,1971168.0,Buch,Pankow,east,13125
Karowerstr.,autobus,42,1971143_east,"52.63265719,13.50019714",,,,,,,,1971528.0,Buch,Pankow,east,13125
Alt-Karow,autobus,42,1971144_east,"52.60931229,13.48126585",,,,,,,,197122.0,Karow,Pankow,east,13125
Blankenburg,autobus,42,1971145_east,"52.58148764,13.44517140",,,,,,,,1971133.0,Blankenburg,Pankow,east,13129
"Heinersdorf, Kirche",autobus,42,1971146_east,"52.56826376,13.44060190",,,,,,,,1971420.0,Heinersdorf,Pankow,east,13089
Prenzlauer Promenade,autobus,42,1971147_east,"52.55167517,13.43032601",,,,,,,,1971821.0,Prenzlauer Berg,Pankow,east,13086
Ostseestr.,autobus,42,1971148_east,"52.54785806,13.43852996",,,,,,,,1971768.0,Prenzlauer Berg,Pankow,east,10409
"Marzahnerchaussee, Springpfuhl",autobus,43,1971149_east,"52.52561232,13.53368732",,,,,,,,1971685.0,Marzahn,Marzahn-Hellersdorf,east,12681
Stadtberg,autobus,43,1971150_east,"52.53441142,13.54136019",,,,,,,,19711045.0,Marzahn,Marzahn-Hellersdorf,east,12681
Dingelstädterstr.,autobus,43,1971151_east,"52.53587673,13.52191373",,,,,,,,1971223.0,Marzahn,Marzahn-Hellersdorf,east,12681
S-Bhf. Friedrichsf.-Ost,autobus,43,1971152_east,"52.51381262,13.51899277",,,,,,,,1971918.0,Friedrichsfelde,Lichtenberg,east,10315
Am Tierpark,autobus,43,1971153_east,"52.50960268,13.51897760",,,,,,,,197153.0,Friedrichsfelde,Lichtenberg,east,10315
U-Bhf. Friedrichsf.,autobus,43,1971154_east,"52.50662404,13.51166482",,,,,,,,19711119.0,Friedrichsfelde,Lichtenberg,east,10315
S-Bhf. Nöldnerplatz,autobus,43,1971155_east,"52.50326620,13.48429373",,,,,,,,1971937.0,Rummelsburg,Lichtenberg,east,10317
"Hönow, Dorfstr.",autobus,44,1971156_east,"52.54884928,13.63648688",,,,,,,,1971477.0,,,east,
Greifswalderstr.,autobus,44,1971157_east,"52.53002871,13.62681794",,,,,,,,1971347.0,Mahlsdorf,Marzahn-Hellersdorf,east,12623
S-Bhf. Mahlsdorf,autobus,44,1971158_east,"52.51234909,13.61221794",,,,,,,,1971935.0,Mahlsdorf,Marzahn-Hellersdorf,east,12623
"Wilhelmsruh, Schillerstr.",autobus,45,1971159_east,"52.58796525,13.36878165",,,,,,,,19711237.0,Wilhelmsruh,Pankow,east,13158
Hauptstr. Ecke Edelweißstr.,autobus,45,1971160_east,"52.58637926,13.36752939",,,,,,,,1971400.0,Wilhelmsruh,Pankow,east,13158
Heinrich-Mann-Platz,autobus,45,1971161_east,"52.57297246,13.39214613",,,,,,,,1971423.0,Niederschönhausen,Pankow,east,13156
"Pankow, Rathaus",autobus,45,1971162_east,"52.56953909,13.40418644",,,,,,,,1971777.0,Pankow,Pankow,east,13187
"Pankow, Kirche",autobus,45,1971163_east,"52.57124681,13.41067072",,,,,,,,1971775.0,Pankow,Pankow,east,13187
Prenzlauer Promenade Ecke Kissingenstr.,autobus,45,1971164_east,"52.56795805,13.42773437",,,,,,,,1971823.0,Pankow,Pankow,east,13189
Am Steinberg,autobus,45,1971165_east,"52.55648145,13.42930676",,,,,,,,197152.0,Weißensee,Pankow,east,13086
Hamburgerplatz,autobus,45,1971166_east,"52.55539419,13.43897314",,,,,,,,1971386.0,Weißensee,Pankow,east,13086
Lichtenbergerstr. Ecke Klement-Gottwald-Allee,autobus,45,1971167_east,"52.55200518,13.46547796",,,,,,,,1971623.0,Weißensee,Pankow,east,13088
Klement-Gottwald-Allee Ecke Rennbahnstr.,autobus,45,1971168_east,"52.55694653,13.46696608",",+nan",,,,,,,1971541.0,Weißensee,Pankow,east,13088
"Weißensee, Schwarzelfenweg",autobus,45,1971169_east,"52.56729838,13.46535453",,,,,,,,19711212.0,Stadtrandsiedlung Malchow,Pankow,east,13088
Bhf. Schöneweide,autobus,47,1971170_east,"52.45374952,13.51020040",,,,,,,,1971115.0,Niederschöneweide,Treptow-Köpenick,east,12487
Johannisthalerchaussee,autobus,47,1971171_east,"52.45136033,13.48829962",,,,,,,,1971500.0,Baumschulenweg,Treptow-Köpenick,east,12437
S-Bhf. Baumschulenweg,autobus,47,1971172_east,"52.46749675,13.48937988",,,,,,,,1971914.0,Baumschulenweg,Treptow-Köpenick,east,12437
"Treptow, Rathaus",autobus,47,1971173_east,"52.48358900,13.48032476",,,,,,,,19711103.0,Plänterwald,Treptow-Köpenick,east,12435
Sowjetisches Ehrenmal,autobus,47,1971174_east,"52.48535896,13.46705341",,,,,,,,19711028.0,Plänterwald,Treptow-Köpenick,east,12435
S-Bhf. Treptower Park,autobus,47,1971175_east,"52.49403641,13.46076257",,,,,,,,1971948.0,Alt-Treptow,Treptow-Köpenick,east,12435
"Treptow, Eichenstr.",autobus,47,1971176_east,"52.49476667,13.45313221",,,,,,,,19711102.0,Alt-Treptow,Treptow-Köpenick,east,12435
Bhf. Schöneweide,autobus,48,1971177_east,"52.45374952,13.51020040",,,,,,,,1971115.0,Niederschöneweide,Treptow-Köpenick,east,12487
Lindhorstweg,autobus,48,1971178_east,"52.44148584,13.50065006",,,,,,,,1971643.0,Johannisthal,Treptow-Köpenick,east,12487
Stubenrauchstr.,autobus,48,1971179_east,"52.42413109,13.48548111",,,,,,,,19711065.0,Rudow,Neukölln,east,12357
"Bhf. Kaulsdorf, Bausdorfstr.",autobus,49,1971180_east,"52.51315438,13.59093779",,,,,,,,1971111.0,Kaulsdorf,Marzahn-Hellersdorf,east,12621
Wernerbad,autobus,49,1971181_east,"52.51776757,13.60795078",,,,,,,,19711219.0,Kaulsdorf,Marzahn-Hellersdorf,east,12621
Grottkauerstr.,autobus,49,1971182_east,"52.52796238,13.60080528",,,,,,,,1971354.0,Kaulsdorf,Marzahn-Hellersdorf,east,12621
"Niederschönhausen, Rolandstr.",autobus,50,1971183_east,"52.58358273,13.42110944",,,,,,,,1971725.0,Niederschönhausen,Pankow,east,13156
Kurt-Fischer-Platz,autobus,50,1971184_east,"52.57973293,13.39833073",,,,,,,,1971579.0,Niederschönhausen,Pankow,east,13156
Bürgerpark,autobus,50,1971185_east,"52.56929474,13.40086323",,,,,,,,1971186.0,Pankow,Pankow,east,13187
Mühlenstr. Ecke Florastr.,autobus,50,1971186_east,"52.56538943,13.40655805",,,,,,,,1971715.0,Pankow,Pankow,east,13187
U-Bhf. Pankow (Vinetastr.),autobus,50,1971187_east,"52.55932980,13.41333319",,,,,,,,19711142.0,Pankow,Pankow,east,13189
"Pankow, Achtermannstr.",autobus,52,1971188_east,"52.57784198,13.42335774",,,,,,,,1971774.0,Pankow,Pankow,east,13187
Galenusstr.,autobus,52,1971189_east,"52.58175474,13.42976269",,,,,,,,1971309.0,Pankow,Pankow,east,13127
Prenzlauerchaussee,autobus,52,1971190_east,"52.57212920,13.42884466",,,,,,,,1971820.0,Pankow,Pankow,east,13189
Granitzstr.,autobus,52,1971191_east,"52.57207266,13.42877383",,,,,,,,1971344.0,Pankow,Pankow,east,13189
Kissingenstr.,autobus,52,1971192_east,"52.56794246,13.42762660",,,,,,,,1971537.0,Pankow,Pankow,east,13189
U-Bhf. Pankow,autobus,52,1971193_east,"52.56721534,13.41219922",,,,,,,,19711140.0,Pankow,Pankow,east,13187
"Hohenschönhausen, Marzahnerstr.",autobus,53,1971194_east,"52.54629373,13.51669339",,,,,,,,1971451.0,Alt-Hohenschönhausen,Lichtenberg,east,13053
Landsbergerchaussee,autobus,53,1971195_east,"52.53542387,13.51728980",,,,,,,,1971601.0,Marzahn,Marzahn-Hellersdorf,east,12681
Marzahnerchaussee,autobus,53,1971196_east,"52.53978689,13.53943029",,,,,,,,1971684.0,Marzahn,Marzahn-Hellersdorf,east,12681
S-Bhf. Friedrichsfelde Ost,autobus,53,1971197_east,"52.51386336,13.51909605",,,,,,,,1971919.0,Friedrichsfelde,Lichtenberg,east,10315
Alt-Friedrichsfelde,autobus,53,1971198_east,"52.51072943,13.50487703",,,,,,,,197119.0,Rummelsburg,Lichtenberg,east,10317
U-Bhf. Friedrichsfelde,autobus,53,1971199_east,"52.50624112,13.51285306",,,,,,,,19711120.0,Friedrichsfelde,Lichtenberg,east,10315
"Wilhelmsruhe, Fontanestr.",autobus,55,1971200_east,"52.58985939,13.36119357",,,,,,,,19711238.0,Wilhelmsruh,Pankow,east,13158
Edelweißstr.,autobus,55,1971201_east,"52.58637604,13.36752519",,,,,,,,1971236.0,Wilhelmsruh,Pankow,east,13158
Bürgerpark,autobus,55,1971202_east,"52.56929474,13.40086323",,,,,,,,1971186.0,Pankow,Pankow,east,13187
"Pankow, Rathaus",autobus,55,1971203_east,"52.56953909,13.40418644",,,,,,,,1971777.0,Pankow,Pankow,east,13187
"Pankow, Kirche",autobus,55,1971204_east,"52.57124681,13.41067072",,,,,,,,1971775.0,Pankow,Pankow,east,13187
Prenzlauer Promenade,autobus,55,1971205_east,"52.55167517,13.43032601",,,,,,,,1971821.0,Prenzlauer Berg,Pankow,east,13086
"Heinersdorf, Kirche",autobus,55,1971206_east,"52.56826376,13.44060190",,,,,,,,1971420.0,Heinersdorf,Pankow,east,13089
Pasedagplatz,autobus,55,1971207_east,"52.55967539,13.46027955",,,,,,,,1971787.0,Weißensee,Pankow,east,13086
Liebermannstr.,autobus,55,1971208_east,"52.56057009,13.47754292",,,,,,,,1971630.0,Weißensee,Pankow,east,13088
Piesporterstr.,autobus,55,1971209_east,"52.56042833,13.47657809",,,,,,,,1971800.0,Weißensee,Pankow,east,13088
"Weißensee, Nüßlerstr.",autobus,56,1971210_east,"52.56398538,13.46973377",,,,,,,,19711210.0,Weißensee,Pankow,east,13088
Gehringstr. Ecke Gustav-Adolfstr.,autobus,56,1971211_east,"52.56275860,13.45929567",,,,,,,,1971320.0,Weißensee,Pankow,east,13088
Hamburgerplatz,autobus,56,1971212_east,"52.55539419,13.43897314",,,,,,,,1971386.0,Weißensee,Pankow,east,13086
Grellstr.,autobus,56,1971213_east,"52.54566405,13.42780715",,,,,,,,1971350.0,Prenzlauer Berg,Pankow,east,10409
Hosemannstr.,autobus,56,1971214_east,"52.54283538,13.43475598",,,,,,,,1971467.0,Prenzlauer Berg,Pankow,east,10409
Ostseeplatz,autobus,56,1971215_east,"52.54690788,13.44095932",,,,,,,,1971767.0,Prenzlauer Berg,Pankow,east,10409
Greifswalderstr.,autobus,56,1971216_east,"52.53002871,13.62681794",,,,,,,,1971347.0,Mahlsdorf,Marzahn-Hellersdorf,east,12623
S-Bhf. Leninallee,autobus,56,1971218_east,"52.52851327,13.45560255",,,,,,,,1971933.0,Prenzlauer Berg,Pankow,east,10407
Dimitroffstr.,autobus,56,1971219_east,"52.52644945,13.44757477",,,,,,,,1971219.0,Friedrichshain,Friedrichshain-Kreuzberg,east,10249
Kniprodestr.,autobus,57,1971220_east,"52.53188831,13.44117362",,,,,,,,1971547.0,Prenzlauer Berg,Pankow,east,10407
Königstor,autobus,57,1971221_east,"52.52520269,13.41983499",,,,,,,,1971588.0,Mitte,Mitte,east,10178
Alexanderplatz,autobus,57,1971222_east,"52.52005247,13.41395724",Q65548996+nan,,,,,,,197113.0,Mitte,Mitte,east,10178
Marx-Engels-Platz,autobus,57,1971223_east,"52.51617617,13.40093741",,,,,,,,1971682.0,Mitte,Mitte,east,10178
Bhf. Friedrichstr.,autobus,57,1971224_east,"52.52056066,13.38823192",,,,,,,,1971109.0,Mitte,Mitte,east,10117
Oranienburger Tor,autobus,57,1971225_east,"52.52716314,13.38710905",,,,,,,,1971751.0,Mitte,Mitte,east,10115
Platz vor dem Neuen Tor,autobus,57,1971226_east,"52.52921246,13.37851356",,,,,,,,1971806.0,Mitte,Mitte,east,10115
Scharnhorststr.,autobus,57,1971227_east,"52.53004872,13.37442183",,,,,,,,1971961.0,Mitte,Mitte,east,10115
Fontanestr.,autobus,58,1971228_east,"52.58985939,13.36119357",,,,,,,,1971279.0,Wilhelmsruh,Pankow,east,13158
Hauptstr.,autobus,58,1971229_east,"52.58488484,13.36633266",,,,,,,,1971394.0,Wilhelmsruh,Pankow,east,13158
Heinrich-Mann-Platz,autobus,58,1971230_east,"52.57297246,13.39214613",,,,,,,,1971423.0,Niederschönhausen,Pankow,east,13156
"Pankow, Rathaus",autobus,58,1971231_east,"52.56953909,13.40418644",,,,,,,,1971777.0,Pankow,Pankow,east,13187
"Pankow, Kirche",autobus,58,1971232_east,"52.57124681,13.41067072",,,,,,,,1971775.0,Pankow,Pankow,east,13187
S-Bhf. Pankow,autobus,58,1971233_east,"52.56742037,13.41225013",,,,,,,,1971939.0,Pankow,Pankow,east,13189
U-Bhf. Pankow (Vinetastr.),autobus,58,1971234_east,"52.55932980,13.41333319",,,,,,,,19711142.0,Pankow,Pankow,east,13189
Walther-Ulbricht-Stadion,autobus,59,1971235_east,"52.53664798,13.37829813",,,,,,,,19711192.0,Mitte,Mitte,east,10115
Oranienburger Tor,autobus,59,1971236_east,"52.52716314,13.38710905",,,,,,,,1971751.0,Mitte,Mitte,east,10115
Bhf. Friedrichstr.,autobus,59,1971237_east,"52.52056066,13.38823192",,,,,,,,1971109.0,Mitte,Mitte,east,10117
U-Bhf. Stadtmitte,autobus,59,1971238_east,"52.51041797,13.38988130",,,,,,,,19711148.0,Mitte,Mitte,east,10117
U-Bhf. Thälmannplatz,autobus,59,1971239_east,"52.51143283,13.38345010",,,,,,,,19711152.0,Mitte,Mitte,east,10117
Oberspree,autobus,65,1971240_east,"52.45375172,13.54848533",,,,,,,,1971739.0,Niederschöneweide,Treptow-Köpenick,east,12439
Britzerstr.,autobus,65,1971241_east,"52.45406687,13.51931779",,,,,,,,1971163.0,Niederschöneweide,Treptow-Köpenick,east,12439
Bhf. Schöneweide,autobus,65,1971242_east,"52.45374952,13.51020040",,,,,,,,1971115.0,Niederschöneweide,Treptow-Köpenick,east,12487
VEB Autotrans,autobus,65,1971243_east,"52.44338032,13.51898016",,,,,,,,19711168.0,Johannisthal,Treptow-Köpenick,east,12487
S-Bhf. Mahlsdorf,autobus,44E,1971244_east,"52.51234909,13.61221794",,,,,,,,1971935.0,Mahlsdorf,Marzahn-Hellersdorf,east,12623
Am Rosenhag,autobus,44E,1971245_east,"52.52474356,13.62177583",,,,,,,,197151.0,Mahlsdorf,Marzahn-Hellersdorf,east,12623
Hönowerstr. Ecke Greifswalderstr.,autobus,44E,1971246_east,"52.53002742,13.62682480",,,,,,,,1971481.0,Mahlsdorf,Marzahn-Hellersdorf,east,12623
S-Bhf. Buch,autobus,51/B,1971247_east,"52.63683138,13.49252086",,,,,,,,1971917.0,Buch,Pankow,east,13125
Karowerstr.,autobus,51/B,1971248_east,"52.63265719,13.50019714",,,,,,,,1971528.0,Buch,Pankow,east,13125
Akademie der Wissenschaften,autobus,51/B,1971249_east,"52.63612869,13.50189862",,,,,,,,19719.0,Buch,Pankow,east,13125
Diepensee,autobus,D/38,1971250_east,"52.30056922,13.58892002",,,,,,,,1971217.0,,,east,
Mitschurinweg,autobus,D/38,1971251_east,"52.31985270,13.57429849",,,,,,,,1971695.0,,,east,
Kienberg,autobus,D/38,1971252_east,"52.35176615,13.54930701",,,,,,,,1971533.0,,,east,
Waltersdorf,autobus,D/38,1971253_east,"52.36492901,13.55571241",,,,,,,,19711190.0,,,east,
"Bohnsdorf, Waldstr.",autobus,D/38,1971254_east,"52.38939719,13.57066656",,,,,,,,1971144.0,Bohnsdorf,Treptow-Köpenick,east,12526
"Ahrensfeld, Kirche",autobus,L/41,1971255_east,"52.57532170,13.57651561",,,,,,,,19718.0,,,east,
LPG Falkenberg,autobus,L/41,1971256_east,"52.57043276,13.53602484",,,,,,,,1971597.0,Falkenberg,Lichtenberg,east,13057
Malchowerweg,autobus,L/41,1971257_east,"52.56152031,13.50048590",,,,,,,,1971666.0,Alt-Hohenschönhausen,Lichtenberg,east,13053
Buschallee Ecke Klement-Gottwald-Allee,autobus,L/41,1971258_east,"52.55387174,13.46754341",,,,,,,,1971181.0,Weißensee,Pankow,east,13088
Rennbahnstr.,autobus,L/41,1971259_east,"52.55702983,13.46697689",,,,,,,,1971872.0,Weißensee,Pankow,east,13088
Feldtmannstr.,autobus,L/41,1971260_east,"52.56401588,13.46980858",,,,,,,,1971272.0,Weißensee,Pankow,east,13088
"Malchow, Dorfstr.",autobus,L/41,1971261_east,"52.58046227,13.48279758",,,,,,,,1971665.0,Malchow,Lichtenberg,east,13051
Wilhelmstrand,ferry,291,1971262_east,"52.47414813,13.49697830",,,,,,,,19711241.0,Oberschöneweide,Treptow-Köpenick,east,12459
Baumschulenweg,ferry,291,1971263_east,"52.47190205,13.49476422",,,,,,,,197178.0,Baumschulenweg,Treptow-Köpenick,east,12437
Wendenschloß,ferry,292,1971264_east,"52.41849554,13.58711706",,,,,,,,19711215.0,Köpenick,Treptow-Köpenick,east,12557
Grünau,ferry,292,1971265_east,"52.41748995,13.58245363",,,,,,,,1971364.0,Grünau,Treptow-Köpenick,east,12527
Schmöckwitz,ferry,293,1971266_east,"52.38261057,13.64488175",,,,,,,,1971977.0,Schmöckwitz,Treptow-Köpenick,east,12527
Große Krampe,ferry,293,1971267_east,"52.38216958,13.65444816",,,,,,,,1971356.0,Müggelheim,Treptow-Köpenick,east,12559
Krampenburg,ferry,293,1971268_east,"52.38918999,13.64937404",,,,,,,,1971557.0,Müggelheim,Treptow-Köpenick,east,12559
Rahnsdorf,ferry,294,1971269_east,"52.43653856,13.68096242",,,,,,,,1971841.0,Rahnsdorf,Treptow-Köpenick,east,12589
Müggelhort,ferry,294,1971270_east,"52.43312813,13.67587240",,,,,,,,1971712.0,Köpenick,Treptow-Köpenick,east,12559
Müggelheim,ferry,295,1971271_east,"52.42953127,13.68907897",,,,,,,,1971710.0,Müggelheim,Treptow-Köpenick,east,12559
Rahnsdorf,ferry,295,1971272_east,"52.43653856,13.68096242",,,,,,,,1971841.0,Rahnsdorf,Treptow-Köpenick,east,12589
Friedrichstr.,s-bahn,KBS 100,1971273_east,"52.52027778,13.38694444",Q111219456,,,,,,,1971300.0,Mitte,Mitte,east,10117
Marx-Engels-Platz,s-bahn,KBS 100,1971274_east,"52.52260000,13.40220000",Q689312,,,,,,,1971683.0,Mitte,Mitte,east,10178
Alexanderplatz,s-bahn,KBS 100,1971275_east,"52.52138889,13.41194444",Q111324700,,,,,,,197114.0,Mitte,Mitte,east,10179
Jannowitzbrücke,s-bahn,KBS 100,1971276_east,"52.51482222,13.41795000",Q27955427,,,,,,,1971493.0,Mitte,Mitte,east,10179
Ostbahnhof,s-bahn,KBS 100,1971277_east,"52.51000000,13.43470000",Q111325075,,,,,,,1971763.0,Friedrichshain,Friedrichshain-Kreuzberg,east,10243
Warschauerstr.,s-bahn,KBS 100,1971278_east,"52.50641667,13.45095556",Q111252298,,,,,,,19711196.0,Friedrichshain,Friedrichshain-Kreuzberg,east,10245
Ostkreuz,s-bahn,KBS 100,1971279_east,"52.50310000,13.46890000",Q111251530,,,,,,,1971764.0,Friedrichshain,Friedrichshain-Kreuzberg,east,10245
Nöldnerplatz,s-bahn,KBS 100,1971280_east,"52.50380000,13.48530000",Q4892447,,,,,,,1971734.0,Rummelsburg,Lichtenberg,east,10317
Lichtenberg,s-bahn,KBS 100,1971281_east,"52.51060000,13.49640000",Q634247,,,,,,,1971621.0,Rummelsburg,Lichtenberg,east,10317
Friedrichsfelde Ost,s-bahn,KBS 100,1971282_east,"52.51410000,13.51980000",Q800473,,,,,,,1971297.0,Marzahn,Marzahn-Hellersdorf,east,12681
Biesdorf,s-bahn,KBS 100,1971283_east,"52.51310000,13.55540000",Q4892357,,,,,,,1971120.0,Biesdorf,Marzahn-Hellersdorf,east,12683
Kaulsdorf,s-bahn,KBS 100,1971284_east,"52.51210000,13.59040000",Q800478,,,,,,,1971532.0,Kaulsdorf,Marzahn-Hellersdorf,east,12621
Mahlsdorf,s-bahn,KBS 100,1971285_east,"52.51210000,13.61060000",Q800484,,,,,,,1971660.0,Mahlsdorf,Marzahn-Hellersdorf,east,12623
Hoppegarten (Mark),s-bahn,KBS 100,1971286_east,"52.51830000,13.67340000",Q15197357,,,,,,,1971466.0,,,east,
Neuenhagen (b Bln),s-bahn,KBS 100,1971287_east,"52.52080000,13.70030000",Q7001614,,,,,,,1971722.0,,,east,
Fredersdorf (b Bln),s-bahn,KBS 100,1971288_east,"52.52650000,13.76250000",Q15197387,,,,,,,1971286.0,,,east,
Petershagen Nord,s-bahn,KBS 100,1971289_east,"52.52910000,13.79100000",Q7178217,,,,,,,1971793.0,,,east,
Strausberg,s-bahn,KBS 100,1971290_east,"52.53193300,13.83693300",Q7622326,,,,,,,19711057.0,,,east,
Strausberg Stadt,s-bahn,KBS 100,1971291_east,"52.57660000,13.88780000",Q7622325,,,,,,,19711059.0,,,east,
Strausberg Nord,s-bahn,KBS 100,1971292_east,"52.59020000,13.90840000",Q7622324,,,,,,,19711058.0,,,east,
Friedrichstr.,s-bahn,KBS 105,1971293_east,"52.52027778,13.38694444",Q111219456,,,,,,,1971300.0,Mitte,Mitte,east,10117
Marx-Engels-Platz,s-bahn,KBS 105,1971294_east,"52.52260000,13.40220000",Q689312,,,,,,,1971683.0,Mitte,Mitte,east,10178
Alexanderplatz,s-bahn,KBS 105,1971295_east,"52.52138889,13.41194444",Q111324700,,,,,,,197114.0,Mitte,Mitte,east,10179
Jannowitzbrücke,s-bahn,KBS 105,1971296_east,"52.51482222,13.41795000",Q27955427,,,,,,,1971493.0,Mitte,Mitte,east,10179
Ostbahnhof,s-bahn,KBS 105,1971297_east,"52.51000000,13.43470000",Q111325075,,,,,,,1971763.0,Friedrichshain,Friedrichshain-Kreuzberg,east,10243
Warschauerstr.,s-bahn,KBS 105,1971298_east,"52.50641667,13.45095556",Q111252298,,,,,,,19711196.0,Friedrichshain,Friedrichshain-Kreuzberg,east,10245
Ostkreuz,s-bahn,KBS 105,1971299_east,"52.50310000,13.46890000",Q111251530,,,,,,,1971764.0,Friedrichshain,Friedrichshain-Kreuzberg,east,10245
Rummelsburg,s-bahn,KBS 105,1971300_east,"52.50124400,13.47854500",Q15107132,,,,,,,1971899.0,Rummelsburg,Lichtenberg,east,10317
Betriebsbhf. Rummelsburg,s-bahn,KBS 105,1971301_east,"52.49390000,13.49780000",Q829009,,,,,,,1971102.0,Rummelsburg,Lichtenberg,east,10317
Karlshorst,s-bahn,KBS 105,1971302_east,"52.48080000,13.52580000",Q111327045,,,,,,,1971522.0,Karlshorst,Lichtenberg,east,10318
Wuhlheide,s-bahn,KBS 105,1971303_east,"52.46890000,13.55330000",Q800514,,,,,,,19711267.0,Köpenick,Treptow-Köpenick,east,12555
Köpenick,s-bahn,KBS 105,1971304_east,"52.45860000,13.58080000",Q800479,,,,,,,1971590.0,Köpenick,Treptow-Köpenick,east,12555
Hirschgarten,s-bahn,KBS 105,1971305_east,"52.45790000,13.60320000",Q4892435,,,,,,,1971441.0,Friedrichshagen,Treptow-Köpenick,east,12587
Friedrichshagen,s-bahn,KBS 105,1971306_east,"52.45740000,13.62330000",Q800474,,,,,,,1971298.0,Friedrichshagen,Treptow-Köpenick,east,12587
Rahnsdorf,s-bahn,KBS 105,1971307_east,"52.45163720,13.68997760",Q800489,,,,,,,1971842.0,Rahnsdorf,Treptow-Köpenick,east,12589
Wilhelmshagen,s-bahn,KBS 105,1971308_east,"52.43860000,13.72220000",Q800494,,,,,,,19711234.0,Rahnsdorf,Treptow-Köpenick,east,12589
Erkner,s-bahn,KBS 105,1971309_east,"52.42960000,13.75130000",Q14434071,,,,,,,1971255.0,,,east,
Friedrichstr.,s-bahn,KBS 110,1971310_east,"52.52027778,13.38694444",Q111219456,,,,,,,1971300.0,Mitte,Mitte,east,10117
Marx-Engels-Platz,s-bahn,KBS 110,1971311_east,"52.52260000,13.40220000",Q689312,,,,,,,1971683.0,Mitte,Mitte,east,10178
Alexanderplatz,s-bahn,KBS 110,1971312_east,"52.52138889,13.41194444",Q111324700,,,,,,,197114.0,Mitte,Mitte,east,10179
Jannowitzbrücke,s-bahn,KBS 110,1971313_east,"52.51482222,13.41795000",Q27955427,,,,,,,1971493.0,Mitte,Mitte,east,10179
Ostbahnhof,s-bahn,KBS 110,1971314_east,"52.51000000,13.43470000",Q111325075,,,,,,,1971763.0,Friedrichshain,Friedrichshain-Kreuzberg,east,10243
Warschauerstr. (< Ostkreuz),s-bahn,KBS 110,1971315_east,"52.50641667,13.45095556",Q664036,,,,,,,19711197.0,Friedrichshain,Friedrichshain-Kreuzberg,east,10245
Treptower Park,s-bahn,KBS 110,1971316_east,"52.49380000,13.46180000",Q559274,,,,,,,19711104.0,Alt-Treptow,Treptow-Köpenick,east,12435
Plänterwald,s-bahn,KBS 110,1971317_east,"52.47860000,13.47330000",Q7205917,,,,,,,1971807.0,Plänterwald,Treptow-Köpenick,east,12435
Baumschulenweg,s-bahn,KBS 110,1971318_east,"52.46750000,13.48972200",Q324336,,,,,,,197179.0,Baumschulenweg,Treptow-Köpenick,east,12437
Schöneweide,s-bahn,KBS 110,1971319_east,"52.45500000,13.50944444",Q111323931,,,,,,,19711001.0,Niederschöneweide,Treptow-Köpenick,east,12487
Betriebsbhf. Schöneweide,s-bahn,KBS 110,1971320_east,"52.44676000,13.52391000",Q4526101,,,,,,,1971103.0,Niederschöneweide,Treptow-Köpenick,east,12487
Adlershof,s-bahn,KBS 110,1971321_east,"52.43472222,13.54138889",Q323551,,,,,,,19715.0,Adlershof,Treptow-Köpenick,east,12489
Grünau,s-bahn,KBS 110,1971322_east,"52.41220000,13.57460000",Q111307258,,,,,,,1971365.0,Grünau,Treptow-Köpenick,east,12527
Eichwalde,s-bahn,KBS 110,1971323_east,"52.37150000,13.61520000",Q19274479,,,,,,,1971245.0,,,east,
Zeuthen,s-bahn,KBS 110,1971324_east,"52.34860000,13.62740000",Q8069824,,,,,,,19711281.0,,,east,
Wildau,s-bahn,KBS 110,1971325_east,"52.32000000,13.63400000",Q8000974,,,,,,,19711229.0,,,east,
Königs Wusterhausen,s-bahn,KBS 110,1971326_east,"52.29660000,13.63110000",Q178002,,,,,,,1971586.0,,,east,
Friedrichstr.,s-bahn,KBS 115,1971327_east,"52.52027778,13.38694444",Q111219456,,,,,,,1971300.0,Mitte,Mitte,east,10117
Marx-Engels-Platz,s-bahn,KBS 115,1971328_east,"52.52260000,13.40220000",Q689312,,,,,,,1971683.0,Mitte,Mitte,east,10178
Alexanderplatz,s-bahn,KBS 115,1971329_east,"52.52138889,13.41194444",Q111324700,,,,,,,197114.0,Mitte,Mitte,east,10179
Jannowitzbrücke,s-bahn,KBS 115,1971330_east,"52.51482222,13.41795000",Q27955427,,,,,,,1971493.0,Mitte,Mitte,east,10179
Ostbahnhof,s-bahn,KBS 115,1971331_east,"52.51000000,13.43470000",Q111325075,,,,,,,1971763.0,Friedrichshain,Friedrichshain-Kreuzberg,east,10243
Warschauerstr. (< Ostkreuz),s-bahn,KBS 115,1971332_east,"52.50641667,13.45095556",Q664036,,,,,,,19711197.0,Friedrichshain,Friedrichshain-Kreuzberg,east,10245
Treptower Park,s-bahn,KBS 115,1971333_east,"52.49380000,13.46180000",Q559274,,,,,,,19711104.0,Alt-Treptow,Treptow-Köpenick,east,12435
Plänterwald,s-bahn,KBS 115,1971334_east,"52.47860000,13.47330000",Q7205917,,,,,,,1971807.0,Plänterwald,Treptow-Köpenick,east,12435
Baumschulenweg,s-bahn,KBS 115,1971335_east,"52.46750000,13.48972200",Q324336,,,,,,,197179.0,Baumschulenweg,Treptow-Köpenick,east,12437
Schöneweide,s-bahn,KBS 115,1971336_east,"52.45500000,13.50944444",Q111323931,,,,,,,19711001.0,Niederschöneweide,Treptow-Köpenick,east,12487
Betriebsbhf. Schöneweide,s-bahn,KBS 115,1971337_east,"52.44676000,13.52391000",Q4526101,,,,,,,1971103.0,Niederschöneweide,Treptow-Köpenick,east,12487
Adlershof,s-bahn,KBS 115,1971338_east,"52.43472222,13.54138889",Q323551,,,,,,,19715.0,Adlershof,Treptow-Köpenick,east,12489
Altglienicke,s-bahn,KBS 115,1971339_east,"52.40730000,13.55880000",Q4736651,,,,,,,197141.0,Altglienicke,Treptow-Köpenick,east,12524
Grünbergallee,s-bahn,KBS 115,1971340_east,"52.39920000,13.54160000",Q5612896,,,,,,,1971366.0,Altglienicke,Treptow-Köpenick,east,12526
Zentralflughafen Berlin-Schönefeld,s-bahn,KBS 115,1971341_east,"52.39140000,13.51280000",Q661069,,,,,,,19711277.0,,,east,
Hennigsdorf (b Bln),s-bahn,KBS 135,1971342_east,"52.63800000,13.20570000",Q800909,,,,,,,1971425.0,,,east,
Hennigsdorf Nord,s-bahn,KBS 135,1971343_east,"52.66000000,13.20330000",Q685717,,,,,,,1971426.0,,,east,
Hohenschöpping,s-bahn,KBS 135,1971344_east,"52.67000000,13.19450000",Q19274489,,,,,,,1971453.0,,,east,
Velten (Mark),s-bahn,KBS 135,1971345_east,"52.68500000,13.17222200",Q19274518,,,,,,,19711173.0,,,east,
Oranienburg,s-bahn,KBS 140,1971346_east,"52.75360000,13.24960000",Q2341669,,,,,,,1971749.0,,,east,
Lehnitz,s-bahn,KBS 140,1971347_east,"52.74110000,13.26350000",Q4258498,,,,,,,1971605.0,,,east,
Borgsdorf,s-bahn,KBS 140,1971348_east,"52.71550000,13.27640000",Q4093486,,,,,,,1971146.0,,,east,
Birkenwerder,s-bahn,KBS 140,1971349_east,"52.68850000,13.28880000",Q2343634,,,,,,,1971124.0,,,east,
Hohen Neuendorf (b Bln),s-bahn,KBS 140,1971350_east,"52.66840000,13.28700000",Q4500489,,,,,,,1971448.0,,,east,
Bergfelde (b Bln),s-bahn,KBS 140,1971351_east,"52.67020000,13.32030000",Q4891640,,,,,,,197187.0,,,east,
Schönfließ,s-bahn,KBS 140,1971352_east,"52.66480000,13.33970000",Q801423,,,,,,,19711002.0,,,east,
Blankenburg,s-bahn,KBS 140,1971353_east,"52.59150000,13.44350000",Q800469,,,,,,,1971135.0,Blankenburg,Pankow,east,13129
Pankow-Heinersdorf,s-bahn,KBS 140,1971354_east,"52.57806530,13.42950930",Q4892366,,,,,,,1971779.0,Pankow,Pankow,east,13189
Pankow,s-bahn,KBS 140,1971355_east,"52.56670000,13.41110000",Q111273850,,,,,,,1971772.0,Pankow,Pankow,east,13187
Schönhauserallee,s-bahn,KBS 140,1971356_east,"52.54932900,13.41370600",Q111264493,,,,,,,19711003.0,Prenzlauer Berg,Pankow,east,10439
Prenzlauerallee,s-bahn,KBS 140,1971357_east,"52.54477500,13.42611600",Q32661483,,,,,,,1971818.0,Prenzlauer Berg,Pankow,east,10437
Greifswalderstr.,s-bahn,KBS 140,1971358_east,"52.53972222,13.43944444",Q439246,,,,,,,1971346.0,Prenzlauer Berg,Pankow,east,10405
Leninallee,s-bahn,KBS 140,1971359_east,"52.52950000,13.45480000",Q800507,,,,,,,1971610.0,Prenzlauer Berg,Pankow,east,10407
Zentralviehhof,s-bahn,KBS 140,1971360_east,"52.52380000,13.46440000",Q800512,,,,,,,19711279.0,Prenzlauer Berg,Pankow,east,10249
Frankfurterallee,s-bahn,KBS 140,1971361_east,"52.51416667,13.47472222",Q111250033,,,,,,,1971281.0,Friedrichshain,Friedrichshain-Kreuzberg,east,10247
Ostkreuz,s-bahn,KBS 140,1971362_east,"52.50310000,13.46890000",Q111251530,,,,,,,1971764.0,Friedrichshain,Friedrichshain-Kreuzberg,east,10245
Treptower Park,s-bahn,KBS 140,1971363_east,"52.49380000,13.46180000",Q559274,,,,,,,19711104.0,Alt-Treptow,Treptow-Köpenick,east,12435
Plänterwald,s-bahn,KBS 140,1971364_east,"52.47860000,13.47330000",Q7205917,,,,,,,1971807.0,Plänterwald,Treptow-Köpenick,east,12435
Baumschulenweg,s-bahn,KBS 140,1971365_east,"52.46750000,13.48972200",Q324336,,,,,,,197179.0,Baumschulenweg,Treptow-Köpenick,east,12437
Schöneweide,s-bahn,KBS 140,1971366_east,"52.45500000,13.50944444",Q111323931,,,,,,,19711001.0,Niederschöneweide,Treptow-Köpenick,east,12487
Betriebsbhf. Schöneweide,s-bahn,KBS 140,1971367_east,"52.44676000,13.52391000",Q4526101,,,,,,,1971103.0,Niederschöneweide,Treptow-Köpenick,east,12487
Adlershof,s-bahn,KBS 140,1971368_east,"52.43472222,13.54138889",Q323551,,,,,,,19715.0,Adlershof,Treptow-Köpenick,east,12489
Altglienicke,s-bahn,KBS 140,1971369_east,"52.40730000,13.55880000",Q4736651,,,,,,,197141.0,Altglienicke,Treptow-Köpenick,east,12524
Grünbergallee,s-bahn,KBS 140,1971370_east,"52.39920000,13.54160000",Q5612896,,,,,,,1971366.0,Altglienicke,Treptow-Köpenick,east,12526
Zentralflughafen Berlin-Schönefeld,s-bahn,KBS 140,1971371_east,"52.39140000,13.51280000",Q661069,,,,,,,19711277.0,,,east,
Bernau (b Bln),s-bahn,KBS 141,1971372_east,"52.67630000,13.59310000",Q479789,,,,,,,197197.0,,,east,
Zepernick (b Bernau),s-bahn,KBS 141,1971373_east,"52.65980000,13.53420000",Q801657,,,,,,,19711280.0,,,east,
Röntgental,s-bahn,KBS 141,1971374_east,"52.64870000,13.51360000",Q801386,,,,,,,1971901.0,,,east,
Buch,s-bahn,KBS 141,1971375_east,"52.63590000,13.49170000",Q4892359,,,,,,,1971169.0,Buch,Pankow,east,13125
Karow,s-bahn,KBS 141,1971376_east,"52.61500000,13.46920000",Q111324168,,,,,,,1971527.0,Karow,Pankow,east,13125
Blankenburg,s-bahn,KBS 141,1971377_east,"52.59150000,13.44350000",Q800469,,,,,,,1971135.0,Blankenburg,Pankow,east,13129
Pankow-Heinersdorf,s-bahn,KBS 141,1971378_east,"52.57806530,13.42950930",Q4892366,,,,,,,1971779.0,Pankow,Pankow,east,13189
Pankow,s-bahn,KBS 141,1971379_east,"52.56670000,13.41110000",Q111273850,,,,,,,1971772.0,Pankow,Pankow,east,13187
Schönhauserallee,s-bahn,KBS 141,1971380_east,"52.54932900,13.41370600",Q111264493,,,,,,,19711003.0,Prenzlauer Berg,Pankow,east,10439
Prenzlauerallee,s-bahn,KBS 141,1971381_east,"52.54477500,13.42611600",Q32661483,,,,,,,1971818.0,Prenzlauer Berg,Pankow,east,10437
Greifswalderstr.,s-bahn,KBS 141,1971382_east,"52.53972222,13.43944444",Q439246,,,,,,,1971346.0,Prenzlauer Berg,Pankow,east,10405
Leninallee,s-bahn,KBS 141,1971383_east,"52.52950000,13.45480000",Q800507,,,,,,,1971610.0,Prenzlauer Berg,Pankow,east,10407
Zentralviehhof,s-bahn,KBS 141,1971384_east,"52.52380000,13.46440000",Q800512,,,,,,,19711279.0,Prenzlauer Berg,Pankow,east,10249
Frankfurterallee,s-bahn,KBS 141,1971385_east,"52.51416667,13.47472222",Q111250033,,,,,,,1971281.0,Friedrichshain,Friedrichshain-Kreuzberg,east,10247
Ostkreuz,s-bahn,KBS 141,1971386_east,"52.50310000,13.46890000",Q111251530,,,,,,,1971764.0,Friedrichshain,Friedrichshain-Kreuzberg,east,10245
Treptower Park,s-bahn,KBS 141,1971387_east,"52.49380000,13.46180000",Q559274,,,,,,,19711104.0,Alt-Treptow,Treptow-Köpenick,east,12435
Plänterwald,s-bahn,KBS 141,1971388_east,"52.47860000,13.47330000",Q7205917,,,,,,,1971807.0,Plänterwald,Treptow-Köpenick,east,12435
Baumschulenweg,s-bahn,KBS 141,1971389_east,"52.46750000,13.48972200",Q324336,,,,,,,197179.0,Baumschulenweg,Treptow-Köpenick,east,12437
Schöneweide,s-bahn,KBS 141,1971390_east,"52.45500000,13.50944444",Q111323931,,,,,,,19711001.0,Niederschöneweide,Treptow-Köpenick,east,12487
Betriebsbhf. Schöneweide,s-bahn,KBS 141,1971391_east,"52.44676000,13.52391000",Q4526101,,,,,,,1971103.0,Niederschöneweide,Treptow-Köpenick,east,12487
Adlershof,s-bahn,KBS 141,1971392_east,"52.43472222,13.54138889",Q323551,,,,,,,19715.0,Adlershof,Treptow-Köpenick,east,12489
Grünau,s-bahn,KBS 141,1971393_east,"52.41220000,13.57460000",Q111307258,,,,,,,1971365.0,Grünau,Treptow-Köpenick,east,12527
Eichwalde,s-bahn,KBS 141,1971394_east,"52.37150000,13.61520000",Q19274479,,,,,,,1971245.0,,,east,
Zeuthen,s-bahn,KBS 141,1971395_east,"52.34860000,13.62740000",Q8069824,,,,,,,19711281.0,,,east,
Blankenburg,s-bahn,KBS 142,1971396_east,"52.59150000,13.44350000",Q800469,,,,,,,1971135.0,Blankenburg,Pankow,east,13129
Pankow-Heinersdorf,s-bahn,KBS 142,1971397_east,"52.57806530,13.42950930",Q4892366,,,,,,,1971779.0,Pankow,Pankow,east,13189
Pankow,s-bahn,KBS 142,1971398_east,"52.56670000,13.41110000",Q111273850,,,,,,,1971772.0,Pankow,Pankow,east,13187
Schönhauserallee,s-bahn,KBS 142,1971399_east,"52.54932900,13.41370600",Q111264493,,,,,,,19711003.0,Prenzlauer Berg,Pankow,east,10439
Prenzlauerallee,s-bahn,KBS 142,1971400_east,"52.54477500,13.42611600",Q32661483,,,,,,,1971818.0,Prenzlauer Berg,Pankow,east,10437
Greifswalderstr.,s-bahn,KBS 142,1971401_east,"52.53972222,13.43944444",Q439246,,,,,,,1971346.0,Prenzlauer Berg,Pankow,east,10405
Leninallee,s-bahn,KBS 142,1971402_east,"52.52950000,13.45480000",Q800507,,,,,,,1971610.0,Prenzlauer Berg,Pankow,east,10407
Zentralviehhof,s-bahn,KBS 142,1971403_east,"52.52380000,13.46440000",Q800512,,,,,,,19711279.0,Prenzlauer Berg,Pankow,east,10249
Frankfurterallee,s-bahn,KBS 142,1971404_east,"52.51416667,13.47472222",Q111250033,,,,,,,1971281.0,Friedrichshain,Friedrichshain-Kreuzberg,east,10247
Ostkreuz,s-bahn,KBS 142,1971405_east,"52.50310000,13.46890000",Q111251530,,,,,,,1971764.0,Friedrichshain,Friedrichshain-Kreuzberg,east,10245
Treptower Park,s-bahn,KBS 142,1971406_east,"52.49380000,13.46180000",Q559274,,,,,,,19711104.0,Alt-Treptow,Treptow-Köpenick,east,12435
Plänterwald,s-bahn,KBS 142,1971407_east,"52.47860000,13.47330000",Q7205917,,,,,,,1971807.0,Plänterwald,Treptow-Köpenick,east,12435
Baumschulenweg,s-bahn,KBS 142,1971408_east,"52.46750000,13.48972200",Q324336,,,,,,,197179.0,Baumschulenweg,Treptow-Köpenick,east,12437
Schöneweide,s-bahn,KBS 142,1971409_east,"52.45500000,13.50944444",Q111323931,,,,,,,19711001.0,Niederschöneweide,Treptow-Köpenick,east,12487
Oberspree,s-bahn,KBS 142,1971410_east,"52.45250000,13.53820000",Q15192700,,,,,,,1971740.0,Niederschöneweide,Treptow-Köpenick,east,12439
Spindlersfeld,s-bahn,KBS 142,1971411_east,"52.44720000,13.56130000",Q4892371,,,,,,,19711039.0,Köpenick,Treptow-Köpenick,east,12555
Alexanderplatz,s-bahn,KBS 143,1971412_east,"52.52138889,13.41194444",Q111324700,,,,,,,197114.0,Mitte,Mitte,east,10179
Jannowitzbrücke,s-bahn,KBS 143,1971413_east,"52.51482222,13.41795000",Q27955427,,,,,,,1971493.0,Mitte,Mitte,east,10179
Ostbahnhof,s-bahn,KBS 143,1971414_east,"52.51000000,13.43470000",Q111325075,,,,,,,1971763.0,Friedrichshain,Friedrichshain-Kreuzberg,east,10243
Warschauerstr. (> Ostkreuz),s-bahn,KBS 143,1971415_east,"52.50641667,13.45095556",Q664036,,,,,,,19711198.0,Friedrichshain,Friedrichshain-Kreuzberg,east,10245
Frankfurterallee,s-bahn,KBS 143,1971416_east,"52.51416667,13.47472222",Q111250033,,,,,,,1971281.0,Friedrichshain,Friedrichshain-Kreuzberg,east,10247
Zentralviehhof,s-bahn,KBS 143,1971417_east,"52.52380000,13.46440000",Q800512,,,,,,,19711279.0,Prenzlauer Berg,Pankow,east,10249
Leninallee,s-bahn,KBS 143,1971418_east,"52.52950000,13.45480000",Q800507,,,,,,,1971610.0,Prenzlauer Berg,Pankow,east,10407
Greifswalderstr.,s-bahn,KBS 143,1971419_east,"52.53972222,13.43944444",Q439246,,,,,,,1971346.0,Prenzlauer Berg,Pankow,east,10405
Prenzlauerallee,s-bahn,KBS 143,1971420_east,"52.54477500,13.42611600",Q32661483,,,,,,,1971818.0,Prenzlauer Berg,Pankow,east,10437
Schönhauserallee,s-bahn,KBS 143,1971421_east,"52.54932900,13.41370600",Q111264493,,,,,,,19711003.0,Prenzlauer Berg,Pankow,east,10439
Pankow,s-bahn,KBS 143,1971422_east,"52.56670000,13.41110000",Q111273850,,,,,,,1971772.0,Pankow,Pankow,east,13187
Pankow-Heinersdorf,s-bahn,KBS 143,1971423_east,"52.57806530,13.42950930",Q4892366,,,,,,,1971779.0,Pankow,Pankow,east,13189
Blankenburg,s-bahn,KBS 143,1971424_east,"52.59150000,13.44350000",Q800469,,,,,,,1971135.0,Blankenburg,Pankow,east,13129
Björnsonstr.,tram,3,1971425_east,"52.55442320,13.40305850",Q65920495,,,,,,,1971132.0,Prenzlauer Berg,Pankow,east,10439
Schönhauserallee,tram,3,1971426_east,"52.55377050,13.41388980",Q65076842,,,,,,,19711004.0,Prenzlauer Berg,Pankow,east,10439
Stahlheimerstr.,tram,3,1971427_east,"52.55256470,13.42543200",Q65921488,,,,,,,19711047.0,Prenzlauer Berg,Pankow,east,10439
Prenzlauer Promenade,tram,3,1971428_east,"52.55155537,13.43032253",,,,,,,,1971822.0,Prenzlauer Berg,Pankow,east,10409
Antonplatz,tram,3,1971429_east,"52.54848030,13.45174160",Q65548849,,,,,,,197160.0,Weißensee,Pankow,east,13088
Lichtenbergerstr.,tram,3,1971430_east,"52.55203261,13.46568992",,,,,,,,1971622.0,Weißensee,Pankow,east,13088
Omnibus Betriebshof,tram,3,1971431_east,"52.54423460,13.46872150",Q65939077,,,,,,,1971746.0,Alt-Hohenschönhausen,Lichtenberg,east,13053
Hohenschönhauserstr.,tram,3,1971432_east,"52.53593290,13.47294680",Q65553684,,,,,,,1971452.0,Fennpfuhl,Lichtenberg,east,10369
Landsberger Ch.,tram,3,1971433_east,"52.53225800,13.47670500",Q65942700,,,,,,,1971600.0,Fennpfuhl,Lichtenberg,east,10369
Roederplatz,tram,3,1971434_east,"52.52660010,13.47906800",Q65685373,,,,,,,1971886.0,Fennpfuhl,Lichtenberg,east,10367
Josef-Orloppstr.,tram,3,1971435_east,"52.52369420,13.49963880",Q66015311,,,,,,,1971504.0,Lichtenberg,Lichtenberg,east,10365
Frankfurterallee,tram,3,1971436_east,"52.51380370,13.47737720",Q65948557,,,,,,,1971282.0,Lichtenberg,Lichtenberg,east,10365
Holteistr. Ecke Boxhagenerstr.,tram,3,1971437_east,"52.50882350,13.46596900","Q65675805, Q65675805",,,,,,,1971462.0,Friedrichshain,Friedrichshain-Kreuzberg,east,10245
Warschauerstr.,tram,3,1971438_east,"52.50502000,13.44863000",Q63490275,,,,,,,19711200.0,Friedrichshain,Friedrichshain-Kreuzberg,east,10245
Revalerstr.,tram,3,1971439_east,"52.50862262,13.45087891",,,,,,,,1971873.0,Friedrichshain,Friedrichshain-Kreuzberg,east,10243
Eberswalderstr. Ecke Oderbergerstr.,tram,4,1971440_east,"52.54061077,13.40455993",",+nan",,,,,,,1971235.0,Prenzlauer Berg,Pankow,east,10437
U-Bhf. Dimitroffstr.,tram,4,1971441_east,"52.54019280,13.41139790",Q65088313,,,,,,,19711115.0,Prenzlauer Berg,Pankow,east,10435
Prenzlauerallee,tram,4,1971442_east,"52.53965220,13.42447890",Q65222180,,,,,,,1971819.0,Prenzlauer Berg,Pankow,east,10405
Greifswalderstr.,tram,4,1971443_east,"52.53649750,13.43340450",Q65548960,,,,,,,1971349.0,Prenzlauer Berg,Pankow,east,10405
Arnswalderplatz,tram,4,1971444_east,"52.53422160,13.43712450",Q65707667,,,,,,,197163.0,Prenzlauer Berg,Pankow,east,10407
Kniprodestr.,tram,4,1971445_east,"52.53252860,13.44068680",Q65707391,,,,,,,1971548.0,Prenzlauer Berg,Pankow,east,10407
Leninallee,tram,4,1971446_east,"52.52593430,13.44623680",Q65553230,,,,,,,1971611.0,Friedrichshain,Friedrichshain-Kreuzberg,east,10249
Frankfurter Tor,tram,4,1971447_east,"52.51122847,13.50020733",Q65706246+nan,,,,,,,1971284.0,Rummelsburg,Lichtenberg,east,10317
Grünbergerstr.,tram,4,1971448_east,"52.51223590,13.45260900",Q65706239,,,,,,,1971368.0,Friedrichshain,Friedrichshain-Kreuzberg,east,10243
Revalerstr.,tram,4,1971449_east,"52.50862262,13.45087891",,,,,,,,1971873.0,Friedrichshain,Friedrichshain-Kreuzberg,east,10243
Oderbergerstr. Ecke Eberswalderstr.,tram,13,1971450_east,"52.54061077,13.40455993",,,,,,,,1971742.0,Prenzlauer Berg,Pankow,east,10437
U-Bhf. Dimitroffstr.,tram,13,1971451_east,"52.54019280,13.41139790",Q65088313,,,,,,,19711115.0,Prenzlauer Berg,Pankow,east,10435
Prenzlauerallee,tram,13,1971452_east,"52.53965220,13.42447890",Q65222180,,,,,,,1971819.0,Prenzlauer Berg,Pankow,east,10405
Greifswalderstr.,tram,13,1971453_east,"52.53649750,13.43340450",Q65548960,,,,,,,1971349.0,Prenzlauer Berg,Pankow,east,10405
Arnswalderplatz,tram,13,1971454_east,"52.53422160,13.43712450",Q65707667,,,,,,,197163.0,Prenzlauer Berg,Pankow,east,10407
Kniprodestr.,tram,13,1971455_east,"52.53252860,13.44068680",Q65707391,,,,,,,1971548.0,Prenzlauer Berg,Pankow,east,10407
Leninallee,tram,13,1971456_east,"52.52593430,13.44623680",Q65553230,,,,,,,1971611.0,Friedrichshain,Friedrichshain-Kreuzberg,east,10249
Frankfurter Tor,tram,13,1971457_east,"52.51122847,13.50020733",Q65706246+nan,,,,,,,1971284.0,Rummelsburg,Lichtenberg,east,10317
Holteistr. Ecke Boxhagenerstr.,tram,13,1971458_east,"52.50882350,13.46596900","Q65675805, Q65675805",,,,,,,1971462.0,Friedrichshain,Friedrichshain-Kreuzberg,east,10245
Hauptstr.,tram,13,1971459_east,"52.50126419,13.47581326",,,,,,,,1971395.0,Rummelsburg,Lichtenberg,east,10317
Kraftwerk Klingenberg,tram,13,1971460_east,"52.48813740,13.49586850",Q66079524,,,,,,,1971556.0,Rummelsburg,Lichtenberg,east,10317
Hönower Wiesenweg Ecke Blockdammweg,tram,13,1971461_east,"52.48430451,13.50580476",,,,,,,,1971480.0,Karlshorst,Lichtenberg,east,10317
Haeckelstr.,tram,17,1971462_east,"52.44042167,13.50554816",,,,,,,,1971379.0,Johannisthal,Treptow-Köpenick,east,12487
Bhf. Schöneweide,tram,17,1971463_east,"52.45640818,13.50991657",,,,,,,,1971116.0,Niederschöneweide,Treptow-Köpenick,east,12439
Wilhelminenhofstr.,tram,17,1971464_east,"52.46083797,13.52105438",,,,,,,,19711232.0,Oberschöneweide,Treptow-Köpenick,east,12459
Bhf. Karlshorst,tram,17,1971465_east,"52.48133100,13.52544330",Q65952829,,,,,,,1976170.0,Karlshorst,Lichtenberg,east,10318
Hochschule für Ökonomie,tram,17,1971466_east,"52.49276810,13.52660590",Q65952866+nan,,,,,,,1971447.0,Karlshorst,Lichtenberg,east,10318
Tierpark Berlin,tram,17,1971467_east,"52.50297205,13.52091647",,,,,,,,19711100.0,Friedrichsfelde,Lichtenberg,east,10319
Bhf. Lichtenberg,tram,17,1971468_east,"52.51236030,13.49775470",Q66013733,,,,,,,1971113.0,Lichtenberg,Lichtenberg,east,10365
Strab.-Betriebshof,tram,17,1971469_east,"52.52064110,13.49944540",Q66014798,,,,,,,19711054.0,Lichtenberg,Lichtenberg,east,10365
VEB Elektrokohle,tram,17,1971470_east,"52.52659740,13.48976560",Q65685127,,,,,,,19711172.0,Lichtenberg,Lichtenberg,east,10365
Roederplatz,tram,17,1971471_east,"52.52660010,13.47906800",Q65685373,,,,,,,1971886.0,Fennpfuhl,Lichtenberg,east,10367
S-Bhf. Leninallee,tram,17,1971472_east,"52.52851097,13.45586231",",+nan, nan",,,,,,,1971934.0,Prenzlauer Berg,Pankow,east,10407
Dimitroffstr.,tram,17,1971473_east,"52.52646281,13.44769018",,,,,,,,1971220.0,Friedrichshain,Friedrichshain-Kreuzberg,east,10249
Kniprodestr.,tram,17,1971474_east,"52.53252860,13.44068680",Q65707391,,,,,,,1971548.0,Prenzlauer Berg,Pankow,east,10407
Mahlsdorferstr.,tram,19,1971475_east,"52.46229465,13.58295230",,,,,,,,1971664.0,Köpenick,Treptow-Köpenick,east,12555
S-Bhf. Köpenick,tram,19,1971476_east,"52.45821530,13.57904350",Q66370784,,,,,,,1971932.0,Köpenick,Treptow-Köpenick,east,12555
Hegelschule,tram,19,1971477_east,"52.45050940,13.57268400",,,,,,,,1971411.0,Köpenick,Treptow-Köpenick,east,12555
Pionierpark,tram,19,1971478_east,"52.45798013,13.54198083",,,,,,,,1971801.0,Oberschöneweide,Treptow-Köpenick,east,12459
Edisonstr.,tram,19,1971479_east,"52.46194960,13.51390490",Q65951882,,,,,,,1971237.0,Oberschöneweide,Treptow-Köpenick,east,12459
Bhf. Karlshorst,tram,19,1971480_east,"52.48133100,13.52544330",Q65952829,,,,,,,1976170.0,Karlshorst,Lichtenberg,east,10318
Hochschule für Ökonomie,tram,19,1971481_east,"52.49276810,13.52660590",Q65952866+nan,,,,,,,1971447.0,Karlshorst,Lichtenberg,east,10318
Tierpark Berlin,tram,19,1971482_east,"52.50297205,13.52091647",,,,,,,,19711100.0,Friedrichsfelde,Lichtenberg,east,10319
Bhf. Lichtenberg,tram,19,1971483_east,"52.51236030,13.49775470",Q66013733,,,,,,,1971113.0,Lichtenberg,Lichtenberg,east,10365
Strab.-Betriebshof,tram,19,1971484_east,"52.52064110,13.49944540",Q66014798,,,,,,,19711054.0,Lichtenberg,Lichtenberg,east,10365
VEB Elektrokohle,tram,19,1971485_east,"52.52659740,13.48976560",Q65685127,,,,,,,19711172.0,Lichtenberg,Lichtenberg,east,10365
Roederplatz,tram,19,1971486_east,"52.52660010,13.47906800",Q65685373,,,,,,,1971886.0,Fennpfuhl,Lichtenberg,east,10367
S-Bhf. Leninallee,tram,19,1971487_east,"52.52851097,13.45586231",",+nan, nan",,,,,,,1971934.0,Prenzlauer Berg,Pankow,east,10407
Dimitroffstr.,tram,19,1971488_east,"52.52646281,13.44769018",,,,,,,,1971220.0,Friedrichshain,Friedrichshain-Kreuzberg,east,10249
Kniprodestr.,tram,19,1971489_east,"52.53252860,13.44068680",Q65707391,,,,,,,1971548.0,Prenzlauer Berg,Pankow,east,10407
S-Bhf. Ostkreuz,tram,21,1971490_east,"52.50243022,13.46902005",,,,,,,,1971938.0,Friedrichshain,Friedrichshain-Kreuzberg,east,10245
Kraftwerk Klingenberg,tram,21,1971491_east,"52.48813740,13.49586850",Q66079524,,,,,,,1971556.0,Rummelsburg,Lichtenberg,east,10317
"Hönow, Wiesenweg",tram,21,1971492_east,"52.48427629,13.50582097",,,,,,,,1971478.0,Karlshorst,Lichtenberg,east,10317
Hermann-Dunckerstr.,tram,21,1971493_east,"52.46876383,13.51454642",,,,,,,,1976612.0,Oberschöneweide,Treptow-Köpenick,east,12459
Wilhelminenhofstr.,tram,21,1971494_east,"52.46083797,13.52105438",,,,,,,,19711232.0,Oberschöneweide,Treptow-Köpenick,east,12459
Bhf. Schöneweide,tram,21,1971495_east,"52.45640818,13.50991657",,,,,,,,1971116.0,Niederschöneweide,Treptow-Köpenick,east,12439
Kali-Chemie,tram,21,1971496_east,"52.46329855,13.49978977",",+nan+nan, nan",,,,,,,1971514.0,Niederschöneweide,Treptow-Köpenick,east,12439
S-Bhf. Baumschulenweg,tram,21,1971497_east,"52.46749282,13.48937927",,,,,,,,1971915.0,Baumschulenweg,Treptow-Köpenick,east,12437
Hauptstr.,tram,22,1971498_east,"52.50126419,13.47581326",,,,,,,,1971395.0,Rummelsburg,Lichtenberg,east,10317
Nordendstr.,tram,22,1971499_east,"52.58853400,13.38829520",Q65428345,,,,,,,1971733.0,Niederschönhausen,Pankow,east,13156
Kurt-Fischer-Platz,tram,22,1971500_east,"52.57866800,13.39830160",Q65032974,,,,,,,1971580.0,Niederschönhausen,Pankow,east,13156
"Pankow, Rathaus",tram,22,1971501_east,"52.56948160,13.40380450",Q65055060,,,,,,,1971778.0,Pankow,Pankow,east,13187
"Pankow, Kirche",tram,22,1971502_east,"52.57064520,13.41031150",Q65055066,,,,,,,1971776.0,Pankow,Pankow,east,13187
U-Bhf. Pankow,tram,22,1971503_east,"52.56756920,13.41216410",Q65055075,,,,,,,19711141.0,Pankow,Pankow,east,13187
S-Bhf. Schönhauserallee,tram,22,1971504_east,"52.54936190,13.41357340",Q65088013,,,,,,,1971946.0,Prenzlauer Berg,Pankow,east,10439
U-Bhf. Dimitroffstr.,tram,22,1971505_east,"52.54019280,13.41139790",Q65088313,,,,,,,19711115.0,Prenzlauer Berg,Pankow,east,10435
Brunnenstr.,tram,22,1971506_east,"52.53245420,13.39742360",Q65691740,,,,,,,1971167.0,Mitte,Mitte,east,10115
Oranienburgerstr.,tram,22,1971507_east,"52.52634951,13.38721026",,,,,,,,1971753.0,Mitte,Mitte,east,10117
Bhf. Friedrichstr.,tram,22,1971508_east,"52.51928050,13.38841070",Q65095382,,,,,,,1971110.0,Mitte,Mitte,east,10117
Am Kupfergraben,tram,22,1971509_east,"52.51942080,13.39538390",Q65055027,,,,,,,197148.0,Mitte,Mitte,east,10117
Nordend,tram,46,1971510_east,"52.59021040,13.40275240",Q65032696,,,,,,,1971732.0,Niederschönhausen,Pankow,east,13156
Kurt-Fischer-Platz,tram,46,1971511_east,"52.57866800,13.39830160",Q65032974,,,,,,,1971580.0,Niederschönhausen,Pankow,east,13156
"Pankow, Rathaus",tram,46,1971512_east,"52.56948160,13.40380450",Q65055060,,,,,,,1971778.0,Pankow,Pankow,east,13187
"Pankow, Kirche",tram,46,1971513_east,"52.57064520,13.41031150",Q65055066,,,,,,,1971776.0,Pankow,Pankow,east,13187
U-Bhf. Pankow,tram,46,1971514_east,"52.56756920,13.41216410",Q65055075,,,,,,,19711141.0,Pankow,Pankow,east,13187
S-Bhf. Schönhauserallee,tram,46,1971515_east,"52.54936190,13.41357340",Q65088013,,,,,,,1971946.0,Prenzlauer Berg,Pankow,east,10439
Vinetastr.,tram,46,1971516_east,"52.55961700,13.41323200",Q65075426,,,,,,,19711177.0,Pankow,Pankow,east,13189
U-Bhf. Dimitroffstr.,tram,46,1971517_east,"52.54019280,13.41139790",Q65088313,,,,,,,19711115.0,Prenzlauer Berg,Pankow,east,10435
Brunnenstr.,tram,46,1971518_east,"52.53245420,13.39742360",Q65691740,,,,,,,1971167.0,Mitte,Mitte,east,10115
Oranienburger Tor,tram,46,1971519_east,"52.52560310,13.38727450",Q65095375,,,,,,,1971752.0,Mitte,Mitte,east,10117
Bhf. Friedrichstr.,tram,46,1971520_east,"52.51928050,13.38841070",Q65095382,,,,,,,1971110.0,Mitte,Mitte,east,10117
Am Kupfergraben,tram,46,1971521_east,"52.51942080,13.39538390",Q65055027,,,,,,,197148.0,Mitte,Mitte,east,10117
Hauptstr.,tram,49,1971522_east,"52.50126419,13.47581326",,,,,,,,1971395.0,Rummelsburg,Lichtenberg,east,10317
Rosenthalerstr.,tram,49,1971523_east,"52.59633000,13.43287600",Q66192394,,,,,,,1971892.0,Französisch Buchholz,Pankow,east,13127
Galenusstr.,tram,49,1971524_east,"52.58181830,13.42876780",Q66195410,,,,,,,1971310.0,Pankow,Pankow,east,13127
S-Bhf. Pankow-Heinersdorf,tram,49,1971525_east,"52.57750782,13.42785306",,,,,,,,1971940.0,Pankow,Pankow,east,13187
"Pankow, Kirche",tram,49,1971526_east,"52.57064520,13.41031150",Q65055066,,,,,,,1971776.0,Pankow,Pankow,east,13187
U-Bhf- Pankow,tram,49,1971527_east,"52.56756920,13.41216410",Q65055075,,,,,,,19711109.0,Pankow,Pankow,east,13187
S-Bhf. Schönhauserallee,tram,49,1971528_east,"52.54936190,13.41357340",Q65088013,,,,,,,1971946.0,Prenzlauer Berg,Pankow,east,10439
U-Bhf. Dimitroffstr.,tram,49,1971529_east,"52.54019280,13.41139790",Q65088313,,,,,,,19711115.0,Prenzlauer Berg,Pankow,east,10435
Rosenthalerplatz,tram,49,1971530_east,"52.53017690,13.40161210",Q65093945,,,,,,,1971891.0,Mitte,Mitte,east,10119
Hackescher Markt,tram,49,1971531_east,"52.52270059,13.40160586",Q65094590+nan,,,,,,,1971378.0,Mitte,Mitte,east,10178
"Hohenschönhausen, Gartenstadt",tram,63,1971532_east,"52.55086720,13.50949940",Q65555882,,,,,,,1971450.0,Alt-Hohenschönhausen,Lichtenberg,east,13053
Falkenbergerstr. Ecke Wartenbergerstr.,tram,63,1971533_east,"52.55036672,13.50991503",,,,,,,,1971264.0,Alt-Hohenschönhausen,Lichtenberg,east,13053
Suermondtstr.,tram,63,1971534_east,"52.54905169,13.50159885",,,,,,,,19711069.0,Alt-Hohenschönhausen,Lichtenberg,east,13055
Oberseestr.,tram,63,1971535_east,"52.54629038,13.49660836",,,,,,,,1971738.0,Alt-Hohenschönhausen,Lichtenberg,east,13055
Weißenseerweg,tram,63,1971536_east,"52.53225800,13.47670500",Q65942700,,,,,,,19711214.0,Fennpfuhl,Lichtenberg,east,10369
S-Bhf. Leninallee,tram,63,1971537_east,"52.52851097,13.45586231",",+nan, nan",,,,,,,1971934.0,Prenzlauer Berg,Pankow,east,10407
Dimitroffstr.,tram,63,1971538_east,"52.52646281,13.44769018",,,,,,,,1971220.0,Friedrichshain,Friedrichshain-Kreuzberg,east,10249
Leninplatz,tram,63,1971539_east,"52.52326580,13.43264570",Q65553105,,,,,,,1971613.0,Friedrichshain,Friedrichshain-Kreuzberg,east,10249
Prenzlauer Tor,tram,63,1971540_east,"52.52709114,13.41580937",,,,,,,,1971824.0,Mitte,Mitte,east,10178
U-Bhf. Luxemburgplatz,tram,63,1971541_east,"52.52861050,13.41041230",Q65690179,,,,,,,19711134.0,Mitte,Mitte,east,10119
Hackescher Markt,tram,63,1971542_east,"52.52270059,13.40160586",Q65094590+nan,,,,,,,1971378.0,Mitte,Mitte,east,10178
Oranienburger Tor,tram,63,1971543_east,"52.52560310,13.38727450",Q65095375,,,,,,,1971752.0,Mitte,Mitte,east,10117
Walter-Ulbricht-Stadion,tram,63,1971544_east,"52.53596333,13.37632165",,,,,,,,19711188.0,Mitte,Mitte,east,10115
"Johannisthal, Haeckelstr.",tram,69,1971545_east,"52.44029440,13.50526380",Q66225573,,,,,,,1971499.0,Johannisthal,Treptow-Köpenick,east,12487
Bhf. Schöneweide,tram,69,1971546_east,"52.45640818,13.50991657",,,,,,,,1971116.0,Niederschöneweide,Treptow-Köpenick,east,12439
Wilhelminenhofstr.,tram,69,1971547_east,"52.46083797,13.52105438",,,,,,,,19711232.0,Oberschöneweide,Treptow-Köpenick,east,12459
S-Bhf. Karlshorst,tram,69,1971548_east,"52.48133100,13.52544330",Q65952829,,,,,,,1971929.0,Karlshorst,Lichtenberg,east,10318
Hochschule für Ökonomie,tram,69,1971549_east,"52.49276810,13.52660590",Q65952866+nan,,,,,,,1971447.0,Karlshorst,Lichtenberg,east,10318
Tierpark Berlin,tram,69,1971550_east,"52.50297205,13.52091647",,,,,,,,19711100.0,Friedrichsfelde,Lichtenberg,east,10319
Alt-Friedrichsfelde Ecke Am Tierpark,tram,69,1971551_east,"52.50914094,13.51812993",,,,,,,,197120.0,Friedrichsfelde,Lichtenberg,east,10315
Bhf. Lichtenberg,tram,69,1971552_east,"52.51236030,13.49775470",Q66013733,,,,,,,1971113.0,Lichtenberg,Lichtenberg,east,10365
Strab. Bhf. Siegfriedstr.,tram,69,1971553_east,"52.52064110,13.49944540",Q66014798,,,,,,,19711053.0,Lichtenberg,Lichtenberg,east,10365
Herzbergstr.,tram,69,1971554_east,"52.52637000,13.49903600",Q65684891,,,,,,,1971438.0,Lichtenberg,Lichtenberg,east,10365
Roederplatz,tram,69,1971555_east,"52.52660010,13.47906800",Q65685373,,,,,,,1971886.0,Fennpfuhl,Lichtenberg,east,10367
Steuerhaus,tram,69,1971556_east,"52.53049300,13.46149890",Q65553632,,,,,,,19711052.0,Prenzlauer Berg,Pankow,east,10407
Dimitroffstr.,tram,69,1971557_east,"52.52646281,13.44769018",,,,,,,,1971220.0,Friedrichshain,Friedrichshain-Kreuzberg,east,10249
Leninplatz,tram,69,1971558_east,"52.52326580,13.43264570",Q65553105,,,,,,,1971613.0,Friedrichshain,Friedrichshain-Kreuzberg,east,10249
"Alexanderplatz, Memhardstr.",tram,69,1971559_east,"52.52334390,13.41107730",Q65227406,,,,,,,197116.0,Mitte,Mitte,east,10178
Hackescher Markt,tram,69,1971560_east,"52.52270059,13.40160586",Q65094590+nan,,,,,,,1971378.0,Mitte,Mitte,east,10178
Oranienburger Tor,tram,69,1971561_east,"52.52560310,13.38727450",Q65095375,,,,,,,1971752.0,Mitte,Mitte,east,10117
Walter-Ulbricht-Stadion,tram,69,1971562_east,"52.53596333,13.37632165",,,,,,,,19711188.0,Mitte,Mitte,east,10115
"Hohenschönhausen, Falkenbergerstr.",tram,70,1971563_east,"52.55086720,13.50949940",Q65555882,,,,,,,1971449.0,Alt-Hohenschönhausen,Lichtenberg,east,13053
Berlinerstr. Ecke Suermondtstr.,tram,70,1971564_east,"52.54900402,13.50174036",,,,,,,,197192.0,Alt-Hohenschönhausen,Lichtenberg,east,13055
Stadion Buschallee,tram,70,1971565_east,"52.55667180,13.48698340",Q65504715,,,,,,,19711044.0,Weißensee,Pankow,east,13088
Kniprodeallee,tram,70,1971566_east,"52.55328910,13.47953543",,,,,,,,1971546.0,Weißensee,Pankow,east,13088
Buschallee Ecke Klement-Gottwald-Allee,tram,70,1971567_east,"52.55375980,13.46919660",Q65546661,,,,,,,1971182.0,Weißensee,Pankow,east,13088
Lichtenbergerstr.,tram,70,1971568_east,"52.55203261,13.46568992",,,,,,,,1971622.0,Weißensee,Pankow,east,13088
Antonplatz,tram,70,1971569_east,"52.54848030,13.45174160",Q65548849,,,,,,,197160.0,Weißensee,Pankow,east,13088
Prenzlauer Promenade,tram,70,1971570_east,"52.55155537,13.43032253",,,,,,,,1971822.0,Prenzlauer Berg,Pankow,east,10409
Humannplatz,tram,70,1971571_east,"52.54936270,13.42136460",Q65962652,,,,,,,1971471.0,Prenzlauer Berg,Pankow,east,10439
U-Bhf. Dimitroffstr.,tram,70,1971572_east,"52.54019280,13.41139790",Q65088313,,,,,,,19711115.0,Prenzlauer Berg,Pankow,east,10435
Brunnenstr.,tram,70,1971573_east,"52.53245420,13.39742360",Q65691740,,,,,,,1971167.0,Mitte,Mitte,east,10115
Chausseestr.,tram,70,1971574_east,"52.53061984,13.38304279",,,,,,,,1971196.0,Mitte,Mitte,east,10115
Oranienburger Tor,tram,70,1971575_east,"52.52560310,13.38727450",Q65095375,,,,,,,1971752.0,Mitte,Mitte,east,10117
Bhf. Friedrichstr.,tram,70,1971576_east,"52.51928050,13.38841070",Q65095382,,,,,,,1971110.0,Mitte,Mitte,east,10117
Am Kupfergraben,tram,70,1971577_east,"52.51942080,13.39538390",Q65055027,,,,,,,197148.0,Mitte,Mitte,east,10117
"Romain-Rollandstr., Heinersdorf",tram,71,1971578_east,"52.57255110,13.43710630",Q65096052,,,,,,,1971888.0,Heinersdorf,Pankow,east,13089
"Heinersdorf, Kirche",tram,71,1971579_east,"52.56869080,13.43890530",Q65096107,,,,,,,1971421.0,Heinersdorf,Pankow,east,13089
Grüne Wiese,tram,71,1971580_east,"52.56214782,13.43485358",,,,,,,,1971369.0,Heinersdorf,Pankow,east,13089
Prenzlauer Promenade,tram,71,1971581_east,"52.55155537,13.43032253",,,,,,,,1971822.0,Prenzlauer Berg,Pankow,east,10409
S-Bhf. Prenzlauerallee,tram,71,1971582_east,"52.54480750,13.42740800",Q65219791,,,,,,,1971942.0,Prenzlauer Berg,Pankow,east,10409
Dimitroffstr.,tram,71,1971583_east,"52.52646281,13.44769018",,,,,,,,1971220.0,Friedrichshain,Friedrichshain-Kreuzberg,east,10249
Knaackstr.,tram,71,1971584_east,"52.54077562,13.41431462",,,,,,,,1971544.0,Prenzlauer Berg,Pankow,east,10435
Wilhelm-Piekstr.,tram,71,1971585_east,"52.52702460,13.41567345",,,,,,,,19711231.0,Mitte,Mitte,east,10178
U-Bhf. Luxemburgplatz,tram,71,1971586_east,"52.52861050,13.41041230",Q65690179,,,,,,,19711134.0,Mitte,Mitte,east,10119
Hackescher Markt,tram,71,1971587_east,"52.52270059,13.40160586",Q65094590+nan,,,,,,,1971378.0,Mitte,Mitte,east,10178
Oranienburger Tor,tram,71,1971588_east,"52.52560310,13.38727450",Q65095375,,,,,,,1971752.0,Mitte,Mitte,east,10117
Am Kupfergraben,tram,71,1971589_east,"52.51942080,13.39538390",Q65055027,,,,,,,197148.0,Mitte,Mitte,east,10117
"Weißensee, Pasedagplatz",tram,72,1971590_east,"52.55940270,13.46095940",Q65954665,,,,,,,19711211.0,Weißensee,Pankow,east,13086
Buschallee,tram,72,1971591_east,"52.55375980,13.46919660",Q65546661,,,,,,,1971180.0,Weißensee,Pankow,east,13088
Antonplatz,tram,72,1971592_east,"52.54848030,13.45174160",Q65548849,,,,,,,197160.0,Weißensee,Pankow,east,13088
Prenzlauer Promenade,tram,72,1971593_east,"52.55155537,13.43032253",,,,,,,,1971822.0,Prenzlauer Berg,Pankow,east,10409
S-Bhf. Prenzlauerallee,tram,72,1971594_east,"52.54480750,13.42740800",Q65219791,,,,,,,1971942.0,Prenzlauer Berg,Pankow,east,10409
Dimitroffstr.,tram,72,1971595_east,"52.52646281,13.44769018",,,,,,,,1971220.0,Friedrichshain,Friedrichshain-Kreuzberg,east,10249
Knaackstr.,tram,72,1971596_east,"52.54077562,13.41431462",,,,,,,,1971544.0,Prenzlauer Berg,Pankow,east,10435
Wilhelm-Piekstr.,tram,72,1971597_east,"52.52702460,13.41567345",,,,,,,,19711231.0,Mitte,Mitte,east,10178
U-Bhf. Luxemburgplatz,tram,72,1971598_east,"52.52861050,13.41041230",Q65690179,,,,,,,19711134.0,Mitte,Mitte,east,10119
Hackescher Markt,tram,72,1971599_east,"52.52270059,13.40160586",Q65094590+nan,,,,,,,1971378.0,Mitte,Mitte,east,10178
"Weißensee, Pasedagplatz",tram,73,1971600_east,"52.55940270,13.46095940",Q65954665,,,,,,,19711211.0,Weißensee,Pankow,east,13086
Buschallee,tram,73,1971601_east,"52.55375980,13.46919660",Q65546661,,,,,,,1971180.0,Weißensee,Pankow,east,13088
Antonplatz,tram,73,1971602_east,"52.54848030,13.45174160",Q65548849,,,,,,,197160.0,Weißensee,Pankow,east,13088
S-Bhf. Greifswalderstr.,tram,73,1971603_east,"52.54072340,13.43829040",Q65548932,,,,,,,1971922.0,Prenzlauer Berg,Pankow,east,10405
Dimitroffstr.,tram,73,1971604_east,"52.52646281,13.44769018",,,,,,,,1971220.0,Friedrichshain,Friedrichshain-Kreuzberg,east,10249
U-Bhf. Luxemburgplatz,tram,73,1971605_east,"52.52861050,13.41041230",Q65690179,,,,,,,19711134.0,Mitte,Mitte,east,10119
Hackescher Markt,tram,73,1971606_east,"52.52270059,13.40160586",Q65094590+nan,,,,,,,1971378.0,Mitte,Mitte,east,10178
Oranienburger Tor,tram,73,1971607_east,"52.52560310,13.38727450",Q65095375,,,,,,,1971752.0,Mitte,Mitte,east,10117
Walter-Ulbricht-Stadion über Greifswalderstr.,tram,73,1971608_east,"52.53651514,13.37777572",,,,,,,,19711189.0,Mitte,Mitte,east,10115
"Wießensee, Bernkastelerstr.",tram,74,1971609_east,"52.55700474,13.46700585",,,,,,,,19711228.0,Weißensee,Pankow,east,13088
Buschallee,tram,74,1971610_east,"52.55375980,13.46919660",Q65546661,,,,,,,1971180.0,Weißensee,Pankow,east,13088
Antonplatz,tram,74,1971611_east,"52.54848030,13.45174160",Q65548849,,,,,,,197160.0,Weißensee,Pankow,east,13088
S-Bhf. Greifswalderstr.,tram,74,1971612_east,"52.54072340,13.43829040",Q65548932,,,,,,,1971922.0,Prenzlauer Berg,Pankow,east,10405
Dimitroffstr.,tram,74,1971613_east,"52.52646281,13.44769018",,,,,,,,1971220.0,Friedrichshain,Friedrichshain-Kreuzberg,east,10249
Mollstr. Ecke Hans-Beimlerstr.,tram,74,1971614_east,"52.52554730,13.42027550",Q65548984,,,,,,,1971700.0,Friedrichshain,Friedrichshain-Kreuzberg,east,10249
Leninplatz,tram,74,1971615_east,"52.52326580,13.43264570",Q65553105,,,,,,,1971613.0,Friedrichshain,Friedrichshain-Kreuzberg,east,10249
Bersarinstr.,tram,74,1971616_east,"52.52593430,13.44623680",Q65553230,,,,,,,1971101.0,Friedrichshain,Friedrichshain-Kreuzberg,east,10249
S-Bhf. Leninallee,tram,74,1971617_east,"52.52851097,13.45586231",",+nan, nan",,,,,,,1971934.0,Prenzlauer Berg,Pankow,east,10407
Weißenseerweg,tram,74,1971618_east,"52.53225800,13.47670500",Q65942700,,,,,,,19711214.0,Fennpfuhl,Lichtenberg,east,10369
Hauptstr.,tram,74,1971619_east,"52.50126419,13.47581326",,,,,,,,1971395.0,Rummelsburg,Lichtenberg,east,10317
Falkenbergerstr.,tram,74,1971620_east,"52.55481560,13.46763810",Q65956714,,,,,,,1971262.0,Weißensee,Pankow,east,13088
Bernkastelerstr.,tram,75,1971621_east,"52.55700474,13.46700585",,,,,,,,1971100.0,Weißensee,Pankow,east,13088
Buschallee,tram,75,1971622_east,"52.55375980,13.46919660",Q65546661,,,,,,,1971180.0,Weißensee,Pankow,east,13088
Antonplatz,tram,75,1971623_east,"52.54848030,13.45174160",Q65548849,,,,,,,197160.0,Weißensee,Pankow,east,13088
S-Bhf. Greifswalderstr.,tram,75,1971624_east,"52.54072340,13.43829040",Q65548932,,,,,,,1971922.0,Prenzlauer Berg,Pankow,east,10405
Dimitroffstr.,tram,75,1971625_east,"52.52646281,13.44769018",,,,,,,,1971220.0,Friedrichshain,Friedrichshain-Kreuzberg,east,10249
Mollstr.,tram,75,1971626_east,"52.52609177,13.41755449",,,,,,,,1971699.0,Mitte,Mitte,east,10178
U-Bhf. Luxemburgplatz,tram,75,1971627_east,"52.52861050,13.41041230",Q65690179,,,,,,,19711134.0,Mitte,Mitte,east,10119
Hackescher Markt,tram,75,1971628_east,"52.52270059,13.40160586",Q65094590+nan,,,,,,,1971378.0,Mitte,Mitte,east,10178
"Mahlsdorf-Süd, Hubertus",tram,82,1971629_east,"52.47416630,13.59914430",Q66368466,,,,,,,1971662.0,Köpenick,Treptow-Köpenick,east,12555
Uhlenhorst,tram,82,1971630_east,"52.46827685,13.58675426",,,,,,,,19711162.0,Köpenick,Treptow-Köpenick,east,12555
S-Bhf. Köpenick,tram,82,1971631_east,"52.45821530,13.57904350",Q66370784,,,,,,,1971932.0,Köpenick,Treptow-Köpenick,east,12555
Hegelschule,tram,82,1971632_east,"52.45050940,13.57268400",,,,,,,,1971411.0,Köpenick,Treptow-Köpenick,east,12555
E.-Weinert-Klubh.,tram,82,1971633_east,"52.45588706,13.55825139",,,,,,,,1971234.0,Oberschöneweide,Treptow-Köpenick,east,12459
Pionierpark,tram,82,1971634_east,"52.45798013,13.54198083",,,,,,,,1971801.0,Oberschöneweide,Treptow-Köpenick,east,12459
Wilhelminenhofstr. Ecke Edisonstr.,tram,82,1971635_east,"52.46194960,13.51390490",Q65951882,,,,,,,19711233.0,Oberschöneweide,Treptow-Köpenick,east,12459
Heinrich-Dunckerstr. Ecke Ehrlichstr.,tram,82,1971636_east,"52.47895660,13.52343160",Q65951921,,,,,,,1971422.0,Karlshorst,Lichtenberg,east,10318
Hönower Wiesenweg,tram,82,1971637_east,"52.48427629,13.50582097",,,,,,,,1971479.0,Karlshorst,Lichtenberg,east,10317
Kraftwerk Klingenberg,tram,82,1971638_east,"52.48813740,13.49586850",Q66079524,,,,,,,1971556.0,Rummelsburg,Lichtenberg,east,10317
Karlshorsterstr.,tram,82,1971639_east,"52.50200675,13.47538239",,,,,,,,1971523.0,Rummelsburg,Lichtenberg,east,10317
S-Bhf. Ostkreuz,tram,82,1971640_east,"52.50243022,13.46902005",,,,,,,,1971938.0,Friedrichshain,Friedrichshain-Kreuzberg,east,10245
S-Bhf. Mahlsdorf,tram,83,1971641_east,"52.51221827,13.61219075",,,,,,,,1971936.0,Mahlsdorf,Marzahn-Hellersdorf,east,12623
Alt-Mahlsdorf,tram,83,1971642_east,"52.50519920,13.61333470",Q66364530,,,,,,,197127.0,Mahlsdorf,Marzahn-Hellersdorf,east,12623
Rahnsdorferstr.,tram,83,1971643_east,"52.49851730,13.61310100",Q66364532,,,,,,,1971844.0,Mahlsdorf,Marzahn-Hellersdorf,east,12623
Bürgerwäldchen,tram,83,1971644_east,"52.48937410,13.60641390",Q66364551+nan,,,,,,,1971187.0,Mahlsdorf,Marzahn-Hellersdorf,east,12623
Ruhlsdorferstr.,tram,83,1971645_east,"52.47788168,13.60074308",,,,,,,,1971898.0,Mahlsdorf,Marzahn-Hellersdorf,east,12623
Mahlsdorf-Süd,tram,83,1971646_east,"52.47416630,13.59914430",Q66368466,,,,,,,1971661.0,Köpenick,Treptow-Köpenick,east,12555
Wongrowitzer Steig,tram,83,1971647_east,"52.46693770,13.58532270",Q66370743,,,,,,,19711264.0,Köpenick,Treptow-Köpenick,east,12555
S-Bhf. Köpenick,tram,83,1971648_east,"52.45821530,13.57904350",Q66370784,,,,,,,1971932.0,Köpenick,Treptow-Köpenick,east,12555
Lindenstr. Ecke Bahnhofstr.,tram,83,1971649_east,"52.45050940,13.57268400",Q66095701,,,,,,,1971636.0,Köpenick,Treptow-Köpenick,east,12555
"Köpenick, Strab.-Betriebshof",tram,83,1971650_east,"52.43991340,13.58178240",Q66370900,,,,,,,1971592.0,Köpenick,Treptow-Köpenick,east,12557
VEB Bootswerften,tram,83,1971651_east,"52.42547978,13.58622004",,,,,,,,19711170.0,Köpenick,Treptow-Köpenick,east,12557
Wendenschloß Ecke Ekhofstr.,tram,83,1971652_east,"52.41633001,13.58969077",,,,,,,,19711217.0,Köpenick,Treptow-Köpenick,east,12557
"Friedrichshagen, Wasserwerk",tram,84,1971653_east,"52.45605630,13.64199560",Q66362601,,,,,,,1971299.0,Friedrichshagen,Treptow-Köpenick,east,12587
"Bölschestr., Brauerei",tram,84,1971654_east,"52.44699266,13.62425200",,,,,,,,1971184.0,Friedrichshagen,Treptow-Köpenick,east,12587
S-Bhf. Friedrichshagen,tram,84,1971655_east,"52.45641260,13.62536560",Q66360784,,,,,,,1971920.0,Friedrichshagen,Treptow-Köpenick,east,12587
Hirschgarten,tram,84,1971656_east,"52.45185330,13.60062450",Q66360740,,,,,,,1971442.0,Friedrichshagen,Treptow-Köpenick,east,12587
Bahnhofstr. Ecke Lindenstr.,tram,84,1971657_east,"52.45050940,13.57268400",Q66095701,,,,,,,197175.0,Köpenick,Treptow-Köpenick,east,12555
Schloßplatz Köpenick,tram,84,1971658_east,"52.44434090,13.57538370",Q66095688,,,,,,,1971974.0,Köpenick,Treptow-Köpenick,east,12555
S-Bhf. Spindlersfeld,tram,84,1971659_east,"52.44573110,13.56242980",Q66363397,,,,,,,1971947.0,Köpenick,Treptow-Köpenick,east,12555
S-Bhf. Adlershof,tram,84,1971660_east,"52.43525100,13.54084890",Q66363728,,,,,,,1971912.0,Adlershof,Treptow-Köpenick,east,12489
"Altglienicke, Kirche",tram,84,1971661_east,"52.42184573,13.53940770",,,,,,,,197143.0,Altglienicke,Treptow-Köpenick,east,12524
Am Falkenberg,tram,84,1971662_east,"52.41079970,13.57045293",,,,,,,,197145.0,Bohnsdorf,Treptow-Köpenick,east,12524
Wendenschloß,tram,85,1971663_east,"52.41696580,13.58859260",Q66363928,,,,,,,19711216.0,Köpenick,Treptow-Köpenick,east,12557
VEB Bootswerften,tram,85,1971664_east,"52.42547978,13.58622004",,,,,,,,19711170.0,Köpenick,Treptow-Köpenick,east,12557
"Köpenick, Strab.-Betriebshof",tram,85,1971665_east,"52.43991340,13.58178240",Q66370900,,,,,,,1971592.0,Köpenick,Treptow-Köpenick,east,12557
Lindenstr. Ecke Hegelschule,tram,85,1971666_east,"52.45050940,13.57268400",Q66095701,,,,,,,1971637.0,Köpenick,Treptow-Köpenick,east,12555
Pionierpark,tram,85,1971667_east,"52.45798013,13.54198083",,,,,,,,1971801.0,Oberschöneweide,Treptow-Köpenick,east,12459
Edisonstr.,tram,85,1971668_east,"52.46194960,13.51390490",Q65951882,,,,,,,1971237.0,Oberschöneweide,Treptow-Köpenick,east,12459
Bhf. Schöneweide,tram,85,1971669_east,"52.45640818,13.50991657",,,,,,,,1971116.0,Niederschöneweide,Treptow-Köpenick,east,12439
"Johannisthal, Haeckelstr.",tram,85,1971670_east,"52.44029440,13.50526380",Q66225573,,,,,,,1971499.0,Johannisthal,Treptow-Köpenick,east,12487
Alt-Schmöckwitz,tram,86,1971671_east,"52.37527670,13.64954900",Q66459540,,,,,,,197136.0,Schmöckwitz,Treptow-Köpenick,east,12527
Karolinenhof Mitte,tram,86,1971672_east,"52.39176096,13.63465426",,,,,,,,1971524.0,Schmöckwitz,Treptow-Köpenick,east,12527
Richtershorn,tram,86,1971673_east,"52.40105000,13.62484730",Q66481215,,,,,,,1971877.0,Grünau,Treptow-Köpenick,east,12527
S-Bhf. Grünau,tram,86,1971674_east,"52.41349300,13.57468020",Q62470512,,,,,,,1971925.0,Grünau,Treptow-Köpenick,east,12527
Chemische Fabrik,tram,86,1971675_east,"52.42696433,13.57354047",,,,,,,,1971197.0,Grünau,Treptow-Köpenick,east,12527
Jachtwerft,tram,86,1971676_east,"52.43432940,13.57144396",,,,,,,,1971491.0,Köpenick,Treptow-Köpenick,east,12557
Schloßplatz Köpenick,tram,86,1971677_east,"52.44434090,13.57538370",Q66095688,,,,,,,1971974.0,Köpenick,Treptow-Köpenick,east,12555
Lindenstr. Ecke Bahnhofstr.,tram,86,1971678_east,"52.45050940,13.57268400",Q66095701,,,,,,,1971636.0,Köpenick,Treptow-Köpenick,east,12555
S-Bhf. Köpenick,tram,86,1971679_east,"52.45821530,13.57904350",Q66370784,,,,,,,1971932.0,Köpenick,Treptow-Köpenick,east,12555
Hirtestr.,tram,86,1971680_east,"52.46228518,13.58298945",,,,,,,,1971443.0,Köpenick,Treptow-Köpenick,east,12555
Rahnsdorf,tram,87,1971681_east,"52.44353169,13.68503800",Q66361311,,,,,,,1971843.0,Rahnsdorf,Treptow-Köpenick,east,12589
Müggelseedamm,tram,87,1971682_east,"52.44986380,13.66153400",Q66361484,,,,,,,1971713.0,Friedrichshagen,Treptow-Köpenick,east,12587
S-Bhf. Friedrichshagen,tram,87,1971683_east,"52.45641260,13.62536560",Q66360784,,,,,,,1971920.0,Friedrichshagen,Treptow-Köpenick,east,12587
Hirschgarten,tram,87,1971684_east,"52.45185330,13.60062450",Q66360740,,,,,,,1971442.0,Friedrichshagen,Treptow-Köpenick,east,12587
Bahnhofstr. Ecke Lindenstr.,tram,87,1971685_east,"52.45050940,13.57268400",Q66095701,,,,,,,197175.0,Köpenick,Treptow-Köpenick,east,12555
E.-Weinert-Klubh.,tram,87,1971686_east,"52.45588706,13.55825139",,,,,,,,1971234.0,Oberschöneweide,Treptow-Köpenick,east,12459
Pionierpark,tram,87,1971687_east,"52.45798013,13.54198083",,,,,,,,1971801.0,Oberschöneweide,Treptow-Köpenick,east,12459
Wilhelminenhofstr. Ecke Edisonstr.,tram,87,1971688_east,"52.46194960,13.51390490",Q65951882,,,,,,,19711233.0,Oberschöneweide,Treptow-Köpenick,east,12459
Bhf. Schöneweide,tram,87,1971689_east,"52.45640818,13.50991657",,,,,,,,1971116.0,Niederschöneweide,Treptow-Köpenick,east,12439
Köpenicker Landstr. Ecke Baumschulenstr.,tram,87,1971690_east,"52.46913201,13.49134005",,,,,,,,1971593.0,Baumschulenweg,Treptow-Köpenick,east,12437
S-Bhf. Plänterwald,tram,87,1971691_east,"52.47964547,13.47567730",,,,,,,,1971941.0,Plänterwald,Treptow-Köpenick,east,12435
Am Treptower Park Ecke Elsenstr.,tram,87,1971692_east,"52.49176487,13.45770388",,,,,,,,197154.0,Alt-Treptow,Treptow-Köpenick,east,12435
Wiener Brücke,tram,87,1971693_east,"52.49588477,13.43650069",,,,,,,,19711226.0,Kreuzberg,Friedrichshain-Kreuzberg,east,10999
Krankenhaus Köpenick,tram,95,1971694_east,"52.43861201,13.59241126",,,,,,,,1971561.0,Köpenick,Treptow-Köpenick,east,12557
Lindenstr. Ecke Hegelschule,tram,95,1971695_east,"52.45050940,13.57268400",Q66095701,,,,,,,1971637.0,Köpenick,Treptow-Köpenick,east,12555
E.-Weinert-Klubh.,tram,95,1971696_east,"52.45588706,13.55825139",,,,,,,,1971234.0,Oberschöneweide,Treptow-Köpenick,east,12459
Pionierpark,tram,95,1971697_east,"52.45798013,13.54198083",,,,,,,,1971801.0,Oberschöneweide,Treptow-Köpenick,east,12459
Edisonstr.,tram,95,1971698_east,"52.46194960,13.51390490",Q65951882,,,,,,,1971237.0,Oberschöneweide,Treptow-Köpenick,east,12459
Bhf. Schöneweide,tram,95,1971699_east,"52.45640818,13.50991657",,,,,,,,1971116.0,Niederschöneweide,Treptow-Köpenick,east,12439
Baumschulenstr. Ecke Köpenicker Landstr.,tram,95,1971700_east,"52.46911905,13.49136497",,,,,,,,197177.0,Baumschulenweg,Treptow-Köpenick,east,12437
S-Bhf. Plänterwald,tram,95,1971701_east,"52.47964547,13.47567730",,,,,,,,1971941.0,Plänterwald,Treptow-Köpenick,east,12435
Elsenstr. Ecke Am Treptower Park,tram,95,1971702_east,"52.49175632,13.45775787",,,,,,,,1971248.0,Alt-Treptow,Treptow-Köpenick,east,12435
Wiener Brücke,tram,95,1971703_east,"52.49588477,13.43650069",,,,,,,,19711226.0,Kreuzberg,Friedrichshain-Kreuzberg,east,10999
Falkenbergerstr.,tram,99,1971704_east,"52.55481560,13.46763810",Q65956714,,,,,,,1971262.0,Weißensee,Pankow,east,13088
Stadion Buschallee,tram,99,1971705_east,"52.55667180,13.48698340",Q65504715,,,,,,,19711044.0,Weißensee,Pankow,east,13088
Kniprodeallee,tram,99,1971706_east,"52.55328910,13.47953543",,,,,,,,1971546.0,Weißensee,Pankow,east,13088
Klement-Gottwald-Allee,tram,99,1971707_east,"52.55389472,13.46743090",,,,,,,,1971540.0,Weißensee,Pankow,east,13088
Pasedagplatz,tram,99,1971708_east,"52.55940270,13.46095940",Q65954665,,,,,,,1971788.0,Weißensee,Pankow,east,13086
S-Bhf. Friedrichshagen (Grenze),tram,S-Bhf. Friedrichshagen <> Rüdersdorf,1971709_east,"52.45769560,13.62667120",Q66499230,,,,,,,1971921.0,Friedrichshagen,Treptow-Köpenick,east,12587
"Schöneiche, Waldstr.",tram,S-Bhf. Friedrichshagen <> Rüdersdorf,1971710_east,"52.46776642,13.68198322",,,,,,,,19711000.0,,,east,
"Schöneiche, Goethepark",tram,S-Bhf. Friedrichshagen <> Rüdersdorf,1971711_east,"52.47079746,13.68834961",,,,,,,,1971995.0,,,east,
"Schöneiche, Rahnsdorferstr.",tram,S-Bhf. Friedrichshagen <> Rüdersdorf,1971712_east,"52.47476592,13.69232435",,,,,,,,1971998.0,,,east,
"Schöneiche, Dorfstr.",tram,S-Bhf. Friedrichshagen <> Rüdersdorf,1971713_east,"52.47856621,13.69495789",,,,,,,,1971994.0,,,east,
"Schöneiche, Dorfaue",tram,S-Bhf. Friedrichshagen <> Rüdersdorf,1971714_east,"52.47886105,13.70053232",,,,,,,,1971993.0,,,east,
"Schöneiche, Schillerstr.",tram,S-Bhf. Friedrichshagen <> Rüdersdorf,1971715_east,"52.47747517,13.70876210",,,,,,,,1971999.0,,,east,
"Schöneiche, Grätzwalde",tram,S-Bhf. Friedrichshagen <> Rüdersdorf,1971716_east,"52.47410985,13.71327932",,,,,,,,1971996.0,,,east,
"Schöneiche, Jägerstr.",tram,S-Bhf. Friedrichshagen <> Rüdersdorf,1971717_east,"52.47278763,13.73056629",,,,,,,,1971997.0,,,east,
"Rüdersdorf, Berghof",tram,S-Bhf. Friedrichshagen <> Rüdersdorf,1971718_east,"52.47364542,13.76110048",,,,,,,,1971902.0,,,east,
"Rüdersdorf, Torellplatz",tram,S-Bhf. Friedrichshagen <> Rüdersdorf,1971719_east,"52.47407610,13.77142280",Q66542827,,,,,,,1971907.0,,,east,
"Rüdersdorf, Heinitzstr.",tram,S-Bhf. Friedrichshagen <> Rüdersdorf,1971720_east,"52.47300367,13.77654713",,,,,,,,1971903.0,,,east,
"Rüdersdorf, Post",tram,S-Bhf. Friedrichshagen <> Rüdersdorf,1971721_east,"52.47029587,13.78653797",,,,,,,,1971905.0,,,east,
"Rüdersdorf, Schulstr.",tram,S-Bhf. Friedrichshagen <> Rüdersdorf,1971722_east,"52.46997849,13.78702428",,,,,,,,1971906.0,,,east,
"Rüdersdorf, Karl-Marx-Platz",tram,S-Bhf. Friedrichshagen <> Rüdersdorf,1971723_east,"52.46647403,13.80512773",,,,,,,,1971904.0,,,east,
S-Bhf. Rahnsdorf,tram,S-Bhf. Rahnsdorf <> Woltersdorfer Schleuse (VEB Woltersdorf),1971724_east,"52.45142247,13.69304560",,,,,,,,1971944.0,Rahnsdorf,Treptow-Köpenick,east,12589
Goethestr.,tram,S-Bhf. Rahnsdorf <> Woltersdorfer Schleuse (VEB Woltersdorf),1971725_east,"52.45554577,13.72637715",,,,,,,,1971335.0,,,east,
Eichendamm,tram,S-Bhf. Rahnsdorf <> Woltersdorfer Schleuse (VEB Woltersdorf),1971726_east,"52.45567448,13.73097129",,,,,,,,1971241.0,,,east,
Lerchenstr.,tram,S-Bhf. Rahnsdorf <> Woltersdorfer Schleuse (VEB Woltersdorf),1971727_east,"52.45516415,13.73440924",,,,,,,,1971620.0,,,east,
Fasanenstr.,tram,S-Bhf. Rahnsdorf <> Woltersdorfer Schleuse (VEB Woltersdorf),1971728_east,"52.45303126,13.74428068",,,,,,,,1971269.0,,,east,
Thälmannplatz,tram,S-Bhf. Rahnsdorf <> Woltersdorfer Schleuse (VEB Woltersdorf),1971729_east,"52.45059921,13.75244097",,,,,,,,19711095.0,,,east,
Blumenstr.,tram,S-Bhf. Rahnsdorf <> Woltersdorfer Schleuse (VEB Woltersdorf),1971730_east,"52.44907888,13.76010696",,,,,,,,1971141.0,,,east,
"Woltersdorf, Krankenhaus",tram,S-Bhf. Rahnsdorf <> Woltersdorfer Schleuse (VEB Woltersdorf),1971731_east,"52.44726860,13.76152919",,,,,,,,19711262.0,,,east,
Woltersdorfer Schleuse,tram,S-Bhf. Rahnsdorf <> Woltersdorfer Schleuse (VEB Woltersdorf),1971732_east,"52.44331332,13.76395552",,,,,,,,19711263.0,,,east,
Pankow (Vinetastr.),u-bahn,A,1971733_east,"52.55916667,13.41333333",Q570906,,,,,,,1971773.0,Pankow,Pankow,east,13189
Schönhauserallee,u-bahn,A,1971734_east,"52.54932889,13.41370611",Q47014936,,,,,,,19711005.0,Prenzlauer Berg,Pankow,east,10439
Dimitroffstr.,u-bahn,A,1971735_east,"52.54166667,13.41222222",Q571382,,,,,,,1971218.0,Prenzlauer Berg,Pankow,east,10437
Senefelderplatz,u-bahn,A,1971736_east,"52.53242000,13.41274300",Q32661454,,,,,,,19711015.0,Prenzlauer Berg,Pankow,east,10405
Luxemburgplatz,u-bahn,A,1971737_east,"52.52833333,13.41027778",Q658790,,,,,,,1971651.0,Mitte,Mitte,east,10119
Alexanderplatz,u-bahn,A,1971738_east,"52.52140000,13.41190000",Q17173458,,,,,,,197115.0,Mitte,Mitte,east,10179
Klosterstr.,u-bahn,A,1971739_east,"52.51611111,13.41222222",Q657893,,,,,,,1971543.0,Mitte,Mitte,east,10179
Märkisches Museum,u-bahn,A,1971740_east,"52.51194444,13.40888889",Q657871,,,,,,,1971707.0,Mitte,Mitte,east,10179
Spittelmarkt,u-bahn,A,1971741_east,"52.51111111,13.40361111",Q569489,,,,,,,19711041.0,Mitte,Mitte,east,10179
Hausvogteiplatz,u-bahn,A,1971742_east,"52.51305556,13.39666667",Q656523,,,,,,,1971401.0,Mitte,Mitte,east,10117
Stadtmitte,u-bahn,A,1971743_east,"52.51220000,13.38940000",Q660066,,,,,,,19711046.0,Mitte,Mitte,east,10117
Thälmannplatz,u-bahn,A,1971744_east,"52.51167000,13.38472000",Q658391,,,,,,,19711096.0,Mitte,Mitte,east,10117
Alexanderplatz,u-bahn,E,1971745_east,"52.52140000,13.41190000",Q17173458,,,,,,,197115.0,Mitte,Mitte,east,10179
Schillingstr.,u-bahn,E,1971746_east,"52.52027800,13.42166700",Q552899,,,,,,,1971966.0,Mitte,Mitte,east,10178
Strausbergerplatz,u-bahn,E,1971747_east,"52.51805556,13.43083333",Q570999,,,,,,,19711060.0,Friedrichshain,Friedrichshain-Kreuzberg,east,10243
Marchlewskistr.,u-bahn,E,1971748_east,"52.51679444,13.44499167",Q551768,,,,,,,1971669.0,Friedrichshain,Friedrichshain-Kreuzberg,east,10243
Frankfurter Tor,u-bahn,E,1971749_east,"52.51583333,13.45416667",Q568627,,,,,,,1971285.0,Friedrichshain,Friedrichshain-Kreuzberg,east,10243
Samariterstr.,u-bahn,E,1971750_east,"52.51472222,13.46444444",Q552891,,,,,,,1971959.0,Friedrichshain,Friedrichshain-Kreuzberg,east,10247
Frankfurterallee,u-bahn,E,1971751_east,"52.51363889,13.47569444",Q3752007,,,,,,,1971283.0,Lichtenberg,Lichtenberg,east,10365
Magdalenenstr.,u-bahn,E,1971752_east,"52.51250000,13.48638889",Q473901,,,,,,,1971658.0,Lichtenberg,Lichtenberg,east,10365
Bahnhof Lichtenberg,u-bahn,E,1971753_east,"52.51055600,13.49638900",Q3831986,,,,,,,197172.0,Rummelsburg,Lichtenberg,east,10317
Friedrichsfelde,u-bahn,E,1971754_east,"52.50611111,13.51277778",Q429781,,,,,,,1971296.0,Friedrichsfelde,Lichtenberg,east,10315
Obus-Betriebshof,autobus,30,197179_east,"52.52032433,13.49940566",,,,,,,,,Lichtenberg,Lichtenberg,east,10365
Leninallee,autobus,30,197182_east,"52.52637149,13.44763334",,,,,,,,,Friedrichshain,Friedrichshain-Kreuzberg,east,10249
Dimitroffstr.,autobus,30,197183_east,"52.53619211,13.43303168",,,,,,,,,Prenzlauer Berg,Pankow,east,10405
Dimitroffstr. (Cotheniusstr.),autobus,37,1971131_east,"52.52774514,13.44620525",,,,,,,,,Prenzlauer Berg,Pankow,east,10407
Funk- W.fernmeld,autobus,56,1971217_east,"52.53373620,13.45293949",,,,,,,,,Prenzlauer Berg,Pankow,east,10407
