,line_id,stop_name,stop_order,stop_id
0,19891,"Moabit, Waldstrasse",0,19891437
2,19891,Alt-Moabit,1,198947
3,19891,Franklinstrasse,2,1989586
4,19891,Helmholtzstrasse,3,1989864
5,19891,Guerickestrasse,4,1989774
6,19891,Otto-Suhr-Allee,5,19891589
7,19891,Bismarckstrasse,6,1989260
15,19891,Goethestrasse,7,1989703
16,19891,Kantstrasse,8,19891046
18,19891,Kurfürstendamm,9,19891179
20,19891,Düsseldorfer Strasse,10,1989470
21,19891,U-Bhf. Konstanzer Strasse,11,19892344
22,19891,U-Bhf. Fehrbelliner Platz,12,19892313
23,19891,U-Bhf. Blissestrasse,13,19892303
24,19891,Am Volkspark,14,1989102
25,19891,Hildegardstrasse,15,1989895
26,19891,Detmolder Strasse,16,1989434
27,19891,Hanauer Strasse,17,1989809
28,19891,Deidesheimer Strasse,18,1989426
29,19891,Wiesbadener Strasse,19,19892541
30,19891,Laubenheimer Strasse,20,19891234
31,19891,U-Bhf. Breitenbachplatz,21,19892306
32,19891,Englerallee,22,1989518
33,19891,Rohlfsstrasse,23,19891803
35,19891,Botanischer Garten,24,1989302
36,19891,Arnimallee,25,1989131
37,19891,Museum-Dahlem,26,19891457
38,19891,U-Bhf. Dahlem-Dorf,27,19892310
39,19891,Thielallee,28,19892246
40,19891,Löhleinstrasse,29,19891338
41,19891,Habelschwerdter A.,30,1989795
42,19891,Ehrenbergstrasse,31,1989475
43,19891,Unter den Eichen,32,19892432
44,19891,Von-Laue-Strasse,33,19892450
47,19891,Dahlemer Weg,34,1989418
48,19891,Holländische Mühle,35,1989933
49,19891,Sundgauer Strasse,36,19892201
51,19891,Winfriedstrasse,37,19892580
52,19891,Seehofstrasse,38,19892046
54,19891,Teltower Damm,39,19892226
55,19891,S-Bhf. Zehlendorf,40,19891930
56,19891,Schönower Strasse,41,19892038
57,19891,Schrockstrasse,42,19892001
58,19891,Behring-Krankenhaus,43,1989181
59,19891,Gutzmannstrasse,44,1989780
60,19891,Ludwigsfelder Strasse,45,19891328
61,19891,Nieritzweg,46,19891511
63,19891,Windsteiner Weg,47,19892579
64,19891,Lupsteiner Weg,48,19891333
65,19891,"Zehlendorf, Sachtlebenstrasse",49,19892616
66,19892,Lüdenscheider Weg,0,19891345
67,19892,Burscheider Weg,1,1989360
68,19892,Gartenfelder Strasse,2,1989644
70,19892,Paulsternstrasse,3,19891629
71,19892,U-Bhf. Paulsternstrasse,4,19892375
72,19892,Schaltwerk,5,19891952
73,19892,U-Bhf. Rohrdamm,6,19892388
74,19892,Quellweg,7,19891712
75,19892,Wernerwerkdamm,8,19892526
77,19892,Wasserwerk,9,19892492
79,19892,Rohrdammbrücke,10,19891805
80,19892,Friedhof Nordeingang,11,1989608
81,19892,Friedhof Südeingang,12,1989609
82,19892,Spandauer Damm,13,19892118
83,19892,Knobelsdorffstrasse,14,19891121
84,19892,U-Bhf. Kaiserdamm,15,19892339
85,19892,Congress-Centrum,16,1989405
86,19892,Dernburgstrasse,17,1989431
87,19892,Kuno-Fischer-Strasse,18,19891178
88,19892,Amtsgericht Charlottenburg,19,1989109
89,19892,S-Bhf. Charlottenburg,20,19891857
90,19892,Holtzendorffplatz,21,1989938
91,19892,Kurfürstendamm,22,19891179
93,19892,Henriettenplatz,23,1989868
94,19892,Rathenauplatz,24,19891743
95,19892,Bismarckplatz,25,1989259
96,19892,Lynarstrasse,26,19891335
98,19892,Herthastrasse,27,1989879
99,19892,Delbrückstrasse,28,1989427
100,19892,Elsterplatz,29,1989506
101,19892,Rathhaus Schmargendorf,30,19891749
102,19892,Hundekehlestrasse,31,1989952
103,19892,Platz am Wilden Eber,32,19891660
104,19892,Pacelliallee,33,19891595
105,19892,Im Dol,34,1989971
106,19892,Drosselweg,35,1989463
107,19892,Thielalle,36,19892245
108,19892,Im Gehege,37,1989973
109,19892,Vogelsang,38,19892446
110,19892,Clayallee/Königen-Luise-Strasse,39,1989401
111,19892,Auf dem Grat,40,1989146
112,19892,Hüttenweg,41,1989960
113,19892,U-Bhf. Oskar-Helene-Heim,42,19892366
114,19892,Krkhs. Oskar-Helene-Heim,43,19891164
115,19892,Sophie-Charlotte-Strasse,44,19892109
117,19892,Schützallee,45,19892040
118,19892,Scharfe Strasse/Stadtbad,46,19891954
120,19892,Teltower Damm,47,19892226
121,19892,S-Bhf. Zehlendorf,48,19891930
123,19892,Machnower Strasse,49,19891353
124,19892,Schweizerhof,50,19892018
125,19892,Reha-Zentrum,51,19891755
126,19892,Leo-Baeck-Strasse,52,19891261
127,19892,Laehrstrasse,53,19891218
129,19892,Nieritzweg,54,19891512
130,19892,Am Birkenknick,55,198967
131,19892,Rendtorffstrasse,56,19891769
132,19892,Beeskowdamm,57,1989179
133,19892,Wupperstrasse,58,19892601
134,19892,Goerzwerk,59,1989701
135,19892,Persantestrasse,60,19891634
137,19892,Darser Strasse,61,1989424
138,19892,Platz des 4. Juli,62,19891664
139,19892,Goerzallee 141-145,63,1989700
140,19892,Wismarer Strasse,64,19892583
141,19892,Prettauer Pfad,65,19891693
143,19892,Ostpreußendamm,66,19891575
146,19892,"Lichterfelde, Lindenstrasse",67,19891283
147,19893,Betriebshof Marzahn,0,1989222
148,19893,Otto-Buchwitz-Strasse,1,19891584
149,19893,Alt-Marzahn,2,198945
150,19893,Elisabethstrasse,3,1989503
151,19893,S-Bhf. Springpfuhl,4,19891913
152,19893,Rhinstrasse,5,19891776
155,19893,Leninallee,6,19891253
158,19893,Gärtnerstrasse,7,1989784
159,19893,Hauptstrasse,8,1989826
161,19893,Stadion Buschallee,9,19892140
162,19893,Sulzfelder Strasse,10,19892199
163,19893,Falkenberger Strasse,11,1989537
164,19893,Betriebshof Weißensee,12,1989224
166,19894,Waldfriedhof,0,19892464
167,19894,Am Hegewinkel,1,198982
168,19894,Argentinische Allee,2,1989126
169,19894,U-Bhf. Oskar-Helene-Heim,3,19892366
170,19894,Saargemünder Strasse,4,19891935
171,19894,Garystrasse,5,1989647
172,19894,Corrensplatz,6,1989408
174,19894,Berliner Strasse,7,1989201
177,19894,Adolf-Martens-Strasse,8,19897
178,19894,Drakestrasse,9,1989458
180,19894,S-Bhf. Lichterfelde-West,10,19891880
181,19894,Drakestrasse/Ringstrasse,11,1989460
182,19894,Holbeinstrasse,12,1989930
183,19894,Karwendelstrasse,13,19891059
184,19894,Hindenburgdamm,14,1989897
190,19894,Ostpreußendamm,15,19891577
191,19894,Marienstrasse,16,19891389
192,19894,Jungfernstieg,17,19891025
193,19894,Kranoldplatz,18,19891158
194,19894,Jägerstrasse,19,19891027
196,19894,Lange Strasse,20,19891228
197,19894,Geraer Strasse,21,1989670
198,19894,Georgenstrasse,22,1989669
201,19894,Hildburghauser Strasse,23,1989892
204,19894,Sondershauser Strasse,24,19892101
205,19894,Stadtilmer Weg,25,19892148
206,19894,Weskammstrasse,26,19892529
207,19894,Tirschenreuther Ring,27,19892264
208,19894,Marienfelder Allee,28,19891386
210,19894,Ahrensdorfer Strasse,29,198912
211,19894,Baußnernweg,30,1989174
212,19894,Klausenburger Pfad,31,19891094
213,19895,Elisabethstrasse,0,1989503
214,19895,Alt-Marzahn,1,198945
215,19895,Bruno-Leuschner-Strasse,2,1989339
216,19895,Bruno-Baum-Strasse,3,1989337
217,19895,S-Bhf. Marzahn,4,19891886
218,19895,BWF Marzahn,5,1989153
219,19895,Rhinstrasse,6,19891776
220,19895,Arendsweg,7,1989125
221,19895,Ho-Chi-Minh-Strasse,8,1989904
222,19895,S-Bhf. Leninallee,9,19891878
223,19895,Dimitroffstrasse,10,1989444
225,19895,Leninplatz,11,19891260
226,19895,Hans-Beimler-Strasse,12,1989811
227,19895,Prenzlauer Allee,13,19891684
229,19895,U-Bhf. Rosa-Luxemburg-Platz,14,19892390
230,19895,Rosenthaler Platz,15,19891814
231,19895,Brunnenstrasse,16,1989334
232,19895,"Invalidenstrasse, Post",17,1989990
233,19895,Stadion der Weltjugend,18,19892143
234,19895,Pflugstrasse,19,19891644
236,19896,Bergstrasse,0,1989194
237,19896,Hussittenstrasse/Bernauer Strasse,1,1989953
238,19896,Usedomer Strasse/Feldstrasse,2,19892435
239,19896,Gustav-Meyer-Allee,3,1989775
240,19896,U-Bhf. Humboldthain,4,19892334
241,19896,Gerichtstrasse/Hochstrasse,5,1989672
242,19896,Stadtbad Wedding,6,19892145
243,19896,Nettelbeckplatz,7,19891490
244,19896,U-Bhf. Reinickendorfer Strasse,8,19892384
245,19896,U-Bhf. Wedding,9,19892414
246,19896,Müller-/Gerichtstrasse,10,19891477
247,19896,U-Bhf. Leopoldplatz,11,19892352
248,19896,Rathaus Wedding,12,19891739
249,19896,U-Bhf. Seestrasse,13,19892398
250,19896,Türkenstrasse,14,19892293
251,19896,Barfusstrasse/Müllerstrasse,15,1989168
252,19896,Bristolstrasse,16,1989319
253,19896,Hollanderweg,17,1989931
254,19896,Grindelwaldstrasse,18,1989749
255,19896,Emmentaler Strasse,19,1989511
257,19896,Genfer Strasse,20,1989668
259,19896,Lindauer Allee,21,19891297
261,19896,U-Bhf. Paracelsus-Bad,22,19892373
263,19896,Flottenstrasse,23,1989566
265,19896,Tessenowstrasse,24,19892239
266,19896,Schmitzweg,25,19891995
267,19896,Alt-Wittenau/roedernallee,26,198955
269,19896,Oranienburger Strasse,27,19891551
271,19896,"Wittenau, Kirche",28,19892585
272,19896,Hermsdorfer Strasse,29,1989877
274,19896,Lange Enden,30,19891227
275,19896,Jean-Jaurès-Strasse,31,19891000
276,19896,S-Bhf. Waidmannslust,32,19891919
277,19896,Oraniendamm,33,19891555
278,19896,Zehntwerderweg/Dianastrasse,34,19892619
279,19896,Almutstrasse,35,198930
280,19896,Schildower Strasse,36,19891966
281,19896,Wachsmuthstrasse/Waldseeweg,37,19892452
283,19896,Hermsdorfer Damm,38,1989875
284,19896,Veltheimstrasse/Berliner Strasse,39,19892441
285,19896,Olafstrasse,40,19891535
286,19896,Hohefeldstrasse,41,1989914
287,19896,Im Fischgrund,42,1989972
288,19896,Fürstendamm,43,1989636
289,19896,Zeltinger Platz,44,19892620
290,19896,S-Bhf. Frohnau,45,19891863
291,19896,An der Buche,46,1989112
292,19896,Donnersmarckplatz,47,1989455
293,19896,Benediktinerstrasse,48,1989186
294,19896,Maximiliankorso,49,19891406
296,19896,Hainbuchenstrasse,50,1989802
297,19897,Ahrensfelde,0,198914
298,19897,Erich-Glückauf-Strasse,1,1989520
299,19897,Henneckestrasse,2,1989865
300,19897,Bruno-Baum-Strasse,3,1989337
301,19897,S-Bhf. Marzahn,4,19891886
302,19897,BWF Marzahn,5,1989153
303,19897,Rhinstrasse,6,19891776
304,19897,Arendsweg,7,1989125
305,19897,Zechliner Strasse,8,19892611
306,19897,Ho-Chi-Minh-Strasse,9,1989904
309,19897,Leninallee,10,19891253
311,19897,Herzbergstrasse,11,1989884
312,19897,Rathaus Lichtenberg,12,19891730
313,19897,Bhf. Frankfurter Allee,13,1989231
314,19897,Scharnweberstrasse,14,19891959
315,19898,Alt-Heiligensee,0,198934
316,19898,Hennigsdorfer Strasse,1,1989866
317,19898,Wesselburer Weg,2,19892530
318,19898,Am Dachsbau,3,198971
319,19898,Bekassinenweg,4,1989182
320,19898,Reiherallee,5,19891767
321,19898,An der Schneise,6,1989115
322,19898,Gabelung,7,1989638
323,19898,Schulzendorfer Weg,8,19892007
324,19898,Ruppiner Chaussee,9,19891832
325,19898,Waidmannsluster Damm,10,19892457
327,19898,U-Bhf. Tegel,11,19892403
328,19898,Schlieperstrasse,12,19891976
329,19898,U-Bhf. Borsigwerke,13,19892305
330,19898,Namslaustrasse,14,19891482
331,19898,U-Bhf. Holzhauser Strasse,15,19892332
332,19898,Mescheder Weg,16,19891416
333,19898,Sterkrader Strasse,17,19892165
334,19898,Kamener Weg,18,19891041
335,19898,Neheimer Strasse,19,19891489
338,19898,Wasserwerk,20,19892493
339,19898,Wassersportclub,21,19892490
340,19898,Weg nach Reiswerder,22,19892501
341,19898,Maienwerder Weg,23,19891362
342,19898,Tegeler Brücke,24,19892217
344,19898,Kabelwerk,25,19891031
345,19898,Gartenfelder Strasse,26,1989644
347,19898,Haselhorster Damm,27,1989821
348,19898,Siedlung Haselhorst,28,19892077
349,19898,U-Bhf. Haselhorst,29,19892327
350,19898,Lagerweg,30,19891219
351,19898,BMW-Maschinenfabrik,31,1989152
352,19898,U-Bhf. Zitadelle,32,19892419
353,19898,Zitadellenweg,33,19892642
354,19898,U-Bhf. Altstadt Spandau,34,19892298
355,19898,Moritzstrasse,35,19891450
356,19898,U-Bhf. Rathaus Spandau,36,19892379
357,19898,Brunsbütteler Damm,37,1989340
358,19898,Seeburger Strasse,38,19892044
360,19898,Metzer Strasse,39,19891420
361,19898,Melanchthonplatz,40,19891411
362,19898,Am Omnibushof,41,198993
364,19898,Wilhelmstrasse,42,19892567
366,19898,Heerstrasse,43,1989841
367,19898,Rodensteinstrasse,44,19891798
368,19898,Weinmeisterhornweg,45,19892504
370,19898,Karolinenhöhe,46,19891056
371,19898,Maximilian-Kolbe-Strasse,47,19891405
372,19899,Eberswalder Strasse,0,1989471
373,19899,U-Bhf. Dimitroffstrasse,1,19892311
375,19899,Prenzlauer Allee,2,19891685
376,19899,Greifswalder Strasse,3,1989735
377,19899,Bötzowstrasse,4,1989369
378,19899,Artur-Becker-Strasse,5,1989135
379,19899,Leninallee,6,19891251
383,19899,Besarinplatz,7,1989214
384,19899,U-Bhf. Frankfurter Tor,8,19892315
385,19899,Holteistrasse,9,1989935
386,19899,S-Bhf. Rummelsburg,10,19891905
387,19899,VEB Gummiwerke,11,19892438
388,19899,Heizkraftwerk,12,1989861
389,19899,Hönower Wiesenweg,13,1989958
390,198910,Märkisches Zentrum,0,19891461
391,198910,Senftenbg. Ring West,1,19892063
392,198910,Calauer Strasse,2,1989376
393,198910,Engelroder Weg,3,1989517
395,198910,Eichhorster Weg,4,1989488
396,198910,Sagritzer Weg,5,19891941
398,198910,Wilhelmsruher Damm,6,19892564
399,198910,Dannenwalder Weg,7,1989421
401,198910,Roedernallee,8,19891799
402,198910,Oranienburger Strasse,9,19891550
406,198910,Alt-Wittenau,10,198954
407,198910,"Wittenau, Kirche",11,19892585
408,198910,Hermsdorfer Strasse,12,1989877
410,198910,Am Hügel,13,198984
411,198910,Am Kesselpfuhl,14,198985
412,198910,Am Nordgraben,15,198989
413,198910,Bollestrasse,16,1989289
414,198910,Gorkistrasse/Ziekowstrasse,17,1989712
415,198910,Tegel-Center,18,19892216
416,198910,U-Bhf. Tegel,19,19892403
417,198910,Waidmannsluster Damm,20,19892457
419,198910,Heiligenseestrasse,21,1989852
420,198910,Tegelgrund,22,19892221
421,198910,Am Waldwinkel,23,1989103
422,198910,Diakoniezentrum,24,1989438
426,198910,Schulzendorfer Strasse,25,19892006
427,198910,Kiefheider Weg,26,19891078
428,198910,Ziegenorter Pfad,27,19892630
429,198910,Henningsdorfer Strasse,28,1989867
430,198910,Krantorweg,29,19891159
431,198910,Kurzebracker Weg,30,19891194
432,198910,Mattenbuder Pfad,31,19891400
433,198910,Schönbaumer Weg,32,19892024
434,198910,Heiligensee Strasse,33,1989851
436,198910,Fährstrasse,34,1989633
437,198910,Alt-Heiligensee,35,198934
438,198911,Ahrensfelde,0,198914
439,198911,Erich-Glückauf-Strasse,1,1989520
440,198911,Henneckestrasse,2,1989865
441,198911,Otto-Winzer-Strasse,3,19891592
442,198911,Bruno-Baum-Strasse,4,1989337
443,198911,S-Bhf. Marzahn,5,19891886
444,198911,BWF Marzahn,6,1989153
445,198911,Rhinstrasse,7,19891776
446,198911,Arendsweg,8,1989125
447,198911,Zechliner Strasse,9,19892611
448,198911,Ho-Chi-Minh-Strasse,10,1989904
449,198911,S-Bhf. Leninallee,11,19891878
450,198911,Dimitroffstrasse,12,1989444
452,198912,Eichenroder Ring,0,1989486
454,198912,Eichhorster Weg,1,1989488
455,198912,Lübarser Strasse,2,19891342
456,198912,Finsterwalder Strasse,3,1989559
457,198912,Finsterwalder Strasse 29-32,4,1989560
459,198912,Dannenwalder Weg,5,1989422
460,198912,S-Bhf. Wittenau,6,19891926
463,198912,Oranienburger Strasse,7,19891552
464,198912,Techowpromenade,8,19892214
466,198912,Alt-Wittenau,9,198954
467,198912,Am Nordgraben Ecke Oranienburgerstrasse,10,198990
468,198912,Rathauspromenande,11,19891741
469,198912,Eichborndamm,12,1989479
470,198912,Pannwitzstrasse,13,19891612
471,198912,Eichborndamm 167/Tor 5,14,1989480
472,198912,Olbendorfer Strasse,15,19891536
473,198912,Miraustrasse,16,19891430
475,198912,Innungsstrasse,17,1989985
476,198912,Holzhauser Strasse,18,1989939
477,198912,Ernststrasse,19,1989524
478,198912,Conradstrasse,20,1989407
479,198912,Borsigwalder Weg,21,1989298
480,198912,Trettachzeile,22,19892282
481,198912,Gorkistrasse/Ziekowstrasse,23,1989712
482,198912,Tegel-Center,24,19892216
483,198912,U-Bhf. Tegel,25,19892403
484,198912,Waidmannsluster Damm,26,19892457
486,198912,Hermsdorfer Damm,27,1989874
488,198912,Am Fließ,28,198977
489,198912,Forststrasse/Jugendherberge,29,1989579
490,198912,Mühlenfeldstrasse,30,19891471
492,198912,Schulzendorfer Strasse,31,19892004
496,198912,Martin-Luther-Strasse,32,19891393
497,198912,Fellbacher Strasse,33,1989548
498,198912,Falkentaler Steig,34,1989542
499,198912,Hohenzollernstrasse,35,1989928
500,198912,Loerkesteig,36,19891319
501,198912,Dominikus-Krankenhaus,37,1989453
502,198912,Hermsdorfer Friedhof,38,1989876
503,198912,Welfenallee,39,19892511
504,198912,Donnersmarckplatz,40,1989455
506,198912,Maximiliankorso,41,19891407
507,198912,Im Amseltal,42,1989969
508,198912,S-Bhf. Frohnau,43,19891863
509,198912,Zeltinger Platz,44,19892620
511,198912,Markgrafenstrasse,45,19891391
512,198912,Zerndorfer Weg,46,19892627
513,198912,Am Pilz,47,198994
514,198912,Jägerstieg,48,19891026
515,198912,Hubertusweg,49,1989948
516,198912,Invalidensiedlung,50,1989988
517,198913,Falkenberg,0,1989533
518,198913,S-Bhf. Hohenschönhausen,1,19891869
519,198913,Prerower Platz,2,19891692
520,198913,Gehrenseestrasse,3,1989656
521,198913,Hauptstrasse,4,1989826
523,198913,Simon-Bolivar-Strasse,5,19892090
524,198913,Ho-Chi-Minh-Strasse,6,1989904
525,198913,S-Bhf. Leninallee,7,19891878
526,198913,Dimitroffstrasse,8,1989444
528,198914,U-Bhf. Franz-Neumann-Platz,0,19892316
529,198914,Walderseestrasse,1,19892462
530,198914,Louise-Schroeder-Strasse,2,19891327
531,198914,Iranische Strasse,3,1989992
532,198914,U-Bhf. Nauener Platz,4,19892361
533,198914,Maxstrasse,5,19891408
534,198914,U-Bhf. Leopoldplatz,6,19892352
535,198914,Luxemburger Strasse,7,19891334
536,198914,U-Bhf. Amrumer Strasse,8,19892299
537,198914,Samoastrasse,9,19891945
538,198914,Tegeler Strasse,10,19892218
540,198914,Fennstrasse,11,1989549
541,198914,Quitzowstrasse,12,19891715
542,198914,Stephanstrasse,13,19892164
543,198914,Wilsnacker Strasse,14,19892574
544,198914,Birkenstrasse,15,1989256
545,198914,Turmstrasse,16,19892288
547,198914,Kirchstrasse,17,19891083
548,198914,S-Bhf. Bellevue,18,19891851
549,198914,U-Bhf. Hansaplatz,19,19892326
550,198914,Großer Stern,20,1989761
551,198914,Tiergartenstrasse,21,19892256
552,198914,Lützowufer,22,19891349
554,198914,U-Bhf. Nollendorfplatz,23,19892364
555,198914,Hohenstaufenstrasse,24,1989922
558,198914,Eisenacher Strasse,25,1989494
559,198914,Martin-Luther-Strasse,26,19891392
561,198914,Barbarossastrasse,27,1989167
562,198914,Grunewaldstrasse,28,1989766
563,198914,John-F.-Kennedy-Platz,29,19891016
564,198914,U-Bhf. Innsbrucker Platz,30,19892335
565,198914,Prinzregentenstrasse,31,19891701
566,198914,U-Bhf. Bundesplatz,32,19892308
570,198914,Stubenrauchstrasse,33,19892195
572,198914,Taunusstrasse,34,19892213
573,198914,Wiesbadener Strasse,35,19892541
574,198914,Laubenheimer Strasse,36,19891234
575,198914,U-Bhf. Breitenbachplatz,37,19892306
576,198914,Breitenbachplatz,38,1989312
577,198915,"Köpenick, Krankenhaus",0,19891206
578,198915,Wendenschloßstrasse,1,19892515
579,198915,Freiheit,2,1989596
580,198915,Bahnhof-/Lindenstrasse,3,1989160
581,198915,Pionierpark,4,19891655
582,198915,Rathenaustrasse,5,19891744
583,198915,Sterndamm,6,19892167
584,198915,Bhf. Berlin-Schöneweide,7,1989229
585,198915,Edisonstrasse,8,1989473
586,198915,Bhf. Karlshorst,9,1989236
587,198915,U-Bhf. Tierpark,10,19892407
588,198915,Straße der Befreiung,11,19892186
589,198915,S-Bhf. Friedrichsfelde Ost,12,19891861
590,198915,Allee der Kosmonauten,13,198927
594,198915,Leninallee,14,19891254
596,198915,Gärtnerstrasse,15,1989784
597,198915,Gehrenseestrasse,16,1989656
598,198915,Prerower Platz,17,19891692
599,198915,Zingster Strasse Hohenschönhausen,18,19892637
600,198916,"Dahlem, Clayallee",0,1989414
601,198916,Vogelsang,1,19892446
602,198916,Bachstelzenweg,2,1989154
603,198916,Thielallee/Pacelliallee,3,19892247
604,198916,U-Bhf. Dahlem-Dorf,4,19892310
605,198916,Museum Dahlem,5,19891456
606,198916,Arnimallee,6,1989131
608,198916,Botanischer Garten,7,1989302
609,198916,Schmidt-Ott-Strasse,8,19891993
610,198916,Lepsiusstrasse,9,19891265
612,198916,U-Bhf. Rathaus Steglitz,10,19892380
613,198916,Breite Strasse/Heesestrasse,11,1989309
614,198916,Filandastrasse/Elisenstrasse,12,1989554
615,198916,Bismarckstrasse,13,1989260
622,198916,Stindestrasse,14,19892170
623,198916,Siemensstrasse/Halskestrasse,15,19892088
624,198916,Leonorenstrasse/Siemensstrasse,16,19891263
625,198916,Birkbuschstrasse,17,1989253
627,198916,Gärtnerstrasse,18,1989781
629,198916,Stadion Lichterfelde,19,19892141
630,198916,Boothstrasse,20,1989291
632,198916,Bäkestrasse,21,1989365
633,198916,Königsberger Strasse,22,19891198
634,198916,Marienstrasse,23,19891389
636,198916,Morgensternstrasse,24,19891448
637,198916,Kranoldplatz,25,19891158
638,198916,Oberhofer Platz,26,19891528
639,198916,Grabenstrasse,27,1989718
644,198916,Hildburghauser Strasse,28,1989894
645,198916,Saaleckplatz,29,19891933
647,198916,Scheelestrasse,30,19891962
648,198916,Lichterfelder Ring,31,19891288
650,198916,Osdorfer Strasse,32,19891561
652,198916,Osdorfer Strasse/Scheelestrasse,33,19891563
653,198916,Woltmannweg,34,19892595
654,198916,Celsiusstrasse/Osdorfer Strasse,35,1989386
655,198916,Fahrenheitstrasse,36,1989530
656,198916,Lichterfelde Celsiusstrasse,37,19891281
657,198917,Leninallee/Dimitroffstrasse,0,19891257
658,198917,S-Bhf. Leninallee,1,19891878
659,198917,Anton-Saefkow-Platz,2,1989120
660,198917,Herzbergstrasse Ecke Ho-Chi-Minh-Strasse,3,1989885
661,198917,Siegfriedstrasse Ecke Herzbergstrasse,4,19892082
662,198917,Allee der Kosmonauten Ecke Rhinstrasse,5,198928
663,198917,S-Bhf. Friedrichsfelde Ost,6,19891861
664,198917,Straße der Befreiung,7,19892186
665,198917,U-Bhf. Tierpark,8,19892407
666,198917,Bhf. Karlshorst,9,1989236
668,198917,Wilhelminenhofstrasse Ecke Edinsonstrasse,10,19892557
670,198917,Bhf. Schöneweide,11,1989244
671,198917,Königsheideweg Ecke Sterndamm,12,19891200
672,198917,"Johannisthal, Haeckelstrasse",13,19891011
673,198918,Clayallee,0,1989399
674,198918,U-Bhf. Oskar-Helene-Heim,1,19892366
675,198918,Krankenhaus Oskar-Helene-Heim,2,19891156
676,198918,Sophie-Charlotte-Strasse,3,19892109
677,198918,Schützallee,4,19892039
680,198918,Scharfestrasse/Stadtbad,5,19891956
681,198918,Zehlendorf Eiche,6,19892613
682,198918,Fischerhüttenstrasse,7,1989561
683,198918,Mittelstrasse,8,19891435
684,198918,Fürstenstrasse,9,1989637
685,198918,Wolzogenstrasse,10,19892596
686,198918,Lindenthaler Allee,11,19891309
687,198918,Spanische Allee,12,19892122
688,198918,Krankenhaus Hubertus,13,19891151
689,198918,Schopenhauerstrasse,14,19891997
690,198918,Krottnaurerstrasse,15,19891167
691,198918,An der Rehwiese,16,1989114
692,198918,S-Bhf. Nikolassee,17,19891889
693,198918,Wannseebadweg,18,19892482
694,198918,Wasserwerk,19,19892491
697,198918,Am Sandwerder,20,198998
698,198918,Tillmannsweg,21,19892262
699,198918,S-Bhf. Wannsee,22,19891920
700,198918,Königstrasse,23,19891203
701,198918,Am Großen Wannsee,24,198981
702,198918,Endestrasse,25,1989515
703,198918,Pfaueninselchaussee,26,19891641
704,198918,Rathaus Wannsee,27,19891738
705,198918,Charlottenstrasse,28,1989390
708,198918,Schäferstrasse,29,19892022
710,198918,Am Birkenhügel,30,198966
711,198918,Hans-Meitner-Institut,31,1989813
712,198918,Wilhelmplatz,32,19892559
713,198918,Strandbad Stölpchensee,33,19892176
714,198918,Hubertusbrücke,34,1989947
715,198918,Bäkestrasse,35,1989364
717,198918,Königsweg/Bäkestrasse,36,19891204
718,198918,Bernhard-Beyer-Strasse,37,1989210
719,198918,Stahnsdorfer Strasse,38,19892155
720,198918,Steinstücken,39,19892163
721,198919,Ahrensfelde,0,198914
722,198919,Erich-Glückauf-Strasse,1,1989520
723,198919,Henneckestrasse,2,1989865
724,198919,Otto-Winzer-Strasse,3,19891592
725,198919,Bruno-Leuschner-Strasse,4,1989339
726,198919,Alt-Marzahn,5,198945
727,198919,Elisabethstrasse,6,1989503
728,198919,S-Bhf. Springpfuhl,7,19891913
729,198919,Rhinstrasse Ecke Allee der Kosmonauten,8,19891777
730,198919,Siegfriedstrasse Ecke Herzbergstrasse,9,19892082
731,198919,Ho-Chi-Minh-Strasse Ecke Herzbergstrasse,10,1989905
732,198919,S-Bhf. Leninallee,11,19891878
733,198919,Dimitroffstrasse Ecke Leninallee,12,1989448
734,198919,Leninplatz,13,19891260
735,198919,Hans-Beimler-Strasse Ecke Mollstrasse,14,1989812
736,198919,Prenzlauer Allee Ecke Wilhelm-Pieck-Strasse,15,19891686
737,198919,U-Bhf. Rosa-Luxemburg-Platz,16,19892390
738,198919,Rosenthaler Platz,17,19891814
739,198919,Brunnenstrasse Ecke Invalidenstrasse,18,1989335
740,198919,"Invalidenstrasse, Post Ecke Chausseestrasse",19,1989991
741,198919,Stadion der Weltjugend,20,19892143
742,198919,Wöhlertstrasse,21,19892603
743,198920,Ahrensfelde,0,198914
744,198920,Erich-Glückauf-Strasse,1,1989520
745,198920,Henneckestrasse,2,1989865
746,198920,Otto-Winzer-Strasse,3,19891592
747,198920,Bruno-Leuschner-Strasse,4,1989339
748,198920,Alt-Marzahn,5,198945
749,198920,Elisabethstrasse,6,1989503
750,198920,S-Bhf. Springpfuhl,7,19891913
751,198920,Rhinstrasse Ecke Allee der Kosmonauten,8,19891777
752,198920,Siegfriedstrasse Ecke Herzbergstrasse,9,19892082
753,198920,Ho-Chi-Minh-Strasse Ecke Herzbergstrasse,10,1989905
754,198920,S-Bhf. Leninallee,11,19891878
755,198920,Dimitroffstrasse Ecke Leninallee,12,1989448
756,198921,Taubertstrasse,0,19892211
757,198921,Lassenstrasse,1,19891233
758,198921,Erdener Strasse,2,1989519
759,198921,Herbertstrasse,3,1989869
760,198921,Rathenauplatz,4,19891743
761,198921,Henriettenplatz,5,1989868
764,198921,Joachim-Friedrich-Strasse,6,19891005
765,198921,Lehniner Platz,7,19891239
766,198921,U-Bhf. Adenauerplatz,8,19892294
767,198921,Olivaer Platz,9,19891540
768,198921,Bleibtreustrasse,10,1989280
769,198921,U-Bhf. Uhlandstrasse,11,19892410
770,198921,U-Bhf. Kurfürstendamm,12,19892348
771,198921,Gedächtnis-Kirche,13,1989652
772,198921,Europa-Center,14,1989526
773,198921,U-Bhf. Wittenbergplatz,15,19892417
774,198921,An der Urania,16,1989116
775,198921,U-Bhf. Nollendorfplatz,17,19892364
778,198921,Potsdamer Strasse,18,19891679
780,198921,Dennewitzplatz,19,1989430
781,198921,Mansteinstrasse,20,19891369
782,198921,U-Bhf. Yorckstrasse/S-Bhf. Großgörschenstrasse,21,19892418
783,198921,S-Bhf. Yorckstrasse,22,19891929
784,198921,katzbachstrasse,23,19892664
787,198921,Großbeerenstrasse,24,1989758
789,198921,U-Bhf. Mehringdamm,25,19892356
790,198921,Kreuzbergstrasse,26,19891163
791,198921,U-Bhf. Platz der Luftbrücke,27,19892376
792,198921,Platz der Luftbrücke,28,19891661
793,198922,Scharnweberstrasse,0,19891959
794,198922,Bhf. Frankfurter Allee,1,1989231
795,198922,Rathaus Lichtenberg,2,19891730
796,198922,Herzbergstrasse Ecke Ho-Chi-Minh-Strasse,3,1989885
797,198922,Siegfriedstrasse Ecke Herzbergstrasse,4,19892082
798,198922,Allee der Kosmonauten Ecke Rhinstrasse,5,198928
799,198922,S-Bhf. Friedrichsfelde Ost,6,19891861
800,198922,Straße der Befreiung,7,19892186
801,198922,U-Bhf. Tierpark,8,19892407
802,198922,Bhf. Karlshorst,9,1989236
803,198922,Wilhelminenhofstrasse Ecke Edinsonstrasse,10,19892556
805,198922,Rathenaustrasse,11,19891744
806,198922,Pionierpark,12,19891655
807,198922,Bahnhof-/Lindenstrasse,13,1989160
808,198922,Schloßplatz,14,19891983
809,198922,Wendenschloßstrasse Ecke Müggelheimer Strasse,15,19892516
810,198922,"Köpenick, Krankenhaus",16,19891206
811,198923,U-Bhf. Friedrich-Wilhelm-Platz,0,19892318
812,198923,Friedrich-Wilhelm-Platz,1,1989614
814,198923,Stubenrauchstrasse,2,19892193
817,198923,U-Bhf. Walther-Schreiber-Platz,3,19892413
818,198923,S-Bhf. Feuerbachstrasse,4,19891859
822,198923,Bismarckstrasse,5,1989263
826,198923,Lauenburger Platz,6,19891235
827,198923,Bergstrasse,7,1989193
829,198923,Selerweg,8,19892059
830,198923,Steglitzer Damm,9,19892159
832,198923,Halskestrasse,10,1989806
834,198923,Siemensstrasse,11,19892087
835,198923,Leonorenstrasse,12,19891262
836,198923,Stadtbad Lankwitz,13,19892144
837,198923,Rathaus Lankwitz,14,19891729
838,198923,"Lankwitz, Kirche",15,19891229
839,198923,Thaliaweg,16,19892240
840,198923,Havensteinstrasse,17,1989833
841,198923,Dessauer Strasse,18,1989432
842,198923,Lerbacher Weg,19,19891267
843,198923,Blankenheiner Strasse,20,1989277
844,198923,Brotteroder Strasse,21,1989330
845,198923,Maximilian-Kaller-Strasse,22,19891404
847,198923,Hildburghauser Strasse,23,1989891
852,198923,Lichterfelder Ring,24,19891289
853,198923,Tirschenreuther Ring,25,19892264
854,198923,Waldsassener Strasse,26,19892469
855,198923,"Marienfelde, Waldsassener Strasse",27,19891385
856,198924,Almazeile,0,198929
857,198924,Friederikestrasse,1,1989604
858,198924,Gerlindeweg,2,1989673
859,198924,Schwarzspechtweg,3,19892015
860,198924,Falkenplatz,4,1989539
861,198924,Habichtstrasse/Strandbad,5,1989797
862,198924,Försterweg,6,1989635
863,198924,Zum Rallenweg,7,19892649
864,198924,Gabelung,8,1989638
865,198924,Schulzendorfer Weg,9,19892007
866,198924,Ruppiner Chaussee,10,19891832
867,198924,Waidmannsluster Damm Ecke Ziekowstrasse,11,19892459
868,198924,U-Bhf. Tegel,12,19892403
869,198924,Tegel-Center,13,19892216
870,198924,Ziekowstrasse,14,19892632
871,198924,Hatzfeldtallee,15,1989822
872,198924,Waidmannsluster Damm Ecke Ziekowstrasse,16,19892459
873,198924,Kettelerpfad,17,19891074
874,198924,Am Brachfeldwinkel,18,198969
875,198924,Freie Scholle,19,1989595
876,198924,Waldhornstrasse,20,19892465
877,198924,Dianastrasse,21,1989439
878,198924,Am Dianaplatz,22,198972
879,198924,S-Bhf. Waidmannslust,23,19891919
880,198924,Oraniendamm,24,19891555
881,198924,Schluchseestrasse,25,19891989
882,198924,Titiseestrasse,26,19892266
883,198924,Zabel-Krüger-Damm,27,19892610
884,198924,Öschebronner Weg,28,19892666
885,198924,Am Vierrutenberg,29,1989101
886,198924,Klötzesteig,30,19891118
887,198924,Alt-Lübars,31,198940
888,198924,"Lübars, Alt Lübars",32,19891341
889,198925,Bhf. Lichtenberg,0,1989238
890,198925,Betriebshof Lichtenberg,1,1989220
891,198925,Josef-Orlopp-Strasse,2,19891021
892,198925,Herzbergstrasse Ecke Siegfriedstrasse,3,1989886
893,198925,Ho-Chi-Minh-Strasse Ecke Herzbergstrasse,4,1989905
894,198925,Leninallee Ecke Ho-Chi-Minh-Strasse,5,19891256
895,198925,Hohenschönhauser Strasse Ecke Ho-Chi-Minh-Strasse,6,1989920
896,198925,Omnibus-Betriebshof Ecke Indira-Gandhi-Strasse,7,19891544
897,198925,Klement-Gottwald-Allee,8,19891104
899,198925,Antonplatz,9,1989122
901,198925,Roelckestrasse,10,19891801
902,198925,Wisbyer Strasse,11,19892582
903,198925,S-Bhf. Prenzlauer Allee,12,19891900
905,198925,Dimitroffstrasse,13,1989445
906,198925,Knaackstrasse,14,19891119
907,198925,Wilhelm-Pieck-Strasse,15,19892553
908,198925,U-Bhf. Rosa-Luxemburg-Platz,16,19892390
909,198925,Hackerscher Markt,17,1989798
910,198926,Quickborner Strasse Märkisches Viertel,0,19891714
911,198926,Zerpenschleuser Ring,1,19892628
912,198926,Quickborner Strasse,2,19891713
913,198926,Treuenbrietzener Strasse,3,19892283
914,198926,Wesendorfer Strasse,4,19892528
915,198926,Packereigraben,5,19891596
916,198926,Wilhelmsruher Damm,6,19892563
918,198926,Teschendorfer Weg,7,19892236
919,198926,Tramper Weg,8,19892275
920,198926,Wentowsteig,9,19892518
921,198926,Tornower Weg,10,19892271
922,198926,Schorfheidestrasse,11,19891998
923,198926,Sallgaster Strasse,12,19891942
924,198926,Finsterwalder Strasse,13,1989559
925,198926,S-Bhf. Wittenau (Nordbahn),14,19891927
928,198926,Oranienburger Strasse,15,19891552
929,198926,Techowpromenade,16,19892214
931,198926,Alt-Wittenau,17,198954
932,198926,Am Nordgraben Ecke Oranienburgerstrasse,18,198990
933,198926,Rauthauspromenade,19,19891751
934,198926,Eichborndamm,20,1989479
935,198926,Pannwitzstrasse,21,19891612
936,198926,Eichborndamm 167/Tor 5,22,1989480
937,198926,Olbendorfer Weg,23,19891537
938,198926,Miraustrasse,24,19891430
940,198926,Wackerweg,25,19892453
941,198926,Auguste-Viktoria-Allee,26,1989149
942,198926,U-Bhf. Scharnweber Strasse,27,19892395
943,198926,General-Barby-Strasse,28,1989665
945,198926,Hechelstrasse,29,1989837
946,198926,U-Bhf. Kurt-Schumacher-Platz,30,19892350
947,198926,Kaserne Napoleon,31,19891062
948,198926,Kaserne Nordtor,32,19891063
949,198926,Kaserne Südtor,33,19891064
950,198926,Aristide-Briand-Brücke,34,1989127
951,198926,Hinckeldeybrücke,35,1989896
952,198926,Heckerdamm,36,1989838
953,198926,U-Bhf. Jakob-Kaiser-Platz,37,19892336
954,198926,Jakob-Kaiser-Platz,38,1989996
955,198926,Krankenhaus Jungfernheide,39,19891152
956,198926,U-Bhf. Jungfernheide,40,19892338
957,198927,Eberswalder Strasse,0,1989471
958,198927,U-Bhf. Dimitroffstrasse,1,19892311
960,198927,Prenzlauer Allee,2,19891685
961,198927,Greifswalder Strasse Ecke Dimitroffstrasse,3,1989736
962,198927,Bötzowstrasse,4,1989369
963,198927,Artur-Becker-Strasse Ecke Dimitroffstrasse,5,1989136
964,198927,Leninallee Ecke Dimitroffstrasse,6,19891255
965,198927,Besarinplatz,7,1989214
966,198927,U-Bhf. Frankfurter Tor,8,19892315
967,198927,Holteistrasse Ecke Boxhagener Strasse,9,1989936
968,198927,S-Bhf. Rummelsburg,10,19891905
969,198927,VEB Gummiwerke,11,19892438
970,198927,Heizkraftwerk,12,1989861
971,198927,Hönower Wiesenweg,13,1989958
972,198927,Liepnitzstrasse,14,19891293
973,198927,Hermann-Duncker-Strasse Ecke Ehrlichstrasse,15,1989870
974,198927,Wilhelminenhofstrasse Ecke Edisonstrasse,16,19892558
975,198927,Rathenaustrasse,17,19891744
976,198927,Pionierpark,18,19891655
977,198927,Bahnhof-/Lindenstrasse,19,1989160
978,198927,Schloßplatz,20,19891983
979,198927,Wendenschloßstrasse Ecke Müggelheimer Strasse,21,19892516
980,198927,"Köpenick, Krankenhaus",22,19891206
981,198928,U-Bhf. Osloer Strasse,0,19892367
982,198928,Drontheimer Strasse,1,1989462
985,198928,Soldiner Strasse,2,19892097
987,198928,Pankower Allee,3,19891607
988,198928,Granatenstrasse,4,1989726
989,198928,S-Bhf. Schönholz,5,19891910
990,198928,Nordbahnstrasse,6,19891517
991,198928,Raschdorffstrasse,7,19891728
992,198928,Ementaler Strasse,8,1989510
993,198928,Armbrustweg,9,1989129
994,198928,Alt-Reinickendorf,10,198950
995,198928,Aroser Allee,11,1989132
997,198928,U-Bhf. Paracelsus-Bad,12,19892373
999,198928,Flottenstrasse,13,1989566
1001,198928,Tessenowstrasse,14,19892239
1002,198928,Schmitzweg,15,19891995
1003,198928,Alt-Wittenau,16,198953
1007,198928,Oranienburger Strasse,17,19891552
1008,198928,Wilhelmsruher Damm,18,19892563
1010,198928,S-Bhf. Wittenau (Nordbahn),19,19891927
1011,198928,Dannenwalder Weg,20,1989421
1013,198928,Schorfheidestrasse,21,19891998
1014,198928,Königshorster Strasse,22,19891201
1016,198928,Gemiende-Zentrum,23,1989664
1017,198928,Märkisches Zentrum,24,19891461
1018,198928,Wesendorfer Strasse,25,19892528
1019,198928,Senftenberger Ring-Ost,26,19892062
1020,198928,Seniorenzentrum,27,19892066
1021,198928,Calauer Strasse,28,1989376
1022,198928,Engelroder Weg,29,1989517
1024,198928,Eichhorster Weg,30,1989488
1025,198928,Lübarser Strasse,31,19891342
1026,198928,Bernhausener Ring,32,1989212
1028,198928,Hermsdorfer Strasse,33,1989878
1030,198928,Waidmannsluster Damm,34,19892458
1031,198928,Schluchseestrasse,35,19891989
1032,198928,Waidmannslust Titiseestrasse,36,19892456
1033,198929,"Rosenthal, Quickborner Strasse",0,19891812
1035,198929,Hauptstrasse,1,1989827
1036,198929,Siedlung,2,19892074
1037,198929,Kastanienallee,3,19891067
1038,198929,Nordendstrasse,4,19891521
1039,198929,Platanenstrasse,5,19891659
1040,198929,Kurt-Fischer-Platz,6,19891188
1041,198929,Bürgerpark,7,1989373
1042,198929,"Pankow, Rathaus",8,19891604
1043,198929,"Pankow, Kirche",9,19891602
1044,198929,S-Bhf. Pankow,10,19891895
1045,198929,U-Bhf. Pankow (Vinetastrasse),11,19892370
1046,198929,Bornholmer Strasse Ecke Wisbyer Strasse,12,1989297
1047,198929,Bhf. Schönhauser Allee,13,1989245
1048,198929,U-Bhf. Dimitroffstrasse,14,19892311
1049,198929,Zionskirchplatz,15,19892639
1050,198929,Brunnenstrasse,16,1989334
1051,198929,"Invalidenstrasse, Post",17,1989990
1052,198929,Oranienburger Tor,18,19891554
1053,198929,Bhf. Friedrichstrasse,19,1989234
1054,198929,Am Kupfergraben,20,198988
1055,198930,Falkenhöhe,0,1989538
1056,198930,S-Bhf. Grünbergallee,1,19891867
1057,198930,S-Bhf. Altglienicke,2,19891848
1058,198930,Normannenstrasse Ecke Germanenstrasse,3,19891523
1059,198930,Wolfmarsteig,4,19892591
1060,198930,Schönefelder Chaussee Ecke Dankmarsteig,5,19892029
1061,198930,"Altglienicke, Kirche",6,198960
1062,198930,Glienicker Weg,7,1989689
1063,198930,VEB Berlin-Chemie,8,19892436
1064,198930,Dörpfeldstrasse,9,1989468
1065,198930,S-Bhf. Adlershof,10,19891845
1066,198930,Rudower Chaussee,11,19891823
1067,198931,S-Bhf. Tiergarten,0,19891917
1068,198931,Klopstockstrasse,1,19891113
1069,198931,U-Bhf. Hansaplatz,2,19892326
1070,198931,Elberfelder Strasse,3,1989499
1071,198931,Zinzendorfstrasse,4,19892638
1072,198931,Gotzkowskystrasse,5,1989716
1074,198931,Beusselstrasse,6,1989227
1076,198931,Turmstrasse,7,19892289
1077,198931,Wiclefstrasse,8,19892538
1078,198931,Sickingenstrasse,9,19892072
1079,198931,Beusselbrücke,10,1989225
1080,198931,Gedenkstätte Plötzensee,11,1989651
1081,198931,Schleuse Plötzensee,12,19891974
1082,198931,Riedemannweg,13,19891785
1083,198931,Friedrich-Olbricht-Damm,14,1989613
1084,198931,Stiefring,15,19892168
1085,198931,Heckerdamm,16,1989838
1086,198931,Thaters Privatweg,17,19892241
1087,198931,Jugendheim,18,19891023
1088,198931,Reichweindamm,19,19891764
1089,198931,Wirmerzeile,20,19892581
1090,198931,Bernhard-Lichtenberg-Strasse,21,1989211
1091,198931,Klausingring,22,19891097
1092,198931,Heckerdamm,23,1989838
1093,198931,Kurt-Schumacher-Damm,24,19891191
1094,198931,Heilmannring,25,1989853
1095,198931,Hofackerzeile,26,1989913
1096,198931,Dahrendorfzeile,27,1989419
1097,198931,U-Bhf. Halemweg,28,19892324
1098,198931,Toeplerstrasse,29,19892268
1099,198931,Schweiggerweg,30,19892017
1100,198931,Goebelplatz,31,1989697
1101,198931,Popitzweg,32,19891671
1102,198931,U-Bhf. Siemensdamm,33,19892399
1103,198931,Grammestrasse,34,1989724
1104,198931,U-Bhf. Rohrdamm,35,19892388
1105,198931,Bingelstrasse,36,1989251
1106,198931,Köttgenstrasse,37,19891213
1107,198931,Harriesstrasse,38,1989816
1108,198931,Saatwinkler Damm,39,19891936
1109,198931,Saatwinkler Damm 137,40,19891937
1110,198931,Mäckeritzbrücke,41,19891459
1111,198931,Saatwinkler Damm/Mäkeritzwiesen,42,19891938
1112,198932,U-Bhf. Turmstrasse,0,19892408
1113,198932,Krankenhaus Moabit,1,19891154
1114,198932,Wilsnackerstrasse,2,19892575
1116,198932,Rathenower Strasse,3,19891746
1119,198932,Alt-Moabit,4,198946
1121,198932,Lüneburger Strasse,5,19891346
1122,198932,Schloß Bellevue,6,19891978
1123,198932,Großer Stern,7,1989761
1124,198932,Tiergartenstrasse,8,19892256
1125,198932,Lützowplatz,9,19891347
1127,198932,Lützowufer,10,19891350
1128,198932,Magdeburger Platz,11,19891356
1132,198932,Potsdamer Strasse,12,19891680
1133,198932,Flottwellstrasse,13,1989567
1135,198932,Schöneberger Ufer,14,19892027
1136,198932,Reichpietschufer,15,19891759
1137,198932,Bernburger Strasse,16,1989209
1138,198932,S-Bhf. Anhalter Bahnhof,17,19891849
1142,198932,Großbeerenstrasse,18,1989759
1143,198932,U-Bhf. Hallesches Tor,19,19892325
1144,198932,Blücherstrasse,20,1989284
1145,198932,U-Bhf. Gneisenaustrasse,21,19892320
1147,198932,Bergmannstrasse,22,1989192
1148,198932,Schwiebusser Strasse,23,19892020
1149,198932,Columbiadamm,24,1989404
1150,198932,Platz der Luftbrücke,25,19891661
1151,198933,"Weißensee, Pasedagplatz",0,19892510
1152,198933,Buschallee,1,1989361
1153,198933,Indira-Gandhi-Strasse Ecke Klement-Gottwald-Allee,2,1989980
1154,198933,Albertinenstrasse,3,198916
1155,198933,Antonplatz,4,1989122
1156,198933,S-Bhf. Erich-Thälmann-Park,5,19891858
1157,198933,Dimitroffstrasse Ecke Greifswalder Strasse,6,1989447
1158,198933,Mollstrasse Ecke Hans-Beimler-Strasse,7,19891442
1159,198933,U-Bhf. Rosa-Luxemburg-Platz,8,19892390
1160,198933,Hackescher Markt,9,1989799
1161,198933,Orianienburger Tor,10,19891558
1162,198933,Stadion der Weltjugend,11,19892143
1163,198933,Pflugstrasse,12,19891644
1164,198934,U-Bhf. Britz-Süd,0,19892307
1165,198934,Otto-Wels-Ring,1,19891590
1166,198934,Kormoranweg,2,19891137
1167,198934,Rotschwanzweg,3,19891818
1168,198934,Rudower Weg,4,19891826
1169,198934,Grüner Weg,5,1989770
1170,198934,Parchimer Allee,6,19891617
1171,198934,U-Bhf. Parchimer Allee,7,19892374
1172,198934,Paster-Behrens-Strasse,8,19891624
1174,198934,Britzer Damm,9,1989325
1176,198934,Gradestrasse,10,1989719
1178,198934,Eintrachsiedlung,11,1989491
1179,198934,Wilhelm-Borgmann-Brücke,12,19892552
1180,198934,Karl-Elsasser-Strasse,13,19891050
1181,198934,Gottlieb-Dunkel-Strasse,14,1989715
1182,198934,Teilestrasse,15,19892223
1183,198934,Komturstrasse/Teilestrasse,16,19891131
1184,198934,Colditzstrasse,17,1989402
1185,198934,Wenckebachstrasse,18,19892512
1186,198934,Tempelhofer Damm,19,19892230
1188,198934,Attilaplatz,20,1989141
1189,198934,Alboinstrasse,21,198918
1191,198934,Domnauer Strasse,22,1989454
1193,198934,Röblingstrasse,23,19891837
1194,198934,S-Bhf. Priesterweg,24,19891901
1195,198934,Insulaner/Sternwarte,25,1989986
1196,198934,Auguste-Viktoria-Krankenhaus,26,1989150
1197,198934,Grazer Platz/Grazer Damm,27,1989730
1198,198934,Grazer Platz,28,1989729
1199,198934,Friedenauer Brücke,29,1989600
1200,198934,Kaisereiche,30,19891037
1201,198934,U-Bhf. Friedrich-Wilhelm-Platz,31,19892318
1202,198935,Sterndamm,0,19892167
1203,198935,Bhf. Schöneweide,1,1989243
1205,198935,Wilhelminenhofstrasse Ecke Edisonstrasse,2,19892558
1206,198935,Rathenaustrasse,3,19891744
1207,198935,Pionierpark,4,19891655
1208,198935,Bahnhof-/Lindenstrasse,5,1989160
1209,198935,Seelenbinderstrasse Ecke Bahnhofstrasse,6,19892050
1210,198935,Brandenburgplatz,7,1989306
1211,198935,Hirschgarten,8,1989901
1212,198935,Bölschestrasse,9,1989366
1213,198935,S-Bhf. Friedrichshagen,10,19891862
1214,198935,Hartlebenstrasse,11,1989817
1215,198935,Am Wasserwerk,12,1989104
1216,198935,Müggelseedamm,13,19891468
1217,198935,Freibad Müggelsee,14,1989594
1218,198935,Rahnsdorf,15,19891721
1219,198936,U-Bhf. Holzhauser Strasse/Berliner Strasse,0,19892333
1220,198936,Wittestrasse,1,19892587
1221,198936,Holzhauser Strasse,2,1989939
1222,198936,Soltauer Strasse,3,19892099
1223,198936,Breitenbachstrasse,4,1989314
1225,198936,Miraustrasse,5,19891431
1227,198936,Triftstrasse,6,19892285
1228,198936,Am Nordgraben Ecke Oranienburgerstrasse,7,198990
1229,198936,Rathauspromenade,8,19891740
1231,198936,Oranienburger Strasse,9,19891551
1234,198936,Alt-Wittenau,10,198954
1235,198936,Roedernallee,11,19891799
1237,198936,Oranienburger Strasse,12,19891551
1239,198936,S-Bhf. Wittenau (Nordbahn),13,19891927
1240,198937,Sterndamm,0,19892167
1241,198937,Bhf. Schöneweide,1,1989243
1243,198937,Wilhelminenhofstrasse Ecke Edisonstrasse,2,19892558
1244,198937,Rathenaustrasse,3,19891744
1245,198937,Pionierpark,4,19891655
1246,198937,Bahnhof-/Lindenstrasse,5,1989160
1247,198937,Schloßplatz,6,19891983
1248,198937,Wendenschloßstrasse Ecke Müggelheimer Strasse,7,19892516
1249,198937,"Köpenick, Krankenhaus",8,19891206
1250,198938,Alt-Heiligensee,0,198934
1251,198938,Fährstrasse,1,1989632
1253,198938,Havelblick,2,1989832
1254,198938,Strandbad/Heiligensee,3,19892177
1256,198938,Gemeindefriedhof,4,1989663
1257,198938,Rallenweg,5,19891723
1258,198938,Rohrweihstrasse,6,19891806
1259,198938,Sperberstrasse,7,19892124
1260,198938,Habichtstrasse/Strandbad,8,1989797
1261,198938,Konradshöhe/Falkenplatz,9,19891133
1262,198939,U-Bhf. Tempelhof,0,19892404
1263,198939,Boelckestrasse,1,1989286
1265,198939,Hoeppnerstrasse,2,1989911
1266,198939,Werner-Voß-Damm,3,19892523
1267,198939,Rumeyplan,4,19891830
1268,198939,Loewenhardtdamm,5,19891320
1270,198939,Badener Ring,6,1989156
1271,198939,Dudenstrasse,7,1989465
1272,198939,Monumentenstrasse,8,19891446
1273,198939,Kreuzbergstrasse,9,19891163
1276,198939,Großbeerenstrasse,10,1989758
1278,198939,Yorckstrasse,11,19892607
1279,198939,U-Bhf. Mehringdamm,12,19892356
1280,198939,U-Bhf. Gneisenaustrasse,13,19892320
1282,198939,Baerwaldstrasse,14,1989159
1283,198939,Südstern,15,19892208
1284,198939,U-Bhf. Südstern,16,19892402
1285,198939,Fichtestrasse,17,1989552
1286,198939,Urbanstrasse,18,19892433
1288,198939,Grimmstrasse,19,1989748
1290,198939,Geibelstrasse,20,1989660
1291,198939,Wilmsstrasse,21,19892573
1293,198939,Baerwaldstrasse,22,1989159
1294,198939,U-Bhf. Prinzenstrasse,23,19892377
1295,198939,Ritterstrasse,24,19891793
1296,198939,Segitzdamm,25,19892055
1297,198939,U-Bhf. Kottbusser Tor,26,19892346
1298,198939,Adalbertstrasse,27,19892
1300,198939,Oranienstrasse,28,19891557
1301,198939,Waldemarstrasse,29,19892461
1302,198939,Mariannenplatz,30,19891375
1303,198939,Manteuffelstrasse,31,19891370
1304,198939,Wrangelstrasse,32,19892598
1309,198939,Köpenicker Strasse,33,19891211
1310,198939,Eisenbahnstrasse,34,1989496
1311,198939,U-Bhf. Schlesisches Tor,35,19892396
1312,198939,Falckensteinstrasse,36,1989531
1313,198939,Taborstrasse,37,19892210
1314,198939,Heckmannufer,38,1989839
1315,198939,Schlesische Strasse Ecke Heckmannufer,39,19891972
1316,198940,"Hohenschönhausen, Zingster Strasse",0,1989918
1317,198940,Prerower Platz,1,19891692
1318,198940,Stadion Buschallee,2,19892140
1319,198940,Sulzfelder Strasse,3,19892199
1320,198940,Klement-Gottwald-Allee Ecke Buschallee,4,19891106
1321,198940,Indira-Gandhi-Strasse,5,1989979
1322,198940,Albertinenstrasse,6,198916
1323,198940,Antonplatz,7,1989122
1324,198940,S-Bhf. Erich-Thälmann-Park,8,19891858
1325,198940,Dimitroffstrasse Ecke Greifswalder Strasse,9,1989447
1326,198940,Mollstrasse Ecke Hans-Beimler-Strasse,10,19891442
1327,198940,U-Bhf. Rosa-Luxemburg-Platz,11,19892390
1328,198940,Hackescher Markt,12,1989799
1329,198941,"Grunewald, Roseneck",0,1989765
1330,198941,Teplitzer Strasse,1,19892235
1331,198941,Berkaer Strasse,2,1989195
1332,198941,Hubertusallee,3,1989945
1333,198941,Lynarstrasse,4,19891335
1335,198941,Bismarckplatz,5,1989259
1336,198941,Rathenauplatz,6,19891743
1337,198941,Henriettenplatz,7,1989868
1339,198941,Joachim-Friedrich-Strasse,8,19891004
1341,198941,Lehniner Platz,9,19891239
1342,198941,U-Bhf. Adenauerplatz,10,19892294
1343,198941,Olivaer Platz,11,19891540
1344,198941,Bleibtreustrasse,12,1989280
1345,198941,U-Bhf. Uhlandstr,13,19892409
1346,198941,U-Bhf. Kurfürstendamm,14,19892348
1347,198941,Gedächtnis-Kirche,15,1989652
1348,198941,Europa-Center,16,1989526
1349,198941,U-Bhf. Wittenbergplatz,17,19892417
1350,198941,An der Urania,18,1989116
1353,198941,Kurfürstenstrasse,19,19891184
1354,198941,Lützowplatz,20,19891347
1356,198941,Lützowufer,21,19891350
1357,198941,Magdeburger Platz,22,19891356
1358,198941,Kluckstrasse,23,19891116
1359,198941,Kulturforum,24,19891177
1361,198941,Flottwellstrasse,25,1989568
1362,198941,Schöneberger Strasse,26,19892026
1363,198941,S-Bhf. Anhalter Bahnhof,27,19891849
1364,198941,Kochstrasse,28,19891123
1365,198941,U-Bhf. Kochstrasse,29,19892343
1367,198941,Charlottenstrasse,30,1989391
1369,198941,Lindenstrasse/Oranienstrasse,31,19891308
1370,198941,Alte Jakobstrasse,32,198957
1371,198941,Alexandrinenstrasse,33,198925
1372,198941,U-Bhf. Moritz-Platz,34,19892358
1373,198941,Oranienplatz,35,19891556
1374,198941,Adalbertstrasse,36,19892
1376,198941,Heinrichplatz,37,1989860
1377,198941,U-Bhf. Görlitzer Bahnhof,38,19892322
1378,198941,Spreewaldstrasse,39,19892131
1379,198941,Reichenberger Strasse,40,19891758
1380,198941,Glogauer Strasse,41,1989693
1381,198941,Pflügerstrasse,42,19891645
1385,198941,Sonnenallee,43,19892105
1386,198941,U-Bhf. Hermannplatz,44,19892330
1387,198942,"Weißensee, Hansastrasse",0,19892509
1389,198942,Klement-Gottwald-Allee,1,19891105
1390,198942,Indira-Gandhi-Strasse,2,1989979
1391,198942,Omnibus-Betriebshof,3,19891543
1392,198942,Hohenschönhauser Strasse,4,1989919
1394,198942,Leninallee,5,19891252
1397,198942,Herzbergstrasse,6,1989884
1398,198942,Rathaus Lichtenberg,7,19891730
1399,198942,Bhf. Frankfurter Allee,8,1989231
1400,198942,Scharnweberstrasse,9,19891959
1401,198943,"Lichterfelde, Oberhofer Platz",0,19891284
1402,198943,Kranoldplatz,1,19891158
1403,198943,Jungfernstieg,2,19891025
1404,198943,Marienstrasse,3,19891389
1408,198943,Ostpreußendamm,4,19891577
1409,198943,Hindenburgdamm,5,1989897
1412,198943,Karwendelstrasse/Drakestrasse,6,19891060
1413,198943,Kadettenweg,7,19891032
1414,198943,Kommandantenstrasse,8,19891130
1415,198943,Carstennstrasse,9,1989379
1416,198943,Dahlemer Weg,10,1989416
1419,198943,S-Bhf. Sundgauer Strasse,11,19891916
1420,198943,Winfriedstrasse,12,19892580
1421,198943,Seehofstrasse,13,19892046
1422,198943,Clayallee/Berliner Strasse,14,1989400
1423,198943,Scharfestrasse/Stadtbad,15,19891955
1425,198943,Schützstrasse,16,19892041
1426,198943,Sophie-Charlotte-Strasse,17,19892109
1427,198943,Am Fischtal,18,198976
1428,198943,Im Gestell,19,1989974
1429,198943,U-Bhf. Onkel Toms Hütte,20,19892365
1430,198943,Onkel-Tom-Strasse,21,19891548
1431,198943,Siebenendenweg,22,19892073
1432,198943,Teschener Weg,23,19892237
1433,198943,U-Bhf. Krumme Lanke,24,19892347
1434,198943,Forststrasse,25,1989578
1435,198943,S-Bhf. Mexikoplatz,26,19891888
1436,198943,Niklasstrasse,27,19891513
1437,198943,Potsdamer Chaussee,28,19891676
1438,198943,Clauertstrasse,29,1989398
1439,198943,Am Rohrgarten,30,198995
1440,198943,Spanische Allee,31,19892122
1441,198943,Kurstrasse,32,19891186
1442,198943,Wasgenstrasse,33,19892488
1443,198943,Waldfriedhof,34,19892463
1445,198943,Quantzstrasse,35,19891710
1446,198943,Isoldestrasse,36,1989993
1447,198943,Nibelungenstrasse,37,19891508
1448,198943,Kronprinzessinenweg,38,19891166
1449,198943,Am Großen Wannsee,39,198981
1450,198943,Seglerweg,40,19892056
1451,198943,Koblanckstrasse,41,19891122
1452,198943,Colomierstrasse,42,1989403
1453,198943,Jugenderholungsheim,43,19891022
1454,198943,Löwendenkmal,44,19891339
1455,198943,"Wannsee, Heckeshorn",45,19892481
1456,198944,Björnsonstrasse,0,1989269
1457,198944,Bornholmer Strasse,1,1989296
1458,198944,Schönhauser Allee,2,19892034
1459,198944,Stahlheimer Strasse,3,19892154
1460,198944,Prenzlauer Promenade,4,19891690
1461,198944,Roelckestrasse,5,19891800
1463,198944,Antonplatz,6,1989122
1464,198944,Indira-Gandhi-Strasse,7,1989979
1465,198944,Omnibus-Betriebshof,8,19891543
1466,198944,Hohenschönhauser Strasse,9,1989919
1467,198944,Leninallee,10,19891251
1471,198944,Herzbergstrasse,11,1989884
1472,198944,Rathaus Lichtenberg,12,19891730
1473,198944,Bhf. Frankfurter Allee,13,1989231
1474,198944,Scharnweberstrasse,14,19891959
1475,198944,Boxhagener Strasse,15,1989304
1476,198944,Gärtnerstrasse,16,1989783
1478,198944,Simon-Dach-Strasse,17,19892091
1479,198944,S-Bhf. Warschauer Strasse,18,19891922
1480,198945,U-Bhf. Rathaus Steglitz/Kreisel,0,19892381
1481,198945,S-Bhf. Steglitz,1,19891914
1482,198945,Breitestrasse,2,1989315
1483,198945,Filandastrasse,3,1989553
1487,198945,Bismarckstrasse,4,1989263
1491,198945,Stindestrasse,5,19892170
1493,198945,Siemensstrasse,6,19892087
1494,198945,Leonorenstrasse,7,19891262
1495,198945,Stadtbad Lankwitz,8,19892144
1496,198945,"Lankwitz, Rathaus",9,19891230
1497,198945,"Lankwitz, Kirche",10,19891229
1498,198945,Mühlenstrasse,11,19891472
1501,198945,Malteserstrasse,12,19891367
1502,198945,Malteserstrasse/Belßstrasse,13,19891368
1503,198945,Eiswaldstrasse,14,1989498
1504,198945,Preysingstrasse,15,19891695
1505,198945,Marchandstrasse,16,19891371
1506,198945,Friedrichrodaer Strasse,17,1989617
1507,198945,Zum Guten Hirten,18,19892648
1508,198945,Hildburghauser Strasse,19,1989890
1513,198945,Nahmitzer Damm,20,19891480
1514,198945,Nahmitzer Damm / I B M,21,19891481
1515,198945,Motzener Strasse,22,19891452
1516,198945,Nunsdorfer Ring/Nord,23,19891524
1517,198945,Nunsdorfer Ring/Süd,24,19891525
1518,198945,Sperenberger Strasse,25,19892125
1519,198945,Schichauweg,26,19891964
1520,198945,Illigstrasse,27,1989963
1522,198945,Simpsonweg/Nuthestrasse,28,19892092
1523,198945,Barnetstrasse/Steinstrasse,29,1989170
1524,198945,Finchleystrasse,30,1989555
1525,198945,Groß-Ziethener Strasse,31,1989753
1526,198945,Alt-Lichtenrade,32,198938
1528,198945,Taunusstrasse,33,19892212
1530,198945,Nahariyastrasse,34,19891479
1531,198945,Skarbinastrasse,35,19892093
1532,198945,"Lichtenrade, Nahariyastrasse",36,19891278
1533,198946,Werderstrasse,0,19892520
1534,198946,Streitstrasse/Mertensstrasse,1,19892188
1535,198946,Rauchstrasse,2,19891750
1536,198946,Goltzstrasse/Reußstrasse,3,1989710
1538,198946,Hohenzollern Ring,4,1989925
1540,198946,Schäferstrasse,5,19892023
1541,198946,Lynarstrasse/Parkstrasse,6,19891337
1542,198946,Triftstrasse,7,19892284
1544,198946,Wröhmännerpark,8,19892599
1545,198946,Moritzstrasse,9,19891450
1546,198946,U-Bhf. Rathaus Spandau,10,19892379
1547,198946,Brunsbütteler Damm,11,1989340
1548,198946,Seeburger Strasse,12,19892044
1549,198946,Metzer Strasse,13,19891419
1551,198946,Weißenburger Strasse,14,19892508
1552,198946,Adamstrasse,15,19894
1553,198946,Földerichstrasse/Adamstrasse,16,1989634
1554,198946,Melanchtonplatz,17,19891412
1555,198946,Kolonie Hasenheide,18,19891127
1556,198946,Seeburger Strasse,19,19892044
1558,198946,Maulbeerallee,20,19891402
1559,198946,Baluscheckweg,21,1989166
1561,198946,Magistratsweg,22,19891358
1562,198946,Springerzeile,23,19892133
1563,198946,Brunsbütteler Damm,24,1989340
1565,198946,Spandauer Strasse,25,19892120
1566,198946,Torweg,26,19892272
1567,198946,Torweg/Hackbuschstrasse,27,19892273
1568,198946,"Staaken, Heidebergplan",28,19892138
1569,198947,U-Bhf. Rathaus Steglitz/Kreisel,0,19892381
1570,198947,S-Bhf. Steglitz,1,19891914
1571,198947,Breite Strasse,2,1989307
1573,198947,Filandastrasse,3,1989553
1577,198947,Bismarckstrasse,4,1989263
1581,198947,Stindestrasse,5,19892170
1583,198947,Siemensstrasse,6,19892087
1584,198947,Leonorenstrasse,7,19891262
1585,198947,Stadtbad Lankwitz,8,19892144
1586,198947,Rathaus Lankwitz,9,19891729
1587,198947,"Lankwitz, Kirche",10,19891229
1588,198947,Mühlenstrasse,11,19891472
1590,198947,Malteserstrasse,12,19891366
1592,198947,Malteser Strasse/Belßstrasse,13,19891365
1593,198947,Wedellstrasse,14,19892499
1594,198947,Wichurastrasse,15,19892537
1595,198947,Preysingstrasse,16,19891695
1596,198947,Sonnenscheinpfad,17,19892107
1598,198947,Marienfelder Allee,18,19891387
1599,198947,S-Bhf. Marienfelde,19,19891884
1600,198947,Daimlerstrasse,20,1989420
1601,198947,Fritz-Werner-Strasse,21,1989627
1602,198947,Benzstrasse,22,1989187
1604,198947,Richard-Tauber-Damm,23,19891781
1605,198947,"Marienfelde, Culemeyerstrasse",24,19891383
1606,198948,Breitenbachplatz,0,1989312
1607,198948,U-Bhf. Breitenbachplatz,1,19892306
1608,198948,Björnsonstrasse,2,1989268
1609,198948,Gritznerstrasse,3,1989750
1611,198948,Lepsiusstrasse,4,19891266
1612,198948,U-Bhf. Schloßstrasse,5,19892397
1613,198948,Filandastrasse,6,1989553
1614,198948,Südendstrasse,7,19892207
1615,198948,Albrechtstrasse,8,198920
1617,198948,Steglitzer Damm,9,19892159
1619,198948,Halskestrasse,10,1989806
1620,198948,Liebenowzeile,11,19891290
1621,198948,Buhrowstrasse,12,1989356
1622,198948,Hünefeldzeile,13,1989959
1623,198948,S-Bhf. Mariendorf,14,19891883
1624,198948,Kurfürstenstrasse,15,19891182
1627,198948,Gersdorfstrasse,16,1989676
1628,198948,Rathausstrasse,17,19891742
1629,198948,U-Bhf. Westphalweg,18,19892415
1630,198948,Eisenacher Strasse,19,1989492
1633,198948,Kollostrasse,20,19891125
1634,198948,Kosleckweg,21,19891138
1635,198948,Didostrasse,22,1989441
1637,198948,Rixdorfer Strasse,23,19891795
1638,198948,Imbrosweg,24,1989977
1639,198948,Goldenes Horn,25,1989705
1640,198948,Imbrosweg 66,26,1989978
1641,198948,"Mariendorf, Dardanellenweg",27,19891377
1642,198949,"Spandau, Wasserwerk",0,19892117
1643,198949,Wolburgsweg,1,19892589
1644,198949,Frankenwaldstrasse,2,1989581
1645,198949,Friedhof In den Kisseln,3,1989606
1647,198949,Zeppelinstrasse,4,19892626
1649,198949,Zweibrücker Strasse,5,19892652
1650,198949,Askanierring,6,1989138
1651,198949,Kurze Strasse/Mittelstrasse,7,19891193
1652,198949,Wröhmännerpark,8,19892599
1653,198949,Moritzstrasse,9,19891450
1654,198949,U-Bhf. Rathaus Spandau,10,19892379
1655,198949,Brunsbütteler Damm,11,1989340
1656,198949,Seeburger Strasse,12,19892044
1657,198949,Metzer Strasse,13,19891419
1659,198949,Weißenburger Strasse,14,19892508
1660,198949,Adamstrasse,15,19894
1661,198949,Jordanstrasse,16,19891019
1662,198949,Heerstrasse,17,1989840
1664,198949,Jaczostrasse,18,1989995
1665,198949,Gatower Strasse,19,1989650
1666,198949,Sandheideweg,20,19891946
1668,198949,Weinmeisterhornweg,21,19892505
1669,198949,Zur Haveldüne,22,19892650
1670,198949,Biberburg,23,1989246
1671,198949,Ortsgrenze Gatow,24,19891560
1672,198949,Pfirsichweg,25,19891642
1673,198949,"Gatow, Kirche",26,1989648
1674,198949,Groß-Glienicker Weg,27,1989752
1675,198949,Am Graben,28,198980
1676,198949,Badewiese,29,1989157
1677,198949,Krankenhaus Hohengatow,30,19891150
1678,198949,Waldstrasse,31,19892473
1679,198949,Flugplatz Gatow,32,1989573
1680,198949,Krankenhaus Havelhöhe,33,19891149
1681,198949,Neukladower Allee,34,19891501
1682,198949,Finnenhaus-Siedlung,35,1989558
1683,198949,Ritterfelddamm,36,19891792
1684,198949,Schallweg,37,19891951
1685,198949,Schwabinger Weg,38,19892012
1686,198949,Gredinger Strasse,39,1989731
1687,198949,Waldallee,40,19892460
1688,198949,Seekorso,41,19892047
1689,198949,Kurpromenade,42,19891185
1690,198949,"Glienicke, Gutshof",43,1989685
1691,198950,U-Bhf. Ruhleben,0,19892392
1692,198950,Krematorium Ruhleben,1,19891161
1693,198950,Polizei-Direktion-West,2,19891670
1694,198950,Güterbahn Ruhleben,3,1989792
1695,198950,Teltower Strasse,4,19892227
1696,198950,Tiefwerderweg,5,19892254
1697,198950,Krowelstrasse,6,19891168
1700,198950,Pichelsdorfer Strasse,7,19891649
1701,198950,Földerichstrasse/Adamstrasse,8,1989634
1702,198950,Melanchtonplatz,9,19891412
1703,198950,Am Omnibushof,10,198993
1704,198950,Heerstrasse/Gatower Strasse,11,1989845
1705,198950,Sandheideweg,12,19891946
1707,198950,Weinmeisterhornweg,13,19892505
1708,198950,Zur Haveldüne,14,19892650
1709,198950,Biberburg,15,1989246
1710,198950,Ortsgrenze Gatow,16,19891560
1711,198950,Pfirsichweg,17,19891642
1712,198950,"Gatow, Kirche",18,1989648
1713,198950,Groß-Glienicker Weg,19,1989752
1714,198950,Am Graben,20,198980
1715,198950,Badewiese,21,1989157
1716,198950,Krankenhaus Hohengatow,22,19891150
1717,198950,Waldstrasse,23,19892473
1718,198950,Flugplatz Gatow,24,1989573
1719,198950,Krankenhaus Havelhöhe,25,19891149
1720,198950,Neukladower Allee,26,19891501
1721,198950,Finnenhaus-Siedlung,27,1989558
1722,198950,Ritterfelddamm,28,19891792
1723,198950,"Kladow, Dorfplatz",29,19891091
1724,198950,Krampnitzer Weg,30,19891146
1725,198950,Gößweinsteiner Gang,31,1989789
1726,198950,Hottengrundweg,32,1989943
1727,198950,Kaserne Hottengrund,33,19891061
1728,198950,"Kladow, Hottengrund",34,19891092
1729,198951,Krankenhaus Hohengatow,0,19891150
1730,198951,Waldschluchtpfad,1,19892470
1731,198951,Breitehornweg,2,1989311
1732,198951,badewiese,3,19892658
1733,198951,Am Graben,4,198980
1734,198951,Groß-Glienicker Weg,5,1989752
1735,198951,Zum Dorf Gatow,6,19892647
1736,198951,Gatower Heide,7,1989649
1737,198951,Siedlung Habichtswald,8,19892075
1738,198952,"Kladow, Alt-Kladow",0,19891090
1739,198952,Krampnitzer Weg,1,19891146
1740,198952,Grimmelshausenerstrasse,2,1989746
1741,198952,Selbitzer Strasse,3,19892058
1742,198952,Lanzendorfer Weg,4,19891232
1743,198952,Seniorenheim Hottengrund,5,19892065
1744,198953,Brixplatz,0,1989328
1745,198953,U-Bhf. Neu-Westend,1,19892362
1746,198953,Kirschenallee,2,19891084
1748,198953,Kastanienallee,3,19891065
1750,198953,Theodor-Heuss-Platz,4,19892242
1751,198953,U-Bhf. Theodor-Heuss-Platz,5,19892405
1752,198953,Messegelände,6,19891417
1753,198953,Omnibusbahnhof,7,19891545
1754,198953,Congress-Centrum,8,1989405
1755,198953,Trabener Strasse,9,19892274
1756,198953,Rathenauplatz,10,19891743
1757,198953,Henriettenplatz,11,1989868
1758,198953,Joachim-Friedrich-Strasse,12,19891003
1761,198953,Hochmeisterplatz,13,1989907
1762,198953,Eisenzahnstrasse,14,1989497
1763,198953,Konstanzer Strasse,15,19891134
1764,198953,U-Bhf. Fehrbelliner Platz,16,19892313
1765,198953,U-Bhf. Blissestrasse,17,19892303
1766,198953,U-Bhf. Berliner Strasse,18,19892300
1767,198953,Kufsteiner Strasse,19,19891176
1768,198953,John-F.-Kennedy-Platz,20,19891016
1769,198953,Hauptstrasse,21,1989825
1770,198953,Albertstrasse,22,198917
1771,198953,Kaiser-Wilhelm-Platz,23,19891034
1772,198953,Gustav-Müller-Strasse,24,1989777
1773,198953,Naumannstrasse,25,19891487
1774,198953,Kesselsdorfstrasse,26,19891073
1776,198953,Loewenhardtdamm,27,19891321
1777,198953,Katzbachstrasse,28,19891068
1778,198953,Friesenstrasse,29,1989624
1779,198953,Golßener Strasse,30,1989711
1780,198953,Friedhof,31,1989605
1781,198953,Freibad,32,1989593
1782,198953,Fontanestrasse,33,1989575
1784,198953,U-Bhf. Boddinstrasse,34,19892304
1785,198953,Werbellinstrasse,35,19892519
1786,198953,Morusstrasse,36,19891451
1787,198953,Kienitzer Strasse,37,19891081
1788,198953,U-Bhf. Karl-Marx-Strasse,38,19892341
1789,198953,Richardstrasse,39,19891783
1790,198953,U-Bhf. Rathaus Neukölln,40,19892378
1791,198953,Sonnenallee,41,19892102
1795,198953,Wildenbruchplatz,42,19892547
1796,198953,Harzer Strasse,43,1989819
1797,198953,Elsenstrasse,44,1989504
1798,198953,Brockenstrasse,45,1989329
1799,198953,Treptower Strasse,46,19892281
1800,198953,Weigandufer,47,19892502
1801,198953,"Neukölln, Teupitzer Strasse",48,19891504
1802,198954,Eberswalder Strasse,0,1989471
1803,198954,U-Bhf. Dimitroffstrasse,1,19892311
1805,198954,Prenzlauer Allee,2,19891685
1806,198954,Greifswalder Strasse,3,1989735
1807,198954,Bötzowstrasse,4,1989369
1808,198954,Artur-Becker-Strasse,5,1989135
1809,198954,Leninallee,6,19891251
1813,198954,Bersarinplatz,7,1989213
1814,198954,U-Bhf. Frankfurter Tor,8,19892315
1815,198954,Grünberger Strasse,9,1989769
1816,198954,S-Bhf. Warschauer Strasse,10,19891922
1818,198955,Waltersdorfer Chaussee,0,19892478
1819,198955,Timmendorfer Weg,1,19892263
1820,198955,Narkauer Weg,2,19891483
1821,198955,Ostburger Weg,3,19891569
1822,198955,Neuhofer Strasse,4,19891500
1823,198955,Eichenauer Weg,5,1989483
1825,198955,U-Bhf. Rudow,6,19892391
1826,198955,Köpenicker Strasse,7,19891207
1831,198955,Krokusstrasse,8,19891165
1832,198955,Stubenrauchstrasse,9,19892192
1836,198955,Fritz-Erler-Allee,10,1989625
1838,198955,Arnikaweg/Efeuweg,11,1989130
1839,198955,Lipschitzallee,12,19891313
1840,198955,Johannisthaler Chaussee,13,19891012
1841,198955,Storchenweg,14,19892172
1842,198955,Krankenhaus Neukölln,15,19891155
1843,198955,Grüner Weg,16,1989770
1844,198955,Parchimer Allee,17,19891617
1845,198955,Onkel-Herse-Strasse,18,19891547
1846,198955,Blaschkoallee,19,1989278
1848,198955,Haarlemer Strasse,20,1989794
1849,198955,U-Bhf. Grenzallee,21,19892321
1850,198955,Grenzallee,22,1989741
1852,198955,Naumburger Strasse,23,19891488
1853,198955,Am Oberhafen,24,198992
1854,198955,Bergiusstrasse,25,1989189
1855,198955,Neuköllnische Allee,26,19891506
1858,198955,Sonnenallee,27,19892104
1860,198955,Ziegrastrasse,28,19892631
1861,198955,Saalestrasse,29,19891934
1862,198955,Mareschstrasse,30,19891374
1863,198955,Hertzbergplatz,31,1989881
1864,198955,Geygerstrasse,32,1989680
1865,198955,Wildenbruchstrasse,33,19892548
1866,198955,Fuldastrasse,34,1989631
1867,198955,Pannierstrasse,35,19891611
1868,198955,U-Bhf. Hermannplatz,36,19892330
1869,198955,Hohenstaufenplatz,37,1989921
1870,198955,U-Bhf. Kottbusser Damm,38,19892345
1871,198955,Kottbusser Brücke,39,19891139
1872,198955,U-Bhf. Kottbusser Tor,40,19892346
1873,198955,Adalbertstrasse,41,19892
1875,198955,Oranienstrasse,42,19891557
1876,198955,Oranienplatz,43,19891556
1877,198955,U-Bhf. Moritzplatz,44,19892359
1878,198955,Alexandrinenstrasse,45,198925
1879,198955,Alte Jakobstrasse,46,198957
1881,198955,Lindenstrasse,47,19891307
1882,198955,Markgrafenstrasse,48,19891390
1884,198955,Neuenburger Strasse,49,19891495
1886,198955,Gitschiner Strasse,50,1989682
1887,198955,U-Bhf. Hallesches Tor,51,19892325
1888,198956,"Niederschönhausen, Schillerstrasse",0,19891509
1889,198956,Nordend,1,19891519
1890,198956,Kuckhoffstrasse,2,19891174
1891,198956,Kurt-Fischer-Strasse,3,19891190
1892,198956,Bürgerpark,4,1989373
1893,198956,"Pankow, Rathaus",5,19891604
1894,198956,"Pankow, Kirche",6,19891602
1895,198956,S-Bhf. Pankow,7,19891895
1896,198956,U-Bhf. Pankow,8,19892369
1897,198956,Bornholmer Strasse,9,1989296
1898,198956,Bhf. Schönhauser Allee,10,1989245
1899,198956,U-Bhf. Dimitroffstrasse,11,19892311
1900,198956,Zionskirchplatz,12,19892639
1901,198956,Brunnenstrasse,13,1989334
1902,198956,"Invalidenstrasse, Post",14,1989990
1903,198956,Oranienburger Tor,15,19891554
1904,198956,Bhf. Friedrichstrasse,16,1989234
1905,198956,Am Kupfergraben,17,198988
1906,198957,"Zehlendorf, Busseallee",0,19892615
1907,198957,Fischerhüttenstrasse,1,1989561
1909,198957,Zehlendorfer Eiche,2,19892618
1910,198957,Berliner Strasse,3,1989200
1914,198957,Seehofstrasse,4,19892046
1915,198957,Winfriedstrasse,5,19892580
1916,198957,Sundgauer Strasse,6,19892201
1918,198957,Holländische Mühle,7,1989933
1921,198957,Dahlemer Weg,8,1989418
1922,198957,Adolf-Martens-Strasse,9,19897
1924,198957,Drakestrasse,10,1989459
1926,198957,Tietzenweg,11,19892261
1927,198957,Asternplatz,12,1989139
1928,198957,Botanischer Garten,13,1989301
1931,198957,Hindenburgdamm,14,1989898
1933,198957,Wolfensteindamm,15,19892590
1934,198957,U-Bhf. Rathaus Steglitz/S-Bhf. Rathaus Steglitz,16,19892382
1935,198957,Kieler Strasse,17,19891079
1936,198957,U-Bhf. Schloßstrasse,18,19892397
1937,198957,U-Bhf. Walther-Schreiber-Platz,19,19892413
1938,198957,Dickhardtstrasse,20,1989440
1939,198957,Kaisereiche,21,19891037
1940,198957,Breslauer Platz,22,1989317
1941,198957,Sponholzstrasse,23,19892129
1942,198957,U-Bhf. Innsbrucker Platz,24,19892335
1943,198957,Martin-Luther-Strasse,25,19891392
1945,198957,Dominicusstrasse,26,1989452
1946,198957,Albertstrasse,27,198917
1947,198957,Kaiser-Wilhelm-Platz,28,19891034
1948,198957,U-Bhf. Kleistpark,29,19892342
1949,198957,Goebenstrasse,30,1989698
1950,198957,Bülowstrasse,31,1989371
1951,198957,U-Bhf. Kurfürstenstrasse,32,19892349
1952,198957,Lützowstrasse,33,19891348
1953,198957,Potsdamer Brücke,34,19891675
1954,198957,Kulturforum,35,19891177
1955,198957,Tiergartenstrasse Philharmonie,36,19892257
1956,198958,"Bucholz, Hauptstrasse",0,1989347
1957,198958,Blankenfelder Strasse,1,1989275
1958,198958,Rosenthaler Strasse Ecke Bahnhofstrasse,2,19891815
1959,198958,Blankenburger Strasse,3,1989273
1960,198958,Pankower Strasse,4,19891608
1961,198958,Galenusstrasse,5,1989641
1962,198958,S-Bhf. Pankow-Heinersdorf,6,19891897
1963,198958,Klaustaler Strasse,7,19891098
1964,198958,Stiftsweg,8,19892169
1965,198958,"Pankow, Kirche",9,19891602
1966,198958,S-Bhf. Pankow (Vinetastrasse),10,19891896
1967,198958,U-Bhf. Pankow,11,19892369
1968,198958,Bornholmer Strasse Ecke Wisbyer Strasse,12,1989297
1969,198958,Bhf. Schönhauser Allee,13,1989245
1970,198958,U-Bhf. Dimitroffstrasse,14,19892311
1971,198958,Zionskirchstrasse,15,19892640
1972,198958,Rosenthaler Platz,16,19891814
1973,198958,Hackescher Markt,17,1989799
1974,198959,U-Bhf. Ruhleben,0,19892392
1975,198959,Krematorium Ruhleben,1,19891161
1976,198959,Pol.-Direktion-West,2,19891669
1977,198959,Güterbahn Ruhleben,3,1989792
1978,198959,Teltower Strasse,4,19892227
1979,198959,Tiefwerderweg,5,19892254
1980,198959,Grenadierstrasse,6,1989740
1981,198959,Stresowplatz,7,19892190
1982,198959,Breite Strasse/Markt,8,1989310
1983,198959,U-Bhf. Rathaus Spandau,9,19892379
1984,198959,Galenstrasse,10,1989639
1985,198959,Staakener Strasse,11,19892139
1986,198959,Petzoldtweg,12,19891638
1987,198959,Zeppelinstrasse,13,19892625
1989,198959,Spekteweg,14,19892123
1990,198959,Merziger Strasse,15,19891415
1991,198959,Falkenseer Chaussee,16,1989540
1992,198959,Westerwaldstrasse,17,19892531
1993,198959,Frankenwaldstrasse,18,1989581
1994,198959,Am Kiesteich,19,198986
1995,198959,Im Spektefeld,20,1989976
1996,198959,Paul-Gerhardt-Ring,21,19891626
1998,198959,Schulzentrum,22,19892010
1999,198959,Hochhausweg,23,1989906
2000,198959,Stadtrandstrasse,24,19892153
2001,198959,Glühwürmchenweg,25,1989695
2002,198959,Waldkrankenhaus,26,19892466
2003,198959,Griesingerstrasse,27,1989745
2004,198959,"Spandau, Nervenklinik",28,19892116
2005,198960,"Marzahn, Henneckestrasse",0,19891396
2006,198960,Otto-Winzer-Strasse,1,19891592
2007,198960,Bruno-Leuschner-Strasse,2,1989339
2008,198960,Alt-Marzahn,3,198945
2009,198960,Elisabethstrasse,4,1989503
2010,198960,S-Bhf. Springpfuhl,5,19891913
2011,198960,Rhinstrasse,6,19891776
2012,198960,Siegfriedstrasse,7,19892081
2013,198960,Betriebshof Lichtenberg,8,1989220
2014,198960,Bhf. Lichtenberg,9,1989238
2015,198961,"Düppel-Süd, Neuruppiner Strasse",0,1989469
2016,198961,Satzkorner Weg,1,19891949
2017,198961,Michendorfer Strasse,2,19891424
2018,198961,Ludwigsfelder Strasse,3,19891328
2019,198961,Loebellstrasse,4,19891318
2020,198961,Thürstrasse,5,19892252
2021,198961,Camphausenstrasse,6,1989378
2022,198961,Machnower Strasse,7,19891352
2024,198961,S-Bhf. Zehlendorf,8,19891930
2025,198961,Zehlendorfer Eiche,9,19892617
2027,198961,Clayallee,10,1989399
2029,198961,Scharfestrasse/Stadtbad,11,19891956
2031,198961,Schützallee,12,19892040
2033,198961,Sundgauer Strasse,13,19892202
2034,198961,Krankenhaus Oskar-Helene-Heim,14,19891156
2035,198961,U-Bhf. Oskar-Helene-Heim,15,19892366
2036,198961,Hüttenweg,16,1989960
2037,198961,Auf dem Grat,17,1989146
2038,198961,Königin-Luise-Strasse,18,19891196
2039,198961,Finkenstrasse,19,1989557
2040,198961,Pücklerstrasse,20,19891709
2041,198961,Messelstrasse,21,19891418
2042,198961,Roseneck,22,19891810
2043,198961,Elsterplatz,23,1989506
2044,198961,Frockenbeckstrasse,24,1989628
2045,198961,Landecker Strasse,25,19891221
2046,198961,Cunostrasse,26,1989411
2047,198961,Rudolstädter Strasse,27,19891820
2048,198961,Seesener Strasse,28,19892052
2052,198961,Berliner Strasse,29,1989203
2053,198961,U-Bhf. Fehrbelliner Platz,30,19892313
2054,198961,Emser Platz,31,1989513
2055,198961,Uhlandstrasse,32,19892426
2057,198961,Nassauische Strasse,33,19891484
2058,198961,U-Bhf. Güntzelstrasse,34,19892323
2059,198962,"Rudow, Kanalstrasse",0,19891822
2060,198962,Mimosenweg/Hafenstrasse,1,19891429
2061,198962,Mistelweg,2,19891433
2062,198962,Kanalstrasse 8-41,3,19891045
2064,198962,Stubenrauchstrasse,4,19892193
2067,198962,Frauenschuhweg,5,1989591
2068,198962,Flurweg,6,1989574
2069,198962,Fuchsienweg,7,1989630
2070,198962,Windenweg,8,19892576
2071,198962,Arnikaweg/Efeuweg,9,1989130
2072,198962,Lipschitzallee,10,19891313
2073,198962,Gesundheitszentrum,11,1989679
2075,198962,Fritz-Erler-Allee,12,1989626
2076,198962,Löwensteinring,13,19891340
2077,198962,Johannisthaler chaussee,14,19891014
2078,198962,U-Bhf. Johannisthaler Chaussee,15,19892337
2079,198962,Tischlerzeile,16,19892265
2081,198962,Wildmeisterdamm,17,19892551
2082,198962,Buckower Damm,18,1989352
2083,198962,Buckower Friedhof,19,1989353
2084,198962,Rufacher Weg,20,19891827
2085,198962,Delmer Steig,21,1989428
2086,198962,Quarzweg,22,19891711
2087,198962,Bühler Weg,23,1989370
2088,198962,Grauwackeweg,24,1989728
2089,198962,Mariendorfer Damm,25,19891378
2090,198962,Kettinger Strasse,26,19891075
2092,198962,Richard-Tauber-Damm,27,19891780
2094,198962,S-Bhf. Buckower Chaussee,28,19891856
2095,198962,Motzener Strasse,29,19891452
2096,198962,Gutshof Marienfeld,30,1989779
2097,198962,Marienfelder Allee,31,19891386
2099,198962,"Marienfelde, Nahmitzer Damm",32,19891384
2100,198963,S-Bhf. Nikolassee,0,19891889
2101,198963,Burgunder Strasse,1,1989359
2102,198963,An der Rehwiese,2,1989114
2103,198963,Krottnaurerstrasse,3,19891167
2104,198963,Reifträgerweg,4,19891766
2105,198963,S-Bhf. Schlachtensee,5,19891907
2106,198963,Ilsensteinweg,6,1989968
2107,198963,Rhumeweg,7,19891778
2108,198963,S-Bhf. Mexico Platz,8,19891887
2109,198963,Forststrasse,9,1989578
2110,198963,U-Bhf. Krumme Lanke,10,19892347
2111,198963,Sven-Hedin-Strasse,11,19892204
2112,198963,Hartmannsweilerweg,12,1989818
2113,198963,Bergmannstrasse,13,1989191
2116,198963,Potsdamer Strasse,14,19891678
2119,198963,Zehlendorf Eiche,15,19892613
2120,198963,S-Bhf. Zehlendorf,16,19891930
2122,198963,Machnower Strasse,17,19891353
2123,198963,Mühlenstrasse/Seehofstrasse,18,19891474
2124,198963,Knesebeckstrasse,19,19891120
2125,198963,Jänickestrasse,20,19891029
2126,198963,Dahlemer Weg,21,1989416
2129,198963,Osteweg/Seehofstrasse,22,19891572
2130,198963,Platz des 4. Juli,23,19891664
2131,198963,Osteweg/Carstennstrasse,24,19891571
2132,198963,Thuner Platz,25,19892249
2133,198963,Goerzallee,26,1989699
2134,198963,Ruthnerweg,27,19891834
2135,198963,Engadiner Weg,28,1989516
2136,198963,Bremer Strasse,29,1989316
2137,198963,Drakestrasse,30,1989458
2139,198963,Wiesenbaude,31,19892542
2140,198964,Spandau Johannesstift,0,19892113
2141,198964,Stadtpark/Cautiusstrasse,1,19892150
2142,198964,Mögeldorfer Weg,2,19891463
2143,198964,Klinkeplatz,3,19891112
2144,198964,Stadtheidestrasse,4,19892147
2146,198964,Lynarstrasse,5,19891336
2147,198964,Predigergarten,6,19891681
2148,198964,Wröhmännerpark,7,19892599
2149,198964,Moritzstrasse,8,19891450
2150,198964,U-Bhf. Rathaus Spandau,9,19892379
2151,198964,Ruhlebener Strasse,10,19891829
2152,198964,Tiefwerderweg,11,19892254
2153,198964,Teltower Strasse,12,19892227
2154,198964,Güterbahn Ruhleben,13,1989792
2155,198964,Polizei-Direktion-West,14,19891670
2156,198964,Krematorium Ruhleben,15,19891161
2157,198964,U-Bhf. Ruhleben,16,19892392
2158,198964,Machandelweg,17,19891351
2159,198964,Reichsstrasse,18,19891761
2160,198964,Schloß Ruhwald,19,19891980
2161,198964,Meiningenallee,20,19891410
2163,198964,Kirschenallee,21,19891085
2165,198964,Kastanienallee,22,19891066
2166,198964,Klinikum Charlottenburg,23,19891110
2167,198964,Königin-Elisabeth-Strasse,24,19891195
2168,198964,Spandauer-Damm-Brücke,25,19892121
2169,198964,Sophie-Charlotten-Strasse,26,19892110
2170,198964,Klausenerplatz,27,19891095
2173,198964,Schloßstrasse/Schloß,28,19891988
2174,198964,Luisenplatz,29,19891329
2175,198964,Wilmersdorfer Strasse,30,19892571
2176,198964,U-Bhf. Richard-Wagner-Platz,31,19892387
2177,198964,Krumme Strasse,32,19891170
2178,198964,Leibnizstrasse,33,19891243
2185,198964,Bismarckstrasse,34,1989266
2186,198964,U-Bhf. Ernst-Reuter-Platz,35,19892312
2187,198964,Steinplatz,36,19892161
2188,198964,jebensstrasse,37,19892662
2189,198964,U-Bhf./S-Bhf. Zoologischer Garten,38,19892422
2190,198964,Hertzallee,39,1989880
2191,198965,U-Bhf. Ruhleben,0,19892392
2192,198965,Krematorium Ruhleben,1,19891161
2193,198965,Klärwerkstrasse/Freiheit,2,19891117
2194,198965,Freiheit 16-43,3,1989597
2195,198965,Pichelswerderstrasse,4,19891651
2196,198965,Fernbahnhof Spandau,5,1989550
2197,198965,Breite Strasse/Markt,6,1989310
2198,198965,U-Bhf. Rathaus Spandau,7,19892379
2199,198965,Moritzstrasse,8,19891450
2200,198965,Wröhmännerpark,9,19892599
2201,198965,Triftstrasse,10,19892284
2203,198965,Lynarstrasse/Parkstrasse,11,19891337
2205,198965,Schäferstrasse,12,19892023
2206,198965,Hohenzollernring,13,1989927
2207,198965,Goltzstrasse/Reußstrasse,14,1989710
2208,198965,Streitstrasse/Rauchstrasse,15,19892189
2209,198965,Goltzstrasse/Rauchstrasse,16,1989708
2210,198965,Goltzstrasse/Mertensstrasse,17,1989707
2211,198965,Streitstrasse/Mertensstrasse,18,19892188
2212,198965,Werderstrasse,19,19892520
2213,198965,Eschenweg,20,1989525
2214,198965,Spandau Hakenfelde,21,19892112
2215,198966,Zwickauer Damm,0,19892654
2216,198966,Fleischerstrasse,1,1989564
2217,198966,Schriftsetzerweg,2,19892000
2218,198966,U-Bhf. Zwickauer Damm,3,19892420
2219,198966,Windenweg,4,19892576
2220,198966,Ehrenpreisweg,5,1989477
2221,198966,Petunienweg,6,19891637
2222,198966,Kanalstrasse,7,19891044
2223,198966,Kanalstrasse 8-41,8,19891045
2224,198966,Mistelweg,9,19891433
2225,198966,Mimosenweg/Hafenstrasse,10,19891429
2228,198966,Köpenicker Strasse,11,19891209
2231,198966,Im Bauernbusch,12,1989970
2232,198966,Neudecker Weg,13,19891493
2233,198966,Selgenauer Weg,14,19892060
2234,198966,Landhaussiedlung Rudow,15,19891224
2235,198966,U-Bhf. Rudow,16,19892391
2237,198966,Eichenauer Weg,17,1989484
2238,198966,Lockenhuhnweg,18,19891317
2239,198966,Geflügelsteig,19,1989653
2240,198966,Kapaunenstrasse,20,19891048
2241,198966,Leghornweg,21,19891238
2242,198966,Lakenfelder Weg,22,19891220
2243,198966,Groß-Ziethener-Chaussee,23,1989754
2244,198966,Pirnaer Strasse,24,19891657
2245,198966,Kolonie Ewige Heimat,25,19891126
2246,198966,U-Bhf. Rudow,26,19892391
2247,198966,Landhaussiedlung Rudow,27,19891224
2248,198966,Selgenauer Weg,28,19892060
2249,198966,Lettberger Strasse,29,19891269
2252,198966,Köpenicker Strasse,30,19891209
2255,198966,Kanalstrasse,31,19891044
2256,198966,Mimosenweg/Hafenstrasse,32,19891429
2257,198966,Mistelweg,33,19891433
2258,198966,Kanalstrasse 8-41,34,19891045
2260,198966,Stubenrauchstrasse,35,19892193
2263,198966,Petunienweg,36,19891637
2264,198966,Glockenblumenweg,37,1989692
2265,198966,Windenweg,38,19892576
2266,198966,Neuköllner Strasse,39,19891505
2267,198966,U-Bhf. Zwickauer Damm,40,19892420
2268,198966,Theodor-Loos-Weg,41,19892244
2269,198966,Zwickauer Damm,42,19892654
2270,198967,U-Bhf. Rudow,0,19892391
2271,198967,Köpenicker Strasse,1,19891207
2276,198967,Prierosser Strasse,2,19891696
2277,198967,Selgenauer Weg,3,19892060
2278,198967,Buchsbaumweg,4,1989348
2279,198967,Im Bauernbusch,5,1989970
2280,198967,Kanalstrasse,6,19891044
2281,198967,Neudecker Weg,7,19891493
2282,198967,Lettberger Strasse,8,19891269
2283,198967,Neuhofer Strasse,9,19891500
2284,198967,Ostburger Weg,10,19891569
2285,198967,Will-Meisel-Weg,11,19892570
2286,198967,friedhof Rudow,12,19892659
2287,198967,Waltersdorfer Chaussee,13,19892477
2289,198967,neuhofer Strasse,14,19892665
2290,198967,Eichenauer Weg,15,1989483
2292,198967,U-Bhf. Rudow,16,19892391
2293,198968,S-Bhf. Wannsee,0,19891920
2294,198968,Königstrasse,1,19891203
2295,198968,Am Großen Wannsee,2,198981
2296,198968,Endestrasse,3,1989515
2297,198968,Pfaueninselchaussee,4,19891641
2298,198968,Rathaus Wannsee,5,19891738
2299,198968,Friedenstrasse,6,1989602
2301,198968,Schäferberg,7,19892021
2302,198968,Nikolskoer Weg,8,19891515
2303,198968,Schloß Glienicke,9,19891979
2304,198968,Weg der Moorlake,10,19892500
2305,198968,Glienicker Brücke,11,1989687
2306,198969,Betriebshof Marzahn,0,1989222
2307,198969,Otto-Buchwitz-Strasse,1,19891584
2308,198969,Bruno-Leuschner-Strasse,2,1989339
2309,198969,Bruno-Baum-Strasse,3,1989337
2310,198969,S-Bhf. Marzahn,4,19891886
2311,198969,BWF Marzahn,5,1989153
2312,198969,Rhinstrasse,6,19891776
2313,198969,Arendsweg,7,1989125
2314,198969,Zechliner Strasse,8,19892611
2315,198969,Ho-Chi-Minh-Strasse,9,1989904
2316,198969,S-Bhf. Leninallee,10,19891878
2317,198969,Dimitroffstrasse,11,1989444
2319,198970,Hertzallee,0,1989880
2320,198970,U-Bhf./S-Bhf. Zoologischer Garten,1,19892422
2321,198970,kantstrasse,2,19892663
2322,198970,Uhlandstrasse/Kantstrasse,3,19892428
2323,198970,U-Bhf. Uhlandstrasse,4,19892410
2324,198970,Lietzenburger Strasse,5,19891294
2325,198970,Pariser Strasse,6,19891619
2326,198970,U-Bhf. Hohenzollernplatz,7,19892331
2327,198970,Güntzelstrasse/Uhlandstrasse,8,1989791
2328,198970,Postamt Uhlandstrasse,9,19891673
2329,198970,U-Bhf. Blissestrasse,10,19892303
2330,198970,Am Volkspark,11,1989102
2331,198970,Brabanter Platz,12,1989305
2332,198970,U-Bhf. Heidelberger Platz,13,19892328
2333,198970,Forckenbeckstrasse,14,1989577
2334,198970,Rudolf-Mosse-Platz,15,19891819
2335,198970,Oeynhauser Strasse,16,19891534
2336,198970,Cunostrasse/Kirchstrasse,17,1989412
2337,198970,Berkaer Strasse/Breite Strasse,18,1989196
2338,198970,Rathaus Schmargendorf,19,19891732
2339,198970,Kissinger Strasse,20,19891089
2340,198970,Elsterplatz,21,1989506
2341,198970,"Grunewald, Roseneck",22,1989765
2342,198971,U-Bhf. Osloer Strasse,0,19892367
2343,198971,Koloniestrasse,1,19891129
2344,198971,Prinzenallee,2,19891699
2346,198971,Soldiner Strasse,3,19892096
2348,198971,Koloniestrasse,4,19891129
2349,198971,Kleingartenkolonie,5,19891099
2350,198971,Kühnemannstrasse,6,19891214
2352,198971,Pankower Allee,7,19891607
2353,198971,Reginhardstrasse,8,19891754
2354,198971,U-Bhf. Franz-Neumann-Strasse,9,19892317
2355,198971,Hausotterstrasse,10,1989830
2356,198971,U-Bhf. Residenzstrasse,11,19892385
2358,198971,Lindauer Allee,12,19891296
2361,198971,Klemkestrasse,13,19891107
2362,198971,Flottenstrasse,14,1989565
2364,198971,Montanstrasse,15,19891445
2365,198971,U-Bhf. Paracelsus-Bad,16,19892373
2366,198971,Gemeindefriedhof,17,1989662
2368,198971,Sebastian-Friedhof,18,19892042
2369,198971,Auguste-Viktoria-Allee,19,1989149
2370,198971,Hoeferstrasse,20,1989909
2371,198971,U-Bhf. Kurt-Schumacher-Platz,21,19892350
2372,198971,Hechelstrasse,22,1989836
2374,198971,General-Barby-Strasse,23,1989665
2375,198971,Zobeltitzstrasse,24,19892643
2376,198971,Auguste-Viktoria-Allee,25,1989149
2377,198971,General-Woyna-Strasse,26,1989666
2378,198971,Antonienstrasse,27,1989121
2379,198971,Quäckerstrasse,28,19891716
2380,198971,Foxweg,29,1989580
2381,198971,Otisstrasse,30,19891581
2382,198971,Otisstrasse Ecke Wittestrasse,31,19891582
2383,198972,Wilhelmsruher Damm Märkisches Viertel,0,19892565
2384,198972,Tiefenseer Strasse,1,19892253
2385,198972,Treuenbrietzener Strasse,2,19892283
2386,198972,Gemeinde-Zentrum,3,1989661
2388,198972,Königshorster Strasse,4,19891202
2389,198972,Eichhorster Weg,5,1989487
2391,198972,Finsterwalder Strasse,6,1989559
2392,198972,S-Bhf. Wittenau (Nordbahn),7,19891927
2395,198972,Oranienburger Strasse,8,19891552
2396,198972,Techowpromenade,9,19892214
2398,198972,Alt-Wittenau,10,198954
2399,198972,Am Nordgraben Ecke Oranienburgerstrasse,11,198990
2400,198972,Jansenstrasse,12,1989999
2401,198972,Tessenowstrasse,13,19892238
2403,198972,Bonhoeffer-Nervenklinik,14,1989290
2406,198972,Lindauer Allee,15,19891298
2407,198972,Pfahlerstrasse,16,19891639
2408,198972,Auguste-Viktoria-Allee,17,1989149
2409,198972,Hoeferstrasse,18,1989909
2410,198972,U-Bhf. Kurt-Schumacher-Platz,19,19892350
2411,198972,Kaserne Napoleon,20,19891062
2412,198972,Kaserne Nordtor,21,19891063
2413,198972,Kaserne Südtor,22,19891064
2414,198972,Aristide-Briand-Brücke,23,1989127
2415,198972,Hinckeldeybrücke,24,1989896
2416,198972,Heckerdamm,25,1989838
2417,198972,U-Bhf. Jakob-Kaiser-Platz,26,19892336
2418,198972,Jakob-Kaiser-Platz,27,1989996
2419,198972,Olbersstrasse,28,19891538
2420,198972,Landgericht,29,19891222
2421,198972,Schloßbrücke,30,19891981
2422,198972,Luisenplatz/Eosanderstrasse,31,19891330
2423,198972,Luisenplatz/Schloß,32,19891332
2424,198972,Haubachstrasse/Hebbelstrasse,33,1989823
2429,198972,Bismarckstrasse,34,1989264
2433,198972,Kantstrasse,35,19891047
2434,198972,S-Bhf. Charlottenburg,36,19891857
2435,198972,Friedbergstrasse,37,1989598
2436,198972,"Charlottenburg, Amtsgericht",38,1989389
2437,198973,Spandau Waldkrankenhaus,0,19892114
2438,198973,Pflegeheim,1,19891643
2439,198973,Kolonie Waldfrieden,2,19891128
2440,198973,Bötzow-Bahn,3,1989367
2441,198973,Gliensteig,4,1989690
2442,198973,Schwanter Weg,5,19892013
2443,198973,Kisselnallee,6,19891086
2444,198973,Pionierstrasse,7,19891656
2445,198973,Falkenseer Chaussee,8,1989540
2446,198973,Zweibrücker Strasse,9,19892651
2448,198973,Hohenzollern Ring,10,1989924
2450,198973,Borchertweg,11,1989292
2451,198973,Jenneweg,12,19891002
2452,198973,Galenstrasse,13,1989639
2453,198973,Altstädter Ring,14,198965
2454,198973,U-Bhf. Rathaus Spandau,15,19892379
2455,198973,Galenstrasse,16,1989639
2456,198973,Staakener Strasse,17,19892139
2457,198973,Petzoldtweg,18,19891638
2458,198973,Zeppelinstrasse,19,19892625
2460,198973,Schulzenstrasse,20,19892008
2461,198973,Viersener Strasse,21,19892444
2462,198973,Dyrotzer Strasse,22,1989466
2463,198973,Leuthinger Weg,23,19891272
2464,198973,Übergang,24,19892667
2465,198973,Straße 393,25,19892183
2466,198973,Straße 603,26,19892184
2467,198973,Torweg/Hackbuschstrasse,27,19892273
2468,198973,Staaken Heidebergplan,28,19892137
2469,198974,"Hohenschönhausen, Zingster Strasse",0,1989918
2470,198974,Prerower Platz,1,19891692
2471,198974,Gehrenseestrasse,2,1989656
2472,198974,Hauptstrasse,3,1989826
2474,198974,Simon-Bolivar-Strasse,4,19892090
2475,198974,Ho-Chi-Minh-Strasse,5,1989904
2476,198974,S-Bhf. Leninallee,6,19891878
2477,198974,Dimitroffstrasse,7,1989444
2479,198974,Leninplatz,8,19891260
2480,198974,Hans-Beimler-Strasse,9,1989811
2481,198974,Prenzlauer Allee,10,19891684
2483,198974,Bhf. Rosa-Luxemburg-Platz,11,1989240
2484,198974,Hackescher Markt,12,1989799
2485,198974,Oranienburger Tor,13,19891554
2486,198974,Stadion der Weltjugend,14,19892143
2487,198975,"Hohenschönhausen, Zingster Strasse",0,1989918
2488,198975,Prerower Platz,1,19891692
2489,198975,Gehrenseestrasse,2,1989656
2490,198975,Hauptstrasse,3,1989826
2492,198975,Simon-Bolivar-Strasse,4,19892090
2493,198975,Ho-Chi-Minh-Strasse,5,1989904
2494,198975,S-Bhf. Leninallee,6,19891878
2495,198975,Dimitroffstrasse,7,1989444
2497,198975,Leninplatz,8,19891260
2498,198975,Hans-Beimler-Strasse,9,1989811
2499,198975,Prenzlauer Allee,10,19891684
2501,198975,Bhf. Rosa-Luxemburg-Platz,11,1989240
2502,198975,Weinmeisterstrasse,12,19892506
2504,198976,"Treptow, Karl-Kunger-Strasse",0,19892278
2505,198976,S-Bhf. Treptower Park,1,19891918
2506,198976,Sowjetisches Ehrenmal,2,19892111
2507,198976,"Treptow, Rathaus",3,19892279
2508,198977,Am Nordgraben,0,198989
2509,198977,Promenadenweg,1,19891703
2511,198977,Triftstrasse,2,19892285
2513,198977,Alt-Wittenau,3,198954
2514,198977,"Wittenau, Kirche",4,19892585
2515,198977,Oranienburger Strasse,5,19891550
2518,198977,Am Nordgraben Ecke Oranienburgerstrasse,6,198990
2519,198977,Jansenstrasse,7,1989999
2520,198977,Tessenowstrasse,8,19892238
2522,198977,Bonhoeffer-Nervenklinik,9,1989290
2525,198977,Lindauer Allee,10,19891298
2526,198977,Waldowstrasse,11,19892468
2527,198977,Klamannstrasse,12,19891093
2528,198977,S+U-Bhf. Paracelsus-Bad,13,19891844
2529,198977,Lübener Weg,14,19891343
2530,198977,Gotthardstrasse,15,1989714
2531,198977,Septimerbecken,16,19892067
2532,198977,Holländerstrasse,17,1989932
2533,198977,Septimerstrasse,18,19892068
2534,198977,Londoner Strasse,19,19891322
2535,198977,U-Bhf. Afrikanische Strasse,20,19892295
2536,198977,Afrikanische Strasse,21,19899
2537,198977,Otawistrasse,22,19891580
2538,198977,Transvaalstrasse,23,19892276
2539,198977,Seestrasse,24,19892053
2540,198977,U-Bhf. Amrumer Strasse,25,19892299
2542,198977,Tegeler Strasse,26,19892219
2543,198977,U-Bhf. Leopoldplatz,27,19892352
2544,198977,Maxstrasse,28,19891408
2545,198977,U-Bhf. Nauener Platz,29,19892361
2546,198977,Exerzierstrasse,30,1989527
2547,198977,Uferstrasse,31,19892424
2548,198977,U-Bhf. Pankstrasse,32,19892372
2549,198977,U-Bhf./S-Bhf. Gesundbrunnen,33,19892421
2550,198977,Bellermannstrasse,34,1989183
2552,198977,Ramlerstrasse,35,19891725
2554,198977,Lortzingstrasse,36,19891324
2555,198977,Demminer Strasse,37,1989429
2556,198977,Bernauer Strasse Ecke Wollinger Strasse,38,1989208
2557,198978,S-Bhf. Wannsee,0,19891920
2558,198978,Königstrasse,1,19891203
2559,198978,Kronprinzessinenweg,2,19891166
2560,198978,Am Großen Wannsee,3,198981
2561,198978,Am Kleinen Wannsee,4,198987
2562,198978,Endestrasse,5,1989515
2563,198978,Wernerstrasse,6,19892525
2564,198978,Pfaueninselchaussee,7,19891641
2565,198978,Rübezahlweg,8,19891841
2566,198978,Pfaueninsel,9,19891640
2567,198979,"Lichterfelde, Lindenstrasse",0,19891283
2568,198979,Wismarer Strasse,1,19892583
2569,198979,Prettauer Pfad,2,19891693
2570,198979,Goerzallee,3,1989699
2571,198979,Thuner Platz,4,19892249
2572,198979,Osteweg,5,19891570
2573,198979,Züricher Strasse,6,19892657
2574,198979,Rittberg-Krankenhaus,7,19891791
2575,198979,Finckensteinallee,8,1989556
2576,198979,Geibelstrasse,9,1989659
2578,198979,Baseler Strasse,10,1989171
2579,198979,Drakestrasse/Ringstrasse,11,1989460
2580,198979,S-Bhf. Lichterfelde-West,12,19891880
2581,198979,Tietzenweg,13,19892260
2583,198979,S-Bhf. Botanischer Garten,14,19891853
2584,198979,Lipaer Strasse,15,19891311
2585,198979,Händelplatz,16,1989954
2587,198979,Birkbuschstrasse,17,1989254
2589,198979,Schloßstrasse,18,19891985
2590,198979,U-Bhf. Rathaus Steglitz,19,19892380
2591,198979,Breite Strasse,20,1989307
2594,198979,Albrechtstrasse,21,198921
2595,198979,Südendstrasse,22,19892207
2596,198979,Bergstrasse,23,1989193
2600,198979,Bismarckstrasse,24,1989262
2605,198979,Altmarkstrasse,25,198962
2607,198979,Insulaner/Sternwarte,26,1989986
2608,198979,S-Bhf. Priesterweg,27,19891901
2610,198979,Röblingstrasse,28,19891837
2611,198979,Domnauer Strasse,29,1989454
2612,198979,Alboinstrasse,30,198918
2614,198979,Attilaplatz/Arnulfstrasse,31,1989142
2615,198979,Friedrich-Karl-Strasse,32,1989612
2616,198979,Friedrich-Wilhelm-Strasse,33,1989616
2618,198979,Albrechtstrasse,34,198921
2619,198979,U-Bhf. Kaiserin-Augusta-Strasse,35,19892340
2620,198979,Rathaus Tempelhof,36,19891736
2621,198979,U-Bhf. Alt-Tempelhof,37,19892297
2622,198979,Ringbahnstrasse,38,19891786
2624,198979,U-Bhf. Tempelhof,39,19892404
2625,198980,Kaulsdorfer Strasse,0,19891072
2626,198980,S-Bhf. Köpenick,1,19891874
2627,198980,Seelenbinderstrasse,2,19892048
2628,198980,Kabelwerk,3,19891030
2630,198980,Wendenschloßstrasse Ecke Salvador-Allende-Strasse,4,19892517
2631,198980,Anemonenstrasse,5,1989118
2632,198980,Müggelschlößchenweg,6,19891467
2633,198981,S-Bhf. Grunewald,0,19891864
2634,198981,Alte Alllee,1,198956
2635,198981,Kiefernweg,2,19891077
2636,198981,Maikäferpfad,3,19891363
2637,198981,Waldschulallee,4,19892471
2638,198981,Deutschlandhalle,5,1989437
2639,198981,Ausstellungshallen,6,1989151
2640,198981,Congress-Centrum,7,1989405
2641,198981,Trabener Strasse,8,19892274
2642,198981,Rathenauplatz,9,19891743
2643,198981,Henriettenplatz,10,1989868
2645,198981,Joachim-Friedrich-Strasse,11,19891004
2647,198981,Lehniner Platz,12,19891239
2648,198981,U-Bhf. Adenauerplatz,13,19892294
2649,198981,Olivaer Platz,14,19891540
2650,198981,Sächsische Strasse,15,19892205
2652,198981,Uhlandstrasse,16,19892427
2653,198981,Rankestrasse,17,19891727
2654,198981,U-Bhf. Kurfürstendamm,18,19892348
2655,198981,Joachimstaler Strasse,19,19891006
2656,198981,U-Bhf./S-Bhf. Zoologischer Garten,20,19892422
2657,198981,Europa-Center,21,1989526
2658,198981,Bayreuther Strasse,22,1989177
2659,198981,Landgrafenstrasse,23,19891223
2660,198981,Schillstrasse,24,19891969
2661,198981,Lützowplatz,25,19891347
2662,198981,Tiergartenstrasse,26,19892256
2663,198981,Großer Stern,27,1989761
2664,198981,Schloß Bellevue,28,19891978
2665,198981,Kongreßhalle,29,19891132
2666,198981,Scheidemannstrasse,30,19891963
2667,198981,Platz der Republik,31,19891663
2668,198981,Reichstag/Südeingang,32,19891763
2669,198981,Reichstag,33,19891762
2670,198982,"U-Bhf. Pankow, Vinetastrasse",0,19892371
2671,198982,S-Bhf. Pankow,1,19891894
2672,198982,"Pankow, Kirche",2,19891601
2673,198982,Bürgerpark,3,1989372
2674,198982,Kurt-Fischer-Platz,4,19891187
2675,198982,Nordend,5,19891518
2676,198982,Nordend-Arena,6,19891520
2677,198982,Blankenfelde,7,1989274
2678,198982,Bhf. Schildow,8,1989241
2679,198982,Glienicker Strasse,9,1989688
2680,198982,Johannes-Diekmann-Strasse,10,19891009
2681,198982,Glienicke,11,1989684
2682,198983,U-Bhf. Alt-Mariendorf,0,19892296
2683,198983,Körtingstrasse,1,19891212
2684,198983,Rennbahn Mariendorf,2,19891770
2685,198983,Pilatusweg,3,19891653
2686,198983,Titlisweg,4,19892267
2687,198983,Säntisstrasse,5,19892206
2688,198983,Richard-Tauber-Damm,6,19891780
2690,198983,Culemeyerstrasse,7,1989410
2691,198983,Schwechtenstrasse,8,19892016
2692,198983,Buckower Chaussee,9,1989350
2693,198983,S-Bhf. Buckower Chaussee,10,19891856
2694,198983,Motzener Strasse,11,19891452
2695,198983,Nunsdorfer Ring/Nord,12,19891524
2696,198983,Nunsdorfer Ring/Süd,13,19891525
2697,198983,Sperenberger Strasse,14,19892125
2698,198983,Schichauweg,15,19891964
2699,198983,Blohmstrasse,16,1989282
2700,198983,Illigstrasse,17,1989963
2702,198983,Cecilienstrasse,18,1989381
2705,198983,Wünsdorfer Strasse,19,19892604
2706,198983,"Lichtenrade, Blohmstrasse Ecke Wünsdorfer Strasse",20,19891277
2707,198984,S-Bhf. Wollankstrasse,0,19891928
2708,198984,Elisabeth-Friedhof,1,1989500
2710,198984,Soldiner Strasse,2,19892096
2712,198984,Osloer Strasse,3,19891565
2713,198984,U-Bhf. Pankstrasse,4,19892372
2714,198984,Pankstrasse/Badstrasse,5,19891610
2715,198984,Brunnenplatz,6,1989332
2716,198984,Wiesenstrasse,7,19892543
2717,198984,Nettelbeckplatz,8,19891490
2718,198984,U-Bhf. Reinickendorfer Strasse,9,19892384
2719,198984,Tegeler Strasse,10,19892218
2721,198984,Quitzowstrasse,11,19891715
2722,198984,Stephanstrasse,12,19892164
2725,198984,Rathenower Strasse,13,19891747
2727,198984,Birkenstrasse,14,1989256
2728,198984,Turmstrasse,15,19892288
2730,198984,Wilsnacker Strasse,16,19892574
2731,198984,Krankenhaus Moabit,17,19891154
2732,198984,U-Bhf. Turmstrasse,18,19892408
2733,198984,Rathaus Tiergarten,19,19891737
2734,198984,Oldenburger Strasse,20,19891539
2735,198984,Beusselstrasse,21,1989226
2738,198984,Berlichingenstrasse,22,1989199
2740,198984,Wiebestrasse,23,19892540
2741,198984,Neues Ufer,24,19891498
2743,198984,Sickingenplatz,25,19892071
2744,198984,Moabit Wiebestrasse,26,19891436
2745,198985,"Hohenschönhausen, Zingster Strasse",0,1989918
2746,198985,Prerower Platz,1,19891692
2747,198985,Gehrenseestrasse,2,1989656
2748,198985,Hauptstrasse,3,1989826
2750,198985,Am Faulen See,4,198975
2751,198985,Stadion Buschallee,5,19892140
2752,198985,Sulzfelder Strasse,6,19892199
2753,198985,Indira-Gandhi-Strasse Ecke Klement-Gottwald-Strasse,7,1989981
2754,198985,Antonplatz,8,1989122
2755,198985,Ostseestrasse Ecke Promenade,9,19891579
2756,198985,S-Bhf. Prenzlauer Allee,10,19891900
2757,198985,Dimitroffstrasse,11,1989444
2759,198985,Wilhelm-Pieck-Strasse,12,19892553
2760,198985,U-Bhf. Rosa-Luxemburg-Platz,13,19892390
2761,198985,Hackescher Markt,14,1989799
2762,198985,Oranienburger Tor,15,19891554
2763,198985,Bhf. Friedrichstrasse,16,1989234
2764,198985,Am Kupfergraben,17,198988
2765,198986,"Wedding, Gartenplatz",0,19892497
2766,198986,Usedomer Strasse/Feldstrasse,1,19892435
2767,198986,Bernauer Strasse,2,1989207
2768,198986,Brunnenstrasse,3,1989333
2769,198986,U-Bhf. Voltastrasse,4,19892411
2770,198986,Lortzingstrasse,5,19891323
2772,198986,Rügener Strasse,6,19891843
2773,198986,Ramlerstrasse,7,19891724
2775,198986,U-Bhf./S-Bhf. Gesundbrunnen,8,19892421
2776,198986,Hochstrasse,9,1989908
2777,198986,S-Bhf. Humboldthain,10,19891870
2778,198986,Gerichtstrasse,11,1989671
2779,198986,Schulzendorfer Strasse,12,19892003
2784,198986,Chausseestrasse,13,1989395
2785,198986,U-Bhf. Reinickendorfer Strasse,14,19892384
2786,198986,Müllerstrasse,15,19891478
2787,198986,Tegeler Strasse,16,19892218
2789,198986,Quitzowstrasse,17,19891715
2793,198986,Rathenower Strasse,18,19891748
2794,198986,Putlitzstrasse,19,19891705
2795,198986,Wilhemshavener Strasse,20,19892569
2796,198986,Emdener Strasse,21,1989509
2798,198986,Beusselstrasse,22,1989227
2800,198986,Berlichingenstrasse,23,1989199
2802,198986,Wiebestrasse,24,19892540
2804,198986,Neues Ufer,25,19891499
2805,198986,Lise-Meitner-Strasse,26,19891315
2807,198986,U-Bhf. Jungfernheide,27,19892338
2808,198986,Tegeler Weg,28,19892220
2809,198986,Krankenhaus Jungfernheide,29,19891152
2810,198986,Max-Dohrn-Strasse,30,19891403
2811,198986,U-Bhf. Jungfernheide,31,19892338
2812,198987,"Heinersdorf, Romain-Rolland-Strasse",0,1989856
2813,198987,"Heinersdorf, Kirche",1,1989855
2814,198987,Am Steinberg,2,1989100
2815,198987,Prenzlauer Promenade,3,19891690
2816,198987,S-Bhf. Prenzlauer Allee,4,19891900
2818,198987,Dimitroffstrasse,5,1989445
2819,198987,Knaackstrasse,6,19891119
2820,198987,Wilhelm-Pieck-Strasse,7,19892553
2821,198987,U-Bhf. Rosa-Luxemburg-Platz,8,19892390
2822,198987,Weinmeisterstrasse,9,19892506
2823,198987,Hackescher Markt,10,1989799
2824,198987,Oranienburger Tor,11,19891554
2825,198987,Bhf. Friedrichstrasse,12,1989234
2826,198987,Am Kupfergraben,13,198988
2827,198988,Klemkestrasse / Büchsenweg,0,19891108
2829,198988,Emmentaler Strasse,1,1989512
2830,198988,Reginhardstrasse,2,19891754
2831,198988,Raschdorffstrasse,3,19891728
2832,198988,Mittelbruchzeile,4,19891434
2833,198988,Pankower Allee,5,19891606
2835,198988,Mickestrasse,6,19891425
2836,198988,Residenzstrasse,7,19891772
2837,198988,U-Bhf. Osloer Strasse,8,19892367
2838,198988,Louise-Schroeder-Platz,9,19891325
2839,198988,Iranische Strasse,10,1989992
2840,198988,U-Bhf. Nauener Platz,11,19892361
2841,198988,Wiesenstrasse/Schererstrasse,12,19892544
2842,198988,Nettelbeckplatz,13,19891490
2843,198988,U-Bhf. Reinickendorfer Strasse,14,19892384
2844,198988,Tegeler Strasse,15,19892218
2846,198988,Quitzowstrasse,16,19891715
2847,198988,Stephanstrasse,17,19892164
2850,198988,Rathenower Strasse,18,19891747
2852,198988,Birkenstrasse,19,1989256
2853,198988,Stromstrasse,20,19892191
2854,198988,U-Bhf. Turmstrasse,21,19892408
2855,198988,Rathaus Tiergarten,22,19891737
2856,198988,Oldenburger Strasse,23,19891539
2857,198988,Beusselstrasse,24,1989226
2859,198988,Berlichingenstrasse,25,1989198
2861,198988,Wiebestrasse,26,19892539
2863,198988,Kaiserin-Augusta-Allee,27,19891038
2864,198988,Ilsenburger Strasse,28,1989967
2865,198988,U-Bhf. Mierendorffplatz,29,19892357
2866,198988,U-Bhf. Jungfernheide,30,19892338
2867,198988,Tegeler Weg,31,19892220
2868,198988,Jakob-Kaiser-Platz,32,1989996
2869,198988,Siemensdamm,33,19892084
2870,198988,Letterhausweg,34,19891270
2871,198988,U-Bhf. Siemensdamm,35,19892399
2872,198988,Grammestrasse/Quellweg,36,1989725
2873,198988,U-Bhf. Rohrdamm,37,19892388
2875,198988,Gartenfelder Strasse,38,1989645
2877,198988,Kabelwerk,39,19891031
2878,198988,Gartenfeld,40,1989643
2879,198989,"Weißensee, Pasedagplatz",0,19892510
2880,198989,Indira-Gandhi-Strasse,1,1989979
2881,198989,Antonplatz,2,1989122
2882,198989,Prenzlauer Promenade,3,19891690
2883,198989,S-Bhf. Prenzlauer Allee,4,19891900
2885,198989,Dimitroffstrasse,5,1989445
2886,198989,Knaackstrasse,6,19891119
2887,198989,Wilhelm-Pieck-Strasse,7,19892553
2888,198989,Hans-Beimler-Strasse,8,1989811
2889,198989,Leninplatz,9,19891260
2890,198989,Leninallee/Dimitroffstrasse,10,19891257
2891,198989,S-Bhf. Leninallee,11,19891878
2892,198989,Ho-Chi-Minh-Strasse,12,1989904
2893,198989,Simon-Bolivar-Strasse,13,19892090
2894,198989,Hauptstrasse,14,1989826
2896,198989,Gehrenseestrasse,15,1989656
2897,198989,Prerower Platz,16,19891692
2898,198989,"Hohenschönhausen, Zingster Strasse",17,1989918
2899,198990,Hertzallee,0,1989880
2900,198990,U-Bhf./S-Bhf. Zoologischer Garten,1,19892422
2901,198990,U-Bhf. Kurfürstendamm,2,19892348
2902,198990,Gedächtnis-Kirche,3,1989652
2903,198990,Europa-Center,4,1989526
2904,198990,U-Bhf. Wittenbergplatz,5,19892417
2905,198990,An der Urania,6,1989116
2906,198990,Motzstrasse,7,19891453
2907,198990,Hohenstaufenstrasse,8,1989922
2908,198990,Barbarossastrasse,9,1989167
2909,198990,Grunewaldstrasse,10,1989766
2910,198990,John-F.-Kennedy-Platz,11,19891016
2911,198990,Hauptstrasse,12,1989825
2912,198990,S-Bhf. Schöneberg,13,19891908
2913,198990,Sportzentrum Schöneberg,14,19892130
2914,198990,Gotenstrasse,15,1989713
2915,198990,S-Bhf. Papestrasse,16,19891898
2917,198990,Alboinstrasse,17,198919
2918,198990,Berlinickeplatz,18,1989205
2919,198990,U-Bhf. Alt-Tempelhof,19,19892297
2921,198990,Ringbahnstrasse,20,19891787
2922,198990,Oberlandstrasse,21,19891529
2923,198990,Teilestrasse/Komturstrasse,22,19892224
2924,198990,Teilestrasse,23,19892223
2925,198990,Gottlieb-Dunkel-Strasse,24,1989715
2926,198990,Karl-Elsasser-Strasse,25,19891050
2927,198990,Wilhelm-Borgmann-Brücke,26,19892552
2928,198990,Gradestrasse,27,1989719
2930,198990,Betriebshof Britz,28,1989218
2933,198990,Britzer Damm,29,1989326
2934,198990,Krankenhaus Britz,30,19891148
2935,198990,U-Bhf. Blaschkoallee,31,19892301
2936,198990,Buschkrug,32,1989362
2937,198990,Späthstrasse,33,19892135
2938,198990,Haarlemer Strasse,34,1989793
2940,198990,"Britz, Buschkrug",35,1989320
2941,198991,Charlottenburg Pulsstrasse,0,1989388
2942,198991,Mollwitzstrasse,1,19891443
2943,198991,Heubnerweg,2,1989888
2944,198991,Pulsstrasse,3,19891704
2945,198991,Mollwitzstrasse,4,19891443
2946,198991,Sophie-Charlotten-Strasse,5,19892110
2948,198991,Klausenerplatz,6,19891096
2949,198991,Schloßstrasse/Schloß,7,19891987
2951,198991,Seelingstrasse,8,19892051
2952,198991,Zillestrasse,9,19892633
2953,198991,U-Bhf. Sophie-Charlotte-Platz,10,19892400
2954,198991,Amtsgericht Charlottenburg,11,1989109
2955,198991,Kaiser-Friedrich-Strasse,12,19891033
2956,198991,S-Bhf. Charlottenburg,13,19891857
2957,198991,Windscheidstrasse,14,19892578
2958,198991,Holtzendorffplatz,15,1989938
2959,198991,Kurfürstendamm,16,19891179
2961,198991,Westfälische Strasse,17,19892533
2962,198991,Paulsborner Strasse,18,19891628
2963,198991,Hohenzollern Damm,19,1989923
2966,198991,Berliner Strasse,20,1989202
2968,198991,U-Bhf. Fehrbelliner Strasse,21,19892314
2969,198991,U-Bhf. Blisse Strasse,22,19892302
2970,198991,Am Volkspark,23,1989102
2971,198991,Hildegardstrasse,24,1989895
2972,198991,Weimarische Strasse,25,19892503
2973,198991,Bundesallee,26,1989357
2974,198991,Waghäuseler Strasse,27,19892454
2975,198991,U-Bhf. Berliner Strasse,28,19892300
2976,198991,Kufsteiner Strasse,29,19891176
2977,198991,John-F.-Kennedy-Platz,30,19891016
2978,198991,Hauptstrasse,31,1989825
2979,198991,S-Bhf. Schöneberg,32,19891908
2980,198991,Sportzentrum Schöneberg,33,19892130
2981,198991,Gotenstrasse,34,1989713
2982,198991,S-Bhf. Papestrasse,35,19891898
2984,198991,Alboinstrasse,36,198919
2985,198991,Bessemerstrasse,37,1989215
2986,198991,Eythstrasse/Friedhof,38,1989528
2987,198991,Lindenhof,39,19891303
2989,198992,S-Bhf. Lichtenrade,0,19891879
2990,198992,Rehagener Strasse,1,19891756
2991,198992,Lichtenrader Damm,2,19891279
2992,198992,Kirchhainer Damm,3,19891082
2993,198992,Horstwalder Strasse,4,1989942
2994,198992,Seniorenheim,5,19892064
2995,198992,Birkenhaag,6,1989255
2996,198992,Kirchhainer Damm,7,19891082
2997,198993,U-Bhf. Walther-Schreiber-Platz,0,19892413
2998,198993,S-Bhf. Feuerbachstrasse,1,19891859
3000,198993,Bismarckstrasse,2,1989261
3007,198993,Altmarkstrasse,3,198963
3008,198993,Göttinger Strasse,4,1989788
3009,198993,Insulaner/Sternwarte,5,1989986
3010,198993,S-Bhf. Priesterweg,6,19891901
3012,198993,Röblingstrasse,7,19891837
3013,198993,Röblingstrasse/Friedhöfe,8,19891838
3014,198993,Attilastrasse,9,1989143
3017,198993,Kurfürstenstrasse,10,19891183
3019,198993,Kaiserstrasse,11,19891040
3020,198993,Ringstrasse/Prühßstrasse,12,19891790
3021,198993,Rathausstrasse,13,19891742
3023,198993,Friedenstrasse,14,1989603
3024,198993,U-Bhf. Alt-Mariendorf,15,19892296
3025,198993,Körtingstrasse,16,19891212
3026,198993,Rennbahn Mariendorf,17,19891770
3027,198993,Pilatusweg,18,19891653
3028,198993,Titlisweg,19,19892267
3029,198993,Glärnischweg,20,1989694
3030,198993,Säntisstrasse,21,19892206
3031,198993,Göllweg/Ankogelweg,22,1989785
3033,198993,Kettinger Strasse,23,19891076
3034,198993,Buckower Chaussee,24,1989350
3035,198993,Raabestrasse,25,19891718
3036,198993,Goethestrasse,26,1989702
3038,198993,Grimmstrasse,27,1989747
3040,198993,Barnetstrasse,28,1989169
3041,198993,Lichtenrader Damm 254,29,19891280
3042,198993,Goltzstrasse,30,1989706
3043,198993,Rehagener Strasse,31,19891756
3044,198993,S-Bhf. Lichtenrade,32,19891879
3045,198993,Wünsdorfer Strasse,33,19892604
3046,198993,Blohmstrasse,34,1989282
3047,198993,"Lichtenrade, Blohmstrasse",35,19891276
3048,198994,Neukölln Britzer Allee,0,19891503
3049,198994,Schmalenbachstrasse,1,19891991
3050,198994,Bergiusstrasse,2,1989189
3051,198994,Haberstrasse,3,1989796
3052,198994,Bergiusstrasse 28,4,1989190
3053,198994,Grenzallee,5,1989741
3055,198994,Neuköllnische Allee,6,19891506
3056,198994,Niemetzstrasse,7,19891510
3057,198994,Mierstrasse,8,19891427
3058,198994,Naumburger Strasse,9,19891488
3059,198994,U-Bhf. Neukölln,10,19892363
3060,198994,Bendastrasse,11,1989185
3061,198994,Hermannstrasse,12,1989872
3062,198994,Haus Bremen,13,1989829
3063,198994,Städtische Frauenklinik,14,19892196
3066,198994,Tempelhofer Weg,15,19892234
3067,198994,Saalburgstrasse,16,19891932
3068,198994,Industriestrasse,17,1989983
3069,198994,Friedhof Tempelhof,18,1989610
3070,198994,Friedhof Mariendorf,19,1989607
3071,198994,Eisenacher Strasse,20,1989492
3074,198994,Imbrosweg,21,1989977
3075,198994,Britzer Strasse,22,1989327
3076,198994,Am Heidefriedhof,23,198983
3077,198994,U-Bhf. Alt-Mariendorf,24,19892296
3078,198994,Großbeerenstrasse,25,1989756
3082,198994,Körtingstrasse,26,19891212
3083,198994,Wilhelm-von-Siemens-Strasse,27,19892554
3084,198994,Daimlerstrasse,28,1989420
3085,198994,Fritz-Werner-Strasse,29,1989627
3086,198994,Marienfelde Daimlerstrasse,30,19891381
3087,198995,U-Bhf. Alt-Mariendorf,0,19892296
3088,198995,Körtingstrasse,1,19891212
3089,198995,Rennbahn Mariendorf,2,19891770
3090,198995,Pilatusweg,3,19891653
3091,198995,Titlisweg,4,19892267
3092,198995,Säntisstrasse,5,19892206
3093,198995,Göllweg/Ankogelweg,6,1989785
3095,198995,Kettinger Strasse,7,19891076
3096,198995,Buckower Chaussee,8,1989350
3097,198995,Raabestrasse,9,19891718
3098,198995,Goethestrasse,10,1989702
3100,198995,Grimmstrasse,11,1989747
3102,198995,Groß-Ziethener-Strasse,12,1989755
3103,198995,Alt-Lichtenrade,13,198938
3105,198995,Taunusstrasse,14,19892212
3107,198995,Nahariyastrasse,15,19891479
3108,198995,Skarbinastrasse,16,19892093
3109,198995,Nahariyastrasse,17,19891479
3110,198996,Marienfelde Waldsassener Strasse,0,19891382
3111,198996,Tirschenreuther Ring,1,19892264
3113,198996,Lichterfelder Ring,2,19891289
3117,198996,Hildburghauser Strasse,3,1989893
3119,198996,Tirschenreuther Ring,4,19892264
3120,198996,Friedenfelser Strasse,5,1989601
3121,198996,Alt-Marienfelde,6,198943
3122,198996,An der Heilandsweide,7,1989113
3123,198996,Stegerwaldstrasse,8,19892157
3124,198996,Hranitzkystrasse,9,1989944
3125,198996,S-Bhf. Marienfelde,10,19891884
3126,198996,Großbeerenstrasse,11,1989756
3130,198996,Wilhelm-von-Siemens-Strasse,12,19892554
3131,198996,Körtingstrasse,13,19891212
3133,198996,Friedenstrasse,14,1989603
3134,198996,U-Bhf. Alt-Mariendorf,15,19892296
3135,198996,Körtingstrasse,16,19891212
3136,198996,Rennbahn Mariendorf,17,19891770
3137,198996,Pilatusweg,18,19891653
3138,198996,Titlisweg,19,19892267
3139,198996,Säntisstrasse,20,19892206
3140,198996,Watzmannweg,21,19892495
3141,198996,Quarzweg,22,19891711
3142,198996,Grünsteinweg,23,1989772
3143,198996,Tropfsteinweg,24,19892287
3144,198996,Asbestweg,25,1989137
3145,198996,Marienfelder Chaussee,26,19891388
3146,198996,Am Rötepfuhl,27,198997
3147,198996,Töpchiner Weg,28,19892292
3148,198996,Baldesheimer Weg,29,1989165
3149,198996,Rathenower Strasse,30,19891745
3153,198996,Soldiner Strasse,31,19892095
3156,198996,Potsdamer Strasse,32,19891677
3160,198996,Kloster-Zinna-Strasse,33,19891114
3162,198996,Alt-Lichtenrade,34,198939
3163,198996,Grimmstrasse,35,1989747
3165,198996,Barnetstrasse,36,1989169
3166,198996,Steinstrasse,37,19892162
3167,198996,Rhinstrasse,38,19891774
3169,198996,John-Locke-Strasse,39,19891017
3170,198996,Bahnhofstrasse,40,1989161
3171,198996,S-Bhf. Lichtenrade,41,19891879
3172,198997,S-Bhf. Wilhelmsruh,0,19891925
3173,198997,Flottenstrasse,1,1989565
3175,198997,Alt-Reinickendorf,2,198950
3176,198997,Lindauer Allee,3,19891296
3180,198997,U-Bhf. Residenzstrasse,4,19892386
3181,198997,Genfer Strasse,5,1989668
3183,198997,Aroser Allee,6,1989133
3184,198997,Teichstrasse,7,19892222
3185,198997,Septimerbecken,8,19892067
3186,198997,Holländerstrasse,9,1989932
3187,198997,Scharnweberstrasse,10,19891958
3188,198997,U-Bhf. Kurt-Schumacher-Platz,11,19892350
3189,198997,Kaserne Südtor,12,19891064
3190,198997,Verw.-Geb./Luftfracht,13,19892442
3191,198997,Flughafen/Haupthalle,14,1989572
3192,198997,Flughafen Tegel,15,1989571
3193,198998,U-Bhf. Rathaus Spandau,0,19892379
3194,198998,Brunsbütteler Damm,1,1989340
3195,198998,Elsflether Weg,2,1989505
3196,198998,Grünhofer Weg,3,1989771
3197,198998,Nauener Strasse,4,19891486
3199,198998,Päwesiner Weg,5,19891708
3200,198998,Egelpfuhlstrasse,6,1989474
3201,198998,Harburger Weg,7,1989815
3203,198998,Magistratsweg,8,19891358
3204,198998,Louise-Schroeder-Siedlung,9,19891326
3205,198998,Zweiwinkelweg,10,19892653
3206,198998,Staaken Brunsbütteler Damm/Nennhauser Damm,11,19892136
3207,198999,Betriebshof Marzahn,0,1989221
3208,198999,Otto-Buchwitz-Strasse,1,19891583
3209,198999,Alt-Marzahn,2,198944
3211,198999,Elisabethstrasse,3,1989502
3212,198999,S-Bhf. Springpfuhl,4,19891912
3214,198999,Rhinstrasse,5,19891775
3216,198999,Leninallee,6,19891248
3219,198999,Gärtnerstrasse,7,1989782
3220,198999,Gehrenseestrasse,8,1989654
3221,198999,Prerower Platz,9,19891691
3222,198999,S-Bhf. Hohenschönhausen,10,19891868
3223,198999,Falkenberg,11,1989532
3224,1989100,U-Bhf. Friedrich-Wilhelm-Platz,0,19892318
3225,1989100,Friedrich-Wilhelm-Platz,1,1989614
3228,1989100,Stubenrauchstrasse,2,19892194
3230,1989100,U-Bhf. Walther-Schreiber-Platz,3,19892413
3231,1989100,S-Bhf. Feuerbachstrasse,4,19891859
3235,1989100,Bismarckstrasse,5,1989263
3239,1989100,Lauenburger Platz,6,19891235
3240,1989100,Bergstrasse,7,1989193
3242,1989100,Selerweg,8,19892059
3244,1989100,Steglitzer Damm,9,19892160
3245,1989100,Halskestrasse/Steglitzer Damm,10,1989807
3246,1989100,Siemenstrasse/Halskestrasse,11,19892089
3247,1989100,Leonorenstrasse/Siemensstrasse,12,19891263
3248,1989100,Stadtbad Lankwitz,13,19892144
3249,1989100,Rathaus Lankwitz,14,19891729
3250,1989100,"Lankwitz, Kirche",15,19891229
3251,1989100,Bruchwitzstrasse,16,1989331
3252,1989100,Alt-Lankwitz,17,198937
3254,1989100,Mühlenstrasse,18,19891473
3255,1989100,"Wedellstr, Dorfaue",19,19892498
3256,1989100,Halbauer Weg,20,1989803
3257,1989100,Kamenzer Damm,21,19891042
3258,1989100,Haynauer Strasse,22,1989835
3259,1989100,Greinerstrasse/Dederingstrasse,23,1989739
3260,1989100,Porschestrasse,24,19891672
3262,1989100,Großbeerenstrasse,25,1989757
3265,1989100,U-Bhf. Alt-Mariendorf,26,19892296
3266,1989100,Am Heidefriedhof,27,198983
3267,1989100,Rixdorfer Strasse,28,19891794
3269,1989100,Imbrosweg,29,1989977
3270,1989100,Dardanellenweg,30,1989423
3271,1989100,Eisenacher Strasse,31,1989492
3274,1989100,Friedhof Mariendorf,32,1989607
3275,1989100,Ullsteinstrasse,33,19892429
3276,1989100,Gradestrasse 91,34,1989722
3277,1989100,Gradestrasse 45,35,1989721
3279,1989100,Tempelhofer Weg,36,19892233
3281,1989100,Betriebshof Britz,37,1989218
3284,1989100,Britzer Damm,38,1989326
3285,1989100,Krankenhaus Britz,39,19891148
3286,1989100,U-Bhf. Blaschkoallee,40,19892301
3287,1989100,Buschkrug,41,1989362
3288,1989100,Späthstrasse,42,19892135
3289,1989100,Haarlemer Strasse,43,1989793
3291,1989100,"Britz, Buschkrug",44,1989320
3292,1989101,S-Bhf. Lichtenrade,0,19891879
3293,1989101,Hilbertstrasse,1,1989889
3294,1989101,Mozartstrasse,2,19891454
3295,1989101,Galluner Strasse,3,1989642
3296,1989101,Paplitzer Strasse,4,19891614
3297,1989101,Kirchhainer Damm,5,19891082
3298,1989101,Augsburger Strasse,6,1989147
3299,1989101,Pechsteinstrasse,7,19891631
3300,1989101,Würzburger Strasse,8,19892606
3301,1989101,Tietjenstrasse,9,19892259
3302,1989101,Nahariyastrasse,10,19891479
3303,1989101,Skarbinastrasse,11,19892093
3304,1989101,Groß-Ziethener Strasse,12,1989753
3305,1989101,Taunusstrasse,13,19892212
3307,1989101,Alt-Lichtenrade,14,198938
3309,1989101,Bornhagenweg,15,1989294
3310,1989101,Goltzstrasse,16,1989706
3311,1989101,Rehagener Strasse,17,19891756
3312,1989101,S-Bhf. Lichtenrade,18,19891879
3313,1989101,Blohmstrasse,19,1989282
3314,1989101,Maffeistrasse,20,19891354
3315,1989101,Grenzweg,21,1989744
3316,1989101,Miethepfad,22,19891428
3318,1989101,Illigstrasse,23,1989964
3319,1989101,Illigstrasse/Grenzweg,24,1989965
3320,1989101,Illigstrasse/Maffeistrasse,25,1989966
3321,1989101,Blohmstrasse,26,1989282
3322,1989101,Cecilienstrasse,27,1989381
3325,1989101,Prinz-Heinrich-Strasse,28,19891698
3326,1989101,S-Bhf. Lichtenrade,29,19891879
3327,1989102,Mahlsdorf-Süd,0,19891360
3328,1989102,Wongrowitzer Steig,1,19892597
3329,1989102,S-Bhf. Köpenick,2,19891875
3330,1989102,Seelenbinderstrasse,3,19892049
3331,1989102,Bahnhof-/Lindenstrasse,4,1989160
3332,1989102,Pionierpark,5,19891655
3333,1989102,Rathenaustrasse,6,19891744
3334,1989102,Edisonstrasse,7,1989473
3335,1989102,Ehrlichstrasse,8,1989478
3336,1989102,Liepnitzstrasse,9,19891293
3337,1989102,Hönower Wiesenweg,10,1989958
3338,1989102,Heizkraftwerk,11,1989861
3339,1989102,Saganer Strasse,12,19891940
3340,1989102,S-Bhf. Rummelsburg,13,19891905
3341,1989102,S-Bhf. Ostkreuz,14,19891892
3342,1989103,Krematorium Wedding,0,19891162
3343,1989103,Müllerstrasse,1,19891478
3344,1989103,U-Bhf. Wedding,2,19892414
3345,1989103,U-Bhf. Reinickendorfer Strasse,3,19892384
3346,1989103,Tegeler Strasse,4,19892218
3348,1989103,Heidestrasse/Güterbahnhof,5,1989850
3349,1989103,Döberitzer Strasse,6,1989467
3350,1989103,S-Bhf. Lehrter Stadtbahnhof,7,19891876
3351,1989103,Washingtonplatz,8,19892489
3352,1989103,Platz der Republik,9,19891663
3353,1989103,Philharmonie,10,19891646
3354,1989103,Kulturforum,11,19891177
3355,1989103,Potsdamer Brücke,12,19891675
3356,1989103,Lützowstrasse,13,19891348
3357,1989103,U-Bhf. Kurfürstenstrasse,14,19892349
3358,1989103,Bülowstrasse,15,1989371
3359,1989103,Pallasstrasse,16,19891598
3360,1989103,Kleistpark,17,19891100
3361,1989103,U-Bhf. Kleistpark,18,19892342
3362,1989103,Kaiser-Wilhem-Platz,19,19891035
3364,1989103,Eisenacher Strasse,20,1989493
3366,1989103,Dominicusstrasse,21,1989452
3367,1989103,U-Bhf. Innsbrucker Platz,22,19892335
3368,1989104,S-Bhf. Mahlsdorf,0,19891882
3369,1989104,Alt-Mahlsdorf,1,198941
3370,1989104,Rahnsdorfer Strasse,2,19891722
3371,1989104,Ledebourstrasse,3,19891237
3372,1989104,Bürgerwäldchen,4,1989374
3373,1989104,Bütower Strasse,5,1989375
3374,1989104,Roseggerstrasse,6,19891809
3375,1989104,Mahlsdorf-Süd,7,19891360
3376,1989104,Wongrowitzer Steig,8,19892597
3377,1989104,S-Bhf. Köpenick,9,19891875
3378,1989104,Seelenbinderstrasse,10,19892049
3379,1989104,Bahnhofstrasse/Lindenstrasse,11,1989164
3380,1989104,Schloßplatz,12,19891983
3381,1989104,Wendenschloßstrasse,13,19892515
3382,1989104,Betriebshof Köpenick,14,1989219
3383,1989104,VEB Yachtwerft,15,19892440
3384,1989104,Müggelbergallee,16,19891464
3385,1989104,Wendenschloß,17,19892513
3386,1989105,U-Bhf. Platz der Luftbrücke,0,19892376
3388,1989105,Tempelhofer Damm,1,19892231
3389,1989105,Bayernring,2,1989176
3390,1989105,Schreiberring,3,19891999
3391,1989105,Adolf-Scheidt-Platz,4,19898
3392,1989105,Rumeyplan,5,19891830
3393,1989105,Hoeppnerstrasse,6,1989910
3395,1989105,Berlinickeplatz,7,1989205
3397,1989105,Albrechtstrasse,8,198921
3398,1989105,Friedrich-Wilhelm-Strasse,9,1989616
3399,1989105,Attilaplatz,10,1989141
3400,1989105,Atillastrasse,11,1989140
3401,1989105,Paul-Schmidt-Strasse,12,19891627
3402,1989105,Röblingstrasse,13,19891836
3404,1989105,S-Bhf. mariendorf,14,19891931
3405,1989105,Crailsheimer Strasse,15,1989409
3406,1989105,Alt-Lankwitz,16,198937
3407,1989105,Bruchwitzstrasse,17,1989331
3408,1989105,"Lankwitz, Kirche",18,19891229
3409,1989105,Ruthstrasse,19,19891835
3410,1989105,Seydlitzstrasse,20,19892069
3412,1989105,Amalienstrasse,21,1989105
3413,1989105,Kranoldplatz,22,19891158
3414,1989105,Morgensternstrasse,23,19891447
3418,1989105,Ostpreußendamm,24,19891576
3420,1989105,Giesensdorfer Strasse,25,1989681
3422,1989105,Osdorfer Strasse,26,19891562
3423,1989105,Wismarer Strasse,27,19892583
3424,1989105,Prettauer Pfad,28,19891693
3425,1989105,Goerzallee,29,1989699
3426,1989105,Goerzallee 141-145,30,1989700
3427,1989105,Platz des 4. Juli,31,19891664
3428,1989105,Darser Strasse,32,1989424
3430,1989105,Persantestrasse,33,19891635
3431,1989105,Goerzwerk,34,1989701
3432,1989105,Wupperstrasse,35,19892601
3433,1989105,Teltower Damm,36,19892225
3435,1989105,Andreezeile,37,1989117
3436,1989105,"Zehlendorf, Beeskowdamm",38,19892614
3437,1989106,Wasserwerk,0,19892494
3438,1989106,Josef-Nawrocki-Strasse,1,19891020
3439,1989106,Bölschestrasse,2,1989366
3440,1989106,S-Bhf. Friedrichshagen,3,19891862
3441,1989106,Hirschgarten,4,1989901
3442,1989106,Brandenburgplatz,5,1989306
3443,1989106,Bahnhofstrasse/Lindenstrasse,6,1989164
3444,1989106,Schloßplatz,7,19891983
3445,1989106,S-Bhf. Spindlersfeld,8,19891911
3446,1989106,Ottomar-Geschke-Strasse,9,19891593
3447,1989106,S-Bhf. Adlershof,10,19891846
3448,1989106,Kanalbrücke,11,19891043
3449,1989106,"Altglienicke, Kirche",12,198961
3450,1989106,Am Falkenberg,13,198974
3451,1989107,Lichterfelde-Süd Holtheimer Weg,0,19891285
3452,1989107,Lippstädter Strasse,1,19891312
3453,1989107,Ostpreußendamm,2,19891574
3457,1989107,Feldstrasse,3,1989546
3458,1989107,Wismarer Strasse,4,19892583
3459,1989107,Prettauer Pfad,5,19891693
3460,1989107,Goerzallee,6,1989699
3461,1989107,Ruthnerweg,7,19891834
3462,1989107,Engadiner Weg,8,1989516
3463,1989107,Bremer Strasse,9,1989316
3464,1989107,Hindenburgdamm,10,1989897
3467,1989107,Ringstrasse/Bäkestrasse,11,19891789
3468,1989107,Krahmerstrasse,12,19891145
3469,1989107,Klinikum Steglitz,13,19891111
3470,1989107,Klingsorstrasse,14,19891109
3471,1989107,Haydnstrasse,15,1989834
3472,1989107,Händelplatz,16,1989954
3474,1989107,Birkbuschstrasse,17,1989254
3475,1989107,Schloßstrasse,18,19891984
3477,1989107,U-Bhf. Rathaus Steglitz,19,19892380
3478,1989107,Kieler Strasse,20,19891079
3479,1989107,U-Bhf. Schloßstrasse,21,19892397
3480,1989107,U-Bhf. Walther-Schreiber-Platz,22,19892413
3481,1989107,Dickhardtstrasse,23,1989440
3482,1989107,Kaisereiche,24,19891037
3483,1989107,Breslauer Platz,25,1989317
3484,1989107,Sponholzstrasse,26,19892129
3485,1989107,U-Bhf. Innsbrucker Platz,27,19892335
3486,1989107,Martin-Luther-Strasse,28,19891392
3488,1989107,John-F.-Kennedy-Platz,29,19891016
3489,1989107,Grunewaldstrasse,30,1989766
3490,1989107,Barbarossastrasse,31,1989167
3491,1989107,Hohenstaufenstrasse,32,1989922
3492,1989107,Motzstrasse,33,19891453
3493,1989107,Kleiststrasse,34,19891102
3494,1989107,U-Bhf. Wittenbergplatz,35,19892417
3495,1989108,"Johannisthal, Haeckelstrasse",0,19891011
3496,1989108,Königsheideweg,1,19891199
3497,1989108,Bhf. Schöneweide,2,1989243
3499,1989108,Wilhelminenhofstrasse,3,19892555
3500,1989108,Rathenaustrasse,4,19891744
3501,1989108,Pionierpark,5,19891655
3502,1989108,Bahnhofstrasse/Lindenstrasse,6,1989164
3503,1989108,Schloßplatz,7,19891983
3504,1989108,Wendenschloßstrasse,8,19892515
3505,1989108,Betriebshof Köpenick,9,1989219
3506,1989108,RFT-Werk,10,19891717
3507,1989108,Pritstabelstrasse,11,19891702
3508,1989108,VEB Yachtwerft,12,19892440
3509,1989108,Müggelbergallee,13,19891464
3510,1989108,Wendenschloß,14,19892513
3511,1989109,S-Bhf. Grunewald,0,19891864
3512,1989109,Auerbacher Strasse,1,1989145
3513,1989109,Hagenplatz,2,1989801
3514,1989109,Richard-Strauss-Strasse,3,19891779
3515,1989109,Hubertusbader Strasse,4,1989946
3516,1989109,Roseneck,5,19891810
3517,1989109,Sulzaer Strasse,6,19892198
3518,1989109,Berkaerstrasse/Breite Strasse,7,1989197
3519,1989109,Cunostrasse/Kirchstrasse,8,1989412
3520,1989109,Zoppoter Strasse,9,19892646
3521,1989109,Sodener Strasse,10,19892094
3522,1989109,Binger Strasse,11,1989252
3523,1989109,U-Bhf. Rüdesheimer Platz,12,19892393
3524,1989109,Wiesbadener Strasse,13,19892541
3525,1989109,Schillerplatz,14,19891967
3526,1989109,U-Bhf. Friedrich-Wilhelm-Platz,15,19892318
3527,1989109,Schmiljanstrasse,16,19891994
3528,1989109,Kaisereiche,17,19891037
3529,1989109,Roennebergstrasse,18,19891802
3530,1989109,U-Bhf. Walter-Schreiber-Platz,19,19892412
3531,1989109,U-Bhf. Schloßstrasse,20,19892397
3532,1989109,Muthesiusstrasse,21,19891458
3533,1989109,U-Bhf. Rathaus Steglitz/S-Bhf. Steglitz,22,19892383
3534,1989109,U-Bhf. Rathaus Steglitz/Kreisel,23,19892381
3535,1989109,Wolfensteindamm,24,19892590
3537,1989109,Birkbuschstrasse,25,1989254
3538,1989109,Haydnstrasse,26,1989834
3539,1989109,Klingsorstrasse,27,19891109
3540,1989109,Sedanstrasse,28,19892043
3541,1989109,Teltowkanalstrasse,29,19892228
3542,1989109,Siemensstrasse,30,19892086
3544,1989109,Gärtnerstrasse,31,1989781
3546,1989109,Stadion Lichterfelde,32,19892141
3547,1989109,Boothstrasse,33,1989291
3549,1989109,Bäkestrasse,34,1989365
3550,1989109,Königsberger Strasse,35,19891198
3551,1989109,Morgensternstrasse,36,19891447
3553,1989109,Giesensdorfer Strasse,37,1989681
3555,1989109,Osdorfer Strasse,38,19891562
3556,1989109,Blanckertzweg,39,1989271
3557,1989109,Celsiusstrasse Ecke Osdorferstrasse,40,1989385
3558,1989109,Fahrenheitstrasse,41,1989530
3559,1989109,Scheelestrasse,42,19891961
3561,1989109,Celsiusstrasse,43,1989384
3562,1989110,Alt-Schmöckwitz,0,198951
3563,1989110,Reifenwerk,1,19891765
3564,1989110,Vetschauer Allee,2,19892443
3565,1989110,Schappachstrasse,3,19891953
3566,1989110,Richtershorn,4,19891784
3567,1989110,Strandbad Grünau,5,19892175
3568,1989110,Regattatribünen,6,19891753
3569,1989110,S-Bhf. Grünau,7,19891866
3570,1989110,Regattastrasse,8,19891752
3571,1989110,VEB Berlin-Chemie,9,19892437
3572,1989110,Vollkropfgraben,10,19892448
3573,1989110,Schloßplatz,11,19891983
3574,1989110,Freiheit,12,1989596
3575,1989110,Bahnhofstrasse/Lindenstrasse,13,1989164
3576,1989110,Seelenbinderstrasse,14,19892049
3577,1989110,S-Bhf. Köpenick,15,19891875
3578,1989110,Hirtestrasse,16,1989902
3579,1989111,U-Bhf. Kurfürstenstrasse,0,19892349
3580,1989111,Bülowstrasse,1,1989371
3581,1989111,Pallasstrasse,2,19891598
3582,1989111,Kleistpark,3,19891100
3583,1989111,U-Bhf. Kleistpark,4,19892342
3584,1989111,Kaiser-Wilhelm-Platz,5,19891034
3585,1989111,Leberstrasse,6,19891236
3586,1989111,Gustav-Müller-Platz,7,1989776
3587,1989111,Leuthener Strasse,8,19891271
3588,1989111,Torgauer Strasse,9,19892270
3589,1989111,Sachsendamm,10,19891939
3590,1989111,Sportzentrum Schöneberg,11,19892130
3591,1989111,S-Bhf. Schöneberg,12,19891908
3592,1989111,Hauptstrasse/Dominicusstrasse,13,1989828
3593,1989111,U-Bhf. Innsbrucker Platz,14,19892335
3594,1989111,Ceciliengärten,15,1989380
3595,1989111,Begastrasse,16,1989180
3596,1989111,Grazer Platz,17,1989729
3597,1989111,Auguste-Viktoria-Krankenhaus,18,1989150
3598,1989111,Göttinger Strasse,19,1989788
3599,1989111,Insulaner/Sternwarte,20,1989986
3600,1989111,Insulanerbad,21,1989987
3601,1989111,Kottesteig,22,19891142
3602,1989111,Steglitzer Damm,23,19892159
3604,1989111,Siemensstrasse/Halskestrasse,24,19892088
3605,1989111,Leonorenstrasse/Siemensstrasse,25,19891263
3606,1989111,Stadtbad Lankwitz,26,19892144
3607,1989111,Rathaus Lankwitz,27,19891729
3608,1989111,"Lankwitz, Kirche",28,19891229
3609,1989111,Thaliaweg,29,19892240
3610,1989111,Havensteinstrasse,30,1989833
3611,1989111,Dessauer Strasse/Eiswaldtstrasse,31,1989433
3612,1989111,Lerbacher Weg,32,19891267
3613,1989111,Blankenhainer Strasse,33,1989276
3614,1989111,Brotteroder Strasse,34,1989330
3615,1989111,Trippsteinstrasse,35,19892286
3616,1989111,Apoldaer Strasse,36,1989123
3617,1989111,Sondershauser Strasse,37,19892101
3618,1989111,Stadtilmer Weg,38,19892148
3619,1989111,Weskammstrasse,39,19892529
3621,1989111,Lichterfelder Ring,40,19891289
3622,1989111,Tirschenreuther Ring,41,19892264
3623,1989111,"Marienfelde, Waldsassener Strasse",42,19891385
3624,1989112,U-Bhf. Rathaus Steglitz/S-Bhf. Steglitz,0,19892383
3625,1989112,Wolfensteindamm,1,19892590
3627,1989112,Birkbuschstrasse,2,1989254
3628,1989112,Haydnstrasse,3,1989834
3629,1989112,Klingsorstrasse,4,19891109
3630,1989112,Amfortasweg,5,1989106
3631,1989112,Klinikum Steglitz,6,19891111
3634,1989112,Hindenburgdamm,7,1989899
3635,1989112,Moltkestrasse,8,19891444
3636,1989112,"Lichterfelde, Augustaplatz",9,19891282
3637,1989113,Sterndamm,0,19892167
3638,1989113,Bhf. Schöneweide,1,1989243
3640,1989113,Wilhelminenhofstrasse,2,19892555
3641,1989113,Betriebshof Oberschönweide,3,1989223
3642,1989114,Bornholmer Strasse,0,1989295
3643,1989114,Sonderburger Strasse,1,19892100
3644,1989114,Grüntaler Strasse,2,1989773
3645,1989114,Prinzenallee,3,19891699
3646,1989114,Drontheimer Strasse,4,1989462
3647,1989114,U-Bhf. Osloer Strasse,5,19892367
3648,1989114,Louise-Schroeder-Platz,6,19891325
3649,1989114,Indische Strasse,7,1989982
3650,1989114,U-Bhf. Seestrasse,8,19892398
3651,1989114,Togostrasse,9,19892269
3652,1989114,Amrumer Strasse,10,1989107
3653,1989114,Friedhöfe/Seestrasse,11,1989611
3654,1989114,Dohnagestell,12,1989449
3655,1989114,Beusselbrücke,13,1989225
3656,1989114,Sickingenstrasse,14,19892072
3657,1989114,Wittstocker Strasse,15,19892588
3658,1989114,Turmstrasse/Beusselstrasse,16,19892291
3659,1989114,Berlichingenstrasse,17,1989198
3661,1989114,Wiebestrasse,18,19892539
3663,1989114,Kaiserin-Augusta-Allee,19,19891038
3664,1989114,Ilsenburger Strasse,20,1989967
3665,1989114,U-Bhf. Mierendorffplatz,21,19892357
3667,1989114,Lise-Meitner-Strasse,22,19891316
3668,1989115,John-Schehr-Strasse,0,19891018
3669,1989115,Am Friedrichshain,1,198978
3670,1989115,Hans-Beimler-Strasse,2,1989810
3671,1989115,Alexanderplatz,3,198922
3672,1989115,Spandauer Strasse,4,19892119
3675,1989115,Breite Strasse,5,1989308
3676,1989115,Friedrichstrasse,6,1989621
3677,1989115,Otto-Grotewohl-Strasse,7,19891586
3679,1989116,Budapester Strasse,0,1989354
3680,1989116,Budapester Strasse 6a,1,1989355
3681,1989116,Wichmannstrasse,2,19892536
3684,1989116,Kurfürstenstrasse,3,19891184
3685,1989116,Bayreuther Strasse,4,1989177
3686,1989116,Europa-Center,5,1989526
3687,1989116,U-Bhf. S-Bhf. Zoologischer Garten,6,19892394
3688,1989116,Joachimstaler Strasse/U-Bhf. Kurfürstendamm,7,19891007
3689,1989116,U-Bhf. Uhlandstrasse,8,19892410
3690,1989116,Bleibtreustrasse,9,1989280
3691,1989116,Olivaer Platz,10,19891540
3692,1989116,U-Bhf. Adenauerplatz,11,19892294
3693,1989116,S-Bhf. Charlottenburg,12,19891857
3694,1989116,Luisenplatz/Schloss,13,19891331
3695,1989116,Jakob-Kaiser-Platz,14,1989996
3696,1989116,U-Bhf. Jakob-Kaiser-Platz,15,19892336
3697,1989116,Verw.-Geb./Luftfracht,16,19892442
3698,1989116,Flughafen Haupthalle,17,1989570
3699,1989116,Flughafen Tegel,18,1989571
3700,1989117,Hertzallee,0,1989880
3701,1989117,U-Bhf./S-Bhf. Zoologischer Garten,1,19892422
3702,1989117,Jebenstrasse,2,19891001
3703,1989117,Steinplatz,3,19892161
3704,1989117,U-Bhf. Ernst-Reuter-Platz,4,19892312
3705,1989117,Marchstrasse,5,19891373
3706,1989117,Einsteinufer,6,1989490
3707,1989117,Dovebrücke,7,1989456
3708,1989117,helmholtzstrasse,8,19892661
3709,1989117,Franklinstrasse,9,1989586
3711,1989117,Alt-Moabit,10,198947
3712,1989117,Ottostrasse,11,19891594
3713,1989117,U-Bhf. Turmstrasse,12,19892408
3714,1989117,Kirchstrasse,13,19891083
3715,1989117,Calvin Strasse/Spenerstrasse,14,1989377
3717,1989117,Rathenower Strasse,15,19891746
3720,1989117,Claire-Waldoff-Promenade,16,1989397
3721,1989117,Lehrter Strasse,17,19891242
3723,1989117,Seydlitzstrasse,18,19892070
3724,1989117,Poststadion,19,19891674
3725,1989117,Kruppstrasse,20,19891171
3726,1989117,Quitzowstrasse,21,19891715
3727,1989117,Am Nordhafen,22,198991
3728,1989117,U-Bhf. Reinickendorfer Strasse,23,19892384
3729,1989117,Neue Hochstrasse,24,19891494
3730,1989117,Chausseestrasse,25,1989394
3732,1989118,"Buckow, Lipschitzallee Gesundheitszentrum",0,1989349
3734,1989118,Fritz-Erler-Allee,1,1989626
3735,1989118,Wildmeisterdamm,2,19892550
3737,1989118,U-Bhf. Lipschitzallee,3,19892354
3738,1989118,Sollmannweg,4,19892098
3739,1989118,Wildhüterweg,5,19892549
3740,1989118,Landreiterweg,6,19891225
3741,1989118,Am Eichenquast,7,198973
3742,1989118,Dröpkeweg,8,1989464
3743,1989118,Ringslebenstrasse,9,19891788
3744,1989118,Mollnerweg,10,19891440
3745,1989118,Buckower Damm,11,1989352
3746,1989118,Mollnerweg,12,19891440
3747,1989118,An den Achterhöfen,13,1989110
3748,1989118,Alt-Buckow,14,198933
3749,1989118,Urnenhain,15,19892434
3750,1989118,Parkfriedhof Neukölln,16,19891620
3751,1989118,Dachdeckerweg,17,1989413
3752,1989118,Zimmererweg,18,19892634
3753,1989118,Schlosserweg,19,19891977
3754,1989118,Gutschmidtstrasse,20,1989778
3755,1989118,Mohriner Allee,21,19891438
3756,1989118,Tempelhofer Weg,22,19892232
3760,1989118,Gradestrasse,23,1989720
3761,1989118,Franz-Körner-Strasse,24,1989587
3762,1989118,Germaniapromenade,25,1989675
3763,1989118,Mariendorfer Weg,26,19891379
3764,1989118,Emser Strasse,27,1989514
3765,1989118,U-Bhf. Leinestrasse,28,19892351
3766,1989118,Werbellinstrasse,29,19892519
3767,1989118,U-Bhf. Boddinstrasse,30,19892304
3768,1989118,Biebricher Strasse,31,1989247
3769,1989118,U-Bhf. Hermannplatz,32,19892330
3770,1989119,"Spandau, Freudstrasse",0,19892115
3771,1989119,Falkenseer Chaussee,1,1989540
3772,1989119,Stadtrandstrasse,2,19892153
3773,1989119,Am Bogen,3,198968
3774,1989119,Beerwinkel,4,1989178
3775,1989119,Am Kiesteich,5,198986
3776,1989119,Mülheimer Strasse,6,19891476
3777,1989119,Siegener Strasse,7,19892078
3778,1989119,Zeppelinstrasse,8,19892625
3780,1989119,Zweibrücker Strasse,9,19892651
3782,1989119,Hohenzollernring,10,1989927
3783,1989119,Askanierring,11,1989138
3784,1989119,Flankenschanze,12,1989563
3785,1989119,Falkenseer Platz,13,1989541
3786,1989119,U-Bhf. Altstadt Spandau,14,19892298
3787,1989119,Hoher Steinweg,15,1989929
3788,1989119,Moritzstrasse,16,19891450
3789,1989119,U-Bhf. Rathaus Spandau,17,19892379
3790,1989119,Brunsbütteler Damm,18,1989340
3791,1989119,Seeburger Strasse,19,19892044
3792,1989119,Seecktstrasse,20,19892045
3793,1989119,Päwesiner Weg,21,19891707
3795,1989119,Schmidt-Knobelsdorf-Strasse,22,19891992
3796,1989119,Maulbeerallee,23,19891401
3798,1989119,Obstallee,24,19891533
3799,1989119,Heerstrasse/Sandstrasse,25,1989846
3800,1989119,Magistratsweg,26,19891357
3802,1989119,Heerstrasse 438-448,27,1989843
3803,1989119,Pillnitzer Weg,28,19891654
3804,1989119,Heerstrasse/Stadtgrenze,29,1989847
3805,1989120,U-Bhf. Alt-Mariendorf,0,19892296
3806,1989120,Am Heidefriedhof,1,198983
3807,1989120,Britzer Strasse,2,1989327
3808,1989120,Goldenes Horn,3,1989705
3809,1989120,Rotkopfweg,4,19891817
3810,1989120,Windröschenweg,5,19892577
3811,1989120,Im Rosengrund,6,1989975
3812,1989120,Am Brandpfuhl,7,198970
3813,1989120,Neumarkplan,8,19891507
3814,1989120,Britzer Damm,9,1989324
3817,1989120,Gutschmidtstrasse,10,1989778
3818,1989120,Wesenberger Ring,11,19892527
3819,1989120,Britz-Süd Gutschmidtstrasse,12,1989323
3820,1989120,Wesenberger Ring,13,19892527
3821,1989120,U-Bhf. Britz-Süd,14,19892307
3822,1989120,Grüner Weg,15,1989770
3823,1989120,Rotkehlchenweg,16,19891816
3824,1989120,Buschkrugallee,17,1989363
3825,1989120,"Britz, Parchimer Allee",18,1989321
3826,1989121,Heerstrasse Ecke Reimerweg,0,1989844
3827,1989121,Pillnitzer Weg,1,19891654
3828,1989121,Heerstrasse 438-446,2,1989842
3829,1989121,Magistratsweg,3,19891357
3831,1989121,Sandstrasse,4,19891947
3832,1989121,Wilhelmstrasse,5,19892566
3834,1989121,Gatower Strasse,6,1989650
3835,1989121,Jaczostrasse,7,1989995
3837,1989121,Pichelsdorfer Strasse,8,19891648
3839,1989121,Alt-Pichelsdorf,9,198949
3840,1989121,Pichelswerder,10,19891650
3841,1989121,Stößenseebrücke,11,19892197
3842,1989121,Scholzplatz,12,19891996
3843,1989121,Ragniter Allee,13,19891719
3844,1989121,Reichssportfeldstrasse,14,19891760
3845,1989121,Mohrunger Allee,15,19891439
3846,1989121,Preußenallee,16,19891694
3847,1989121,WürttembergAllee,17,19892605
3848,1989121,U-Bhf. Theodor-Heuss-Platz,18,19892405
3849,1989121,Messegelände,19,19891417
3850,1989121,Congress-Centrum,20,1989405
3851,1989121,Dernburgstrasse,21,1989431
3852,1989121,Kuno-Fischer-Strasse,22,19891178
3853,1989121,Amtsgericht Charlottenburg,23,1989109
3854,1989121,Kaiser-Friedrich-Strasse,24,19891033
3855,1989121,U-Bhf. Wilmersdorfer Strasse,25,19892416
3856,1989121,Leibnizstrasse/Kantstrasse,26,19891244
3857,1989121,Schlüterstrasse,27,19891990
3858,1989121,S-Bhf. Savignyplatz,28,19891906
3859,1989121,Uhlandstrasse/Kantstrasse,29,19892428
3860,1989121,Joachimstaler Strasse,30,19891006
3861,1989121,U-Bhf./S-Bhf. Zoologischer Garten,31,19892422
3862,1989121,Hertzallee,32,1989880
3863,1989122,Sonnenallee Ecke Peter-Anders-Strasse,0,19892106
3864,1989122,Michael-Bohnen-Ring,1,19891422
3865,1989122,Schulenburg-Park,2,19892002
3866,1989122,Planetenstrasse,3,19891658
3868,1989122,Grenzallee,4,1989742
3869,1989122,Ziegrastrasse,5,19892631
3870,1989122,Saalestrasse,6,19891934
3871,1989122,Mareschstrasse,7,19891374
3872,1989122,Hertzbergplatz,8,1989881
3873,1989122,Geygerstrasse,9,1989680
3874,1989122,Wildenbruchstrasse,10,19892548
3875,1989122,Fuldastrasse,11,1989631
3876,1989122,Pannierstrasse,12,19891611
3877,1989122,U-Bhf. Hermannplatz,13,19892330
3878,1989122,Schönleinstrasse/Jahnstrasse,14,19892037
3879,1989122,Graefestrasse,15,1989723
3881,1989122,Grimmstrasse,16,1989748
3883,1989122,Geibelstrasse,17,1989660
3884,1989122,Baerwaldstrasse,18,1989158
3886,1989122,Blücherstrasse,19,1989284
3887,1989122,Johanniterstrasse,20,19891015
3888,1989122,Neuenburger Strasse,21,19891495
3890,1989122,Alte-Jakobstrasse,22,198958
3891,1989122,Glitschiner Strasse,23,1989691
3892,1989122,U-Bhf. Hallesches Tor,24,19892325
3893,1989123,U-Bhf. Platz der Luftbrücke,0,19892376
3895,1989123,Tempelhofer Damm,1,19892231
3896,1989123,Bayernring,2,1989176
3897,1989123,Schreiberring,3,19891999
3898,1989123,Adolf-Scheidt-Platz,4,19898
3899,1989123,Rumeyplan,5,19891830
3900,1989123,Hoeppnerstrasse,6,1989910
3902,1989123,Berlinickeplatz,7,1989205
3904,1989123,Albrechtstrasse,8,198921
3905,1989123,Friedrich-Wilhelm-Strasse,9,1989616
3906,1989123,Attilaplatz,10,1989141
3908,1989123,Attilastrasse,11,1989144
3909,1989123,Paul-Schmidt-Strasse,12,19891627
3910,1989123,Röblingstrasse,13,19891836
3912,1989123,S-Bhf. Mariendorf,14,19891883
3913,1989123,Crailsheimer Strasse,15,1989409
3914,1989123,Alt-Lankwitz,16,198937
3915,1989123,Bruchwitzstrasse,17,1989331
3916,1989123,Lankwitz/Kirche,18,19891231
3917,1989123,Ruthstrasse,19,19891835
3918,1989123,Seydlitzstrasse,20,19892069
3920,1989123,Amalienstrasse,21,1989105
3921,1989123,Kranoldplatz,22,19891158
3922,1989123,Morgensternstrasse,23,19891447
3925,1989123,Ostpreußendamm,24,19891575
3928,1989123,Giesensdorfer Strasse,25,1989681
3930,1989123,Osdorfer Strasse,26,19891562
3931,1989123,Wismarer Strasse,27,19892583
3932,1989123,Schulzentrum,28,19892009
3934,1989123,Schwelmer Strasse,29,19892019
3935,1989123,Holtheimer Weg,30,1989937
3936,1989123,Westfalenring,31,19892532
3937,1989123,Ahlener Weg,32,198911
3938,1989123,"Lichterfelde-Süd, Holtheimer Weg",33,19891286
3939,1989124,Brunsbüttler Damm/Nennhauser Damm,0,1989341
3940,1989124,Zweiwinkelweg,1,19892653
3941,1989124,Louise-Schroeder-Siedlung,2,19891326
3943,1989124,Magistratsweg,3,19891358
3944,1989124,Springerzeile,4,19892133
3946,1989124,Maulbeerallee,5,19891402
3947,1989124,Heerstrasse,6,1989840
3949,1989124,Sandstrasse,7,19891947
3950,1989124,Wilhelmstrasse,8,19892566
3952,1989124,Gatower Strasse,9,1989650
3953,1989124,Jaczostrasse,10,1989995
3954,1989124,Pichelsdorfer Strasse,11,19891647
3957,1989124,Genfenbergstrasse,12,1989667
3958,1989124,Adamstrasse,13,19894
3959,1989124,Weißenburger Strasse,14,19892508
3960,1989124,Metzer Strasse,15,19891419
3962,1989124,Seeburger Strasse,16,19892044
3963,1989124,Ruhlebener Strasse,17,19891829
3964,1989124,U-Bhf. Rathaus Spandau,18,19892379
3965,1989124,Moritzstrasse,19,19891450
3966,1989124,Wröhmännerpark,20,19892599
3967,1989124,Triftstrasse,21,19892284
3969,1989124,Lynarstrasse/Parkstrasse,22,19891337
3971,1989124,Schäferstrasse,23,19892023
3972,1989124,Hohenzollernring,24,1989927
3973,1989124,Goltzstrasse/ReußStrasse,25,1989709
3974,1989124,Rauchstrasse,26,19891750
3975,1989124,Mertensstrasse,27,19891414
3976,1989124,Werderstrasse,28,19892520
3977,1989124,Siedlung Hakenfelde,29,19892076
3978,1989124,Aalemannufer,30,19890
3979,1989124,Rustweg,31,19891833
3980,1989124,Kraftwerk Oberhavel,32,19891144
3981,1989125,U-Bhf. Tegel,0,19892403
3982,1989125,Waidmannsluster Damm,1,19892457
3986,1989125,Schulzendorfer Strasse,2,19892005
3988,1989125,Kontrollpunkt,3,19891136
3989,1989125,Stolpe (DDR),4,19892171
3990,1989126,S-Bhf. Wannsee,0,19891920
3991,1989126,Nibelungenstrasse,1,19891508
3992,1989126,Isoldestrasse,2,1989993
3993,1989126,Drewitz (DDR),3,1989461
3994,1989127,S-Bhf. Rahnsdorf,0,19891903
3995,1989127,Goethestrasse,1,1989704
3996,1989127,Eichendamm,2,1989485
3997,1989127,Lerchendamm,3,19891268
3998,1989127,Fasanenstrasse,4,1989544
3999,1989127,Thälmannplatz,5,19892250
4000,1989127,Blumenstrasse,6,1989283
4001,1989127,Krankenhaus,7,19891147
4002,1989127,Woltersdorfer Schleuse,8,19892594
4003,1989128,Hirtestrasse,0,1989902
4004,1989128,S-Bhf. Köpenick,1,19891875
4005,1989128,Seelenbinderstrasse,2,19892049
4006,1989128,Bahnhofstrasse/Lindenstrasse,3,1989164
4007,1989128,Schloßplatz,4,19891983
4008,1989128,Wendenschloßstrasse,5,19892515
4009,1989128,Betriebshof Köpenick,6,1989219
4010,1989128,VEB Yachtwerft,7,19892440
4011,1989128,Lienhardweg,8,19891292
4012,1989128,Wendenschloß,9,19892513
4013,1989129,Schlesisches Tor,0,19891973
4014,1989129,Görlitzer Bahnhof,1,1989786
4015,1989129,Kottbusser Tor,2,19891141
4016,1989129,Prinzenstrasse,3,19891700
4017,1989129,Hallesches Tor,4,1989805
4018,1989129,Möckernbrücke,5,19891462
4019,1989129,Gleisdreieck,6,1989683
4020,1989129,Kürfürstenstrasse,7,19891216
4021,1989129,Nollendorfplatz,8,19891516
4022,1989129,Wittenbergplatz,9,19892586
4023,1989129,Zoologischer Garten,10,19892645
4024,1989129,Ernst-Reuter-Platz,11,1989522
4025,1989129,Deutsche Oper,12,1989435
4026,1989129,Bismarckstrasse,13,1989267
4027,1989129,Sophie-Charlotte-Platz,14,19892108
4028,1989129,Kaiserdamm,15,19891036
4029,1989129,Theodor-Heuss-Platz,16,19892243
4030,1989129,Neu-Westend,17,19891492
4031,1989129,Olympia-Stadion,18,19891541
4032,1989129,Ruhleben,19,19891828
4033,1989130,Wittenbergplatz,0,19892586
4034,1989130,Augsburger Strasse,1,1989148
4035,1989130,Spichernstrasse,2,19892126
4036,1989130,Hohenzollernplatz,3,1989926
4037,1989130,Fehrbelliner Platz,4,1989545
4038,1989130,Heidelberger Platz,5,1989849
4039,1989130,Rüdesheimer Platz,6,19891842
4040,1989130,Breitenbachplatz,7,1989313
4041,1989130,Podbielskiallee,8,19891668
4042,1989130,Dahlem-Dorf,9,1989415
4043,1989130,Thielplatz,10,19892248
4044,1989130,Oskar-Helene-Heim,11,19891564
4045,1989130,Onkel Toms Hütte,12,19891546
4046,1989130,Krumme Lanke,13,19891169
4047,1989131,Wittenbergplatz,0,19892586
4048,1989131,Kurfürstendamm,1,19891181
4049,1989131,Uhlandstr,2,19892425
4050,1989132,Nollendorfplatz,0,19891516
4051,1989132,Viktoria-Luise-Platz,1,19892445
4052,1989132,Bayerischer Platz,2,1989175
4053,1989132,Rathaus Schöneberg,3,19891733
4054,1989132,Innsbrucker Platz,4,1989984
4055,1989133,Tegel,0,19892215
4056,1989133,Borsigwerke,1,1989299
4057,1989133,Holzhauser Strasse,2,1989940
4058,1989133,Seidelstrasse,3,19892057
4059,1989133,Scharnweberstrasse,4,19891960
4060,1989133,Kurt-Schumacher-Platz,5,19891192
4061,1989133,Afrikanische Strasse,6,198910
4062,1989133,Rehberge,7,19891757
4063,1989133,Seestrasse,8,19892054
4064,1989133,Leopoldplatz,9,19891264
4065,1989133,Wedding,10,19892496
4066,1989133,Reinickendorfer Strasse,11,19891768
4067,1989133,Friedrichstrasse,12,1989623
4068,1989133,Kochstrasse,13,19891124
4069,1989133,Hallesches Tor,14,1989805
4070,1989133,Mehringdamm,15,19891409
4071,1989133,Platz der Luftbrücke,16,19891662
4072,1989133,Paradestrasse,17,19891616
4073,1989133,Tempelhof,18,19892229
4074,1989133,Alt-Tempelhof,19,198952
4075,1989133,Kaiserin-Augusta-Strasse,20,19891039
4076,1989133,Ullsteinstrasse,21,19892430
4077,1989133,Westphalweg,22,19892535
4078,1989133,Alt-Mariendorf,23,198942
4079,1989134,Rathaus Spandau,0,19891734
4080,1989134,Altstadt Spandau,1,198964
4081,1989134,Zitadelle,2,19892641
4082,1989134,Haselhorst,3,1989820
4083,1989134,Paulsternstrasse,4,19891630
4084,1989134,Rohrdamm,5,19891804
4085,1989134,Siemensdamm,6,19892085
4086,1989134,Halemweg,7,1989804
4087,1989134,Jakob-Kaiser-Platz,8,1989997
4088,1989134,Jungfernheide,9,19891024
4089,1989134,Mierendorffplatz,10,19891426
4090,1989134,Richard-Wagner-Platz,11,19891782
4091,1989134,Bismarckstrasse,12,1989267
4092,1989134,Wilmersdorfer Strasse,13,19892572
4093,1989134,Adenauer Platz,14,19895
4094,1989134,Konstanzer Strasse,15,19891135
4095,1989134,Fehrbelliner Platz,16,1989545
4096,1989134,Blissestrasse,17,1989281
4097,1989134,Berliner Strasse,18,1989204
4098,1989134,Bayerischer Platz,19,1989175
4099,1989134,Eisenacher Strasse,20,1989495
4100,1989134,Kleistpark,21,19891101
4101,1989134,Yorckstrasse,22,19892609
4102,1989134,Möckernbrücke,23,19891462
4103,1989134,Mehringdamm,24,19891409
4104,1989134,Gneisenaustrasse,25,1989696
4105,1989134,Südstern,26,19892209
4106,1989134,Hermannplatz,27,1989871
4107,1989134,Rathaus Neukölln,28,19891731
4108,1989134,Karl-Marx-Strasse,29,19891054
4109,1989134,Neukölln,30,19891502
4110,1989134,Grenzallee,31,1989743
4111,1989134,Blaschkoallee,32,1989279
4112,1989134,Parchimer Allee,33,19891618
4113,1989134,Britz-Süd,34,1989322
4114,1989134,Johannisthaler Chaussee,35,19891013
4115,1989134,Lipschitzallee,36,19891314
4116,1989134,Wutzkyallee,37,19892602
4117,1989134,Zwickauer Damm,38,19892655
4118,1989134,Rudow,39,19891821
4119,1989135,Paracelsus-Bad,0,19891615
4120,1989135,Residenzstrasse,1,19891773
4121,1989135,Franz-Neumann-Platz,2,1989589
4122,1989135,Osloer Strasse,3,19891566
4123,1989135,Pankstrasse,4,19891609
4124,1989135,Gesundbrunnen,5,1989678
4125,1989135,Voltastrasse,6,19892449
4126,1989135,Moritzplatz,7,19891449
4127,1989135,Kottbusser Tor,8,19891141
4128,1989135,Kottbusser Damm,9,19891140
4129,1989135,Hermannplatz,10,1989871
4130,1989135,Boddinstrasse,11,1989285
4131,1989135,Leinestrasse,12,19891245
4132,1989136,Osloer Strasse,0,19891566
4133,1989136,Nauener Platz,1,19891485
4134,1989136,Leopoldplatz,2,19891264
4135,1989136,Amrumer Strasse,3,1989108
4136,1989136,Putlitzstrasse,4,19891706
4137,1989136,Birkenstrasse,5,1989257
4138,1989136,Turmstrasse,6,19892290
4139,1989136,Hansaplatz,7,1989814
4140,1989136,Zoologischer Garten,8,19892645
4141,1989136,Kürfürstendamm,9,19891215
4142,1989136,Spichernstrasse,10,19892126
4143,1989136,Güntzelstrasse,11,1989790
4144,1989136,Berliner Strasse,12,1989204
4145,1989136,Bundesplatz,13,1989358
4146,1989136,Friedrich-Wilhelm-Platz,14,1989615
4147,1989136,Walter-Schreiber-Platz,15,19892475
4148,1989136,Schloßstrasse,16,19891986
4149,1989136,Rathaus Steglitz,17,19891735
4150,1989137,Anhalter Bahnhof,0,1989119
4151,1989137,Großgörschenstrasse,1,1989762
4152,1989137,Schöneberg,2,19892025
4153,1989137,Friedenau,3,1989599
4154,1989137,Feuerbachstrasse,4,1989551
4155,1989137,Steglitz,5,19892158
4156,1989137,Botanischer Garten,6,1989303
4157,1989137,Lichterfelde-West,7,19891287
4158,1989137,Sundgauer Strasse,8,19892203
4159,1989137,Zehlendorf,9,19892612
4160,1989137,Mexikoplatz,10,19891421
4161,1989137,Schlachtensee,11,19891970
4162,1989137,Nikolassee,12,19891514
4163,1989137,Wannsee,13,19892480
4164,1989138,Frohnau,0,1989629
4165,1989138,Hermsdorf,1,1989873
4166,1989138,Waidmannslust,2,19892455
4167,1989138,Wittenau (Nordbahnhof),3,19892584
4168,1989138,Wilhelmsruh,4,19892561
4169,1989138,Schönholz,5,19892036
4170,1989138,Wollankstrasse,6,19892592
4171,1989138,Gesundbrunnen,7,1989677
4172,1989138,Humboldthain,8,1989951
4173,1989138,Friedrichstrasse,9,1989622
4174,1989138,Anhalter Bahnhof,10,1989119
4175,1989138,Yorckstrasse,11,19892608
4176,1989138,Papestrasse,12,19891613
4177,1989138,Priesterweg,13,19891697
4178,1989138,Mariendorf,14,19891376
4179,1989138,Marienfelde,15,19891380
4180,1989138,Buckower Chaussee,16,1989351
4181,1989138,Lichtenrade,17,19891275
4182,1989139,Friedrichstrasse,0,1989622
4183,1989139,Lehrter Stadtbahnhof,1,19891241
4184,1989139,Bellevue,2,1989184
4185,1989139,Tiergarten,3,19892255
4186,1989139,Zoologischer Garten,4,19892644
4187,1989139,Savignyplatz,5,19891950
4188,1989139,Charlottenburg,6,1989387
4189,1989139,Westkreuz,7,19892534
4190,1989139,Grunewald,8,1989764
4191,1989139,Nikolassee,9,19891514
4192,1989139,Wannsee,10,19892480
4193,1989140,Friedrichstrasse,0,1989622
4194,1989140,Marx-Engels-Platz,1,19891394
4195,1989140,Alexanderplatz,2,198923
4196,1989140,Jannowitzbrücke,3,1989998
4197,1989140,Hauptbahnhof,4,1989824
4198,1989140,Warschauer Strasse,5,19892484
4199,1989140,Ostkreuz,6,19891573
4200,1989140,Nöldnerplatz,7,19891526
4201,1989140,Lichtenberg,8,19891273
4202,1989140,Friedrichsfelde Ost,9,1989619
4203,1989140,Biesdorf,10,1989248
4204,1989140,Kaulsdorf,11,19891069
4205,1989140,Mahlsdorf,12,19891359
4206,1989140,Hoppegarten,13,1989941
4207,1989140,Neuenhagen,14,19891497
4208,1989140,Fredersdorf,15,1989592
4209,1989140,Petershagen Nord,16,19891636
4210,1989140,Strausberg,17,19892178
4211,1989140,Hegermühle,18,1989848
4212,1989140,Strausberg Stadt,19,19892180
4213,1989140,Strausberg Nord,20,19892179
4214,1989141,Alexanderplatz,0,198923
4215,1989141,Jannowitzbrücke,1,1989998
4216,1989141,Hauptbahnhof,2,1989824
4217,1989141,Warschauer Strasse,3,19892484
4218,1989141,Ostkreuz,4,19891573
4219,1989141,Nöldnerplatz,5,19891526
4220,1989141,Lichtenberg,6,19891273
4221,1989141,Friedrichsfelde Ost,7,1989619
4222,1989141,Springpfuhl,8,19892134
4223,1989141,Gehrenseestrasse,9,1989655
4224,1989141,Hohenschönhausen,10,1989916
4225,1989141,Wartenberg,11,19892486
4226,1989142,Alexanderplatz,0,198923
4227,1989142,Jannowitzbrücke,1,1989998
4228,1989142,Hauptbahnhof,2,1989824
4229,1989142,Warschauer Strasse,3,19892484
4230,1989142,Ostkreuz,4,19891573
4231,1989142,Nöldnerplatz,5,19891526
4232,1989142,Lichtenberg,6,19891273
4233,1989142,Friedrichsfelde Ost,7,1989619
4234,1989142,Springpfuhl,8,19892134
4235,1989142,Karl-Maron-Strasse,9,19891052
4236,1989142,Marzahn,10,19891395
4237,1989142,Bruno-Leuschner-Strasse,11,1989338
4238,1989142,Otto-Winzer-Strasse,12,19891591
4239,1989142,Ahrensfelde,13,198913
4240,1989143,Hauptbahnhof,0,1989824
4241,1989143,Warschauer Strasse,1,19892484
4242,1989143,Ostkreuz,2,19891573
4243,1989143,Rummelsburg,3,19891831
4244,1989143,Betriebsbhf. Rummelsburg,4,1989216
4245,1989143,Karlshorst,5,19891055
4246,1989143,Wuhlheide,6,19892600
4247,1989143,Köpenick,7,19891205
4248,1989143,Hirschgarten,8,1989900
4249,1989143,Friedrichshagen,9,1989620
4250,1989143,Rahnsdorf,10,19891720
4251,1989143,Wilhelmshagen,11,19892560
4252,1989143,Erkner,12,1989521
4253,1989144,Friedrichstrasse,0,1989622
4254,1989144,Marx-Engels-Platz,1,19891394
4255,1989144,Alexanderplatz,2,198923
4256,1989144,Jannowitzbrücke,3,1989998
4257,1989144,Hauptbahnhof,4,1989824
4258,1989144,Warschauer Strasse,5,19892484
4259,1989144,Ostkreuz,6,19891573
4260,1989144,Treptower Park,7,19892280
4261,1989144,Plänterwald,8,19891667
4262,1989144,Baumschulenweg,9,1989173
4263,1989144,Schöneweide,10,19892031
4264,1989144,Betriebsbhf. Schöneweide,11,1989217
4265,1989144,Adlershof,12,19896
4266,1989144,Grünau,13,1989767
4267,1989144,Eichwalde,14,1989489
4268,1989144,Zeuthen,15,19892629
4269,1989144,Wildau,16,19892546
4270,1989144,Königs Wusterhausen,17,19891197
4271,1989145,Friedrichstrasse,0,1989622
4272,1989145,Marx-Engels-Platz,1,19891394
4273,1989145,Alexanderplatz,2,198923
4274,1989145,Jannowitzbrücke,3,1989998
4275,1989145,Hauptbahnhof,4,1989824
4276,1989145,Warschauer Strasse,5,19892484
4277,1989145,Ostkreuz,6,19891573
4278,1989145,Treptower Park,7,19892280
4279,1989145,Plänterwald,8,19891667
4280,1989145,Baumschulenweg,9,1989173
4281,1989145,Schöneweide,10,19892031
4282,1989145,Betriebsbhf. Schöneweide,11,1989217
4283,1989145,Adlershof,12,19896
4284,1989145,Altglienicke,13,198959
4285,1989145,Grünbergallee,14,1989768
4286,1989145,Flughafen Berlin-Schönefeld,15,1989569
4287,1989146,Oranienburg,0,19891549
4288,1989146,Lehnitz,1,19891240
4289,1989146,Borgsdorf,2,1989293
4290,1989146,Birkenwerder,3,1989258
4291,1989146,Hohen Neuendorf,4,1989915
4292,1989146,Bergfelde,5,1989188
4293,1989146,Schönfließ,6,19892032
4294,1989146,Mühlenbeck-Mönchmühle,7,19891470
4295,1989146,Blankenburg,8,1989272
4296,1989146,Pankow-Heinersdorf,9,19891605
4297,1989146,Pankow,10,19891599
4298,1989146,Schönhauser Allee,11,19892033
4299,1989146,Prenzlauer Allee,12,19891683
4300,1989146,Ernst-Thälmann-Park,13,1989523
4301,1989146,Leninallee,14,19891250
4302,1989146,Storkower Strasse,15,19892174
4303,1989146,Frankfurter Allee,16,1989583
4304,1989146,Ostkreuz,17,19891573
4305,1989146,Treptower Park,18,19892280
4306,1989146,Plänterwald,19,19891667
4307,1989146,Baumschulenweg,20,1989173
4308,1989146,Schöneweide,21,19892031
4309,1989146,Betriebsbhf. Schöneweide,22,1989217
4310,1989146,Adlershof,23,19896
4311,1989146,Altglienicke,24,198959
4312,1989146,Grünbergallee,25,1989768
4313,1989146,Flughafen Berlin-Schönefeld,26,1989569
4314,1989147,Bernau,0,1989206
4315,1989147,Zepernick,1,19892622
4316,1989147,Röntgental,2,19891839
4317,1989147,Buch,3,1989342
4318,1989147,Karow,4,19891057
4319,1989147,Blankenburg,5,1989272
4320,1989147,Pankow-Heinersdorf,6,19891605
4321,1989147,Pankow,7,19891599
4322,1989147,Schönhauser Allee,8,19892033
4323,1989147,Prenzlauer Allee,9,19891683
4324,1989147,Ernst-Thälmann-Park,10,1989523
4325,1989147,Leninallee,11,19891250
4326,1989147,Storkower Strasse,12,19892174
4327,1989147,Frankfurter Allee,13,1989583
4328,1989147,Ostkreuz,14,19891573
4329,1989147,Treptower Park,15,19892280
4330,1989147,Plänterwald,16,19891667
4331,1989147,Baumschulenweg,17,1989173
4332,1989147,Schöneweide,18,19892031
4333,1989147,Betriebsbhf. Schöneweide,19,1989217
4334,1989147,Adlershof,20,19896
4335,1989147,Grünau,21,1989767
4336,1989148,Pankow,0,19891599
4337,1989148,Schönhauser Allee,1,19892033
4338,1989148,Prenzlauer Allee,2,19891683
4339,1989148,Ernst-Thälmann-Park,3,1989523
4340,1989148,Leninallee,4,19891250
4341,1989148,Storkower Strasse,5,19892174
4342,1989148,Frankfurter Allee,6,1989583
4343,1989148,Ostkreuz,7,19891573
4344,1989148,Treptower Park,8,19892280
4345,1989148,Plänterwald,9,19891667
4346,1989148,Baumschulenweg,10,1989173
4347,1989148,Schöneweide,11,19892031
4348,1989148,Betriebsbhf. Schöneweide,12,1989217
4349,1989148,Adlershof,13,19896
4350,1989148,Grünau,14,1989767
4351,1989149,Blankenburg,0,1989272
4352,1989149,Pankow-Heinersdorf,1,19891605
4353,1989149,Pankow,2,19891599
4354,1989149,Schönhauser Allee,3,19892033
4355,1989149,Prenzlauer Allee,4,19891683
4356,1989149,Greifswalder Strasse,5,1989734
4357,1989149,Leninallee,6,19891250
4358,1989149,Storkower Strasse,7,19892174
4359,1989149,Frankfurter Allee,8,1989583
4360,1989149,Ostkreuz,9,19891573
4361,1989149,Treptower Park,10,19892280
4362,1989149,Plänterwald,11,19891667
4363,1989149,Baumschulenweg,12,1989173
4364,1989149,Schöneweide,13,19892031
4365,1989149,Oberspree,14,19891531
4366,1989149,Spindlersfeld,15,19892127
4367,1989150,Buch,0,1989342
4368,1989150,Karow,1,19891057
4369,1989150,Blankenburg,2,1989272
4370,1989150,Pankow-Heinersdorf,3,19891605
4371,1989150,Pankow,4,19891599
4372,1989150,Schönhauser Allee,5,19892033
4373,1989150,Prenzlauer Allee,6,19891683
4374,1989150,Ernst-Thälmann-Park,7,1989523
4375,1989150,Leninallee,8,19891250
4376,1989150,Storkower Strasse,9,19892174
4377,1989150,Frankfurter Allee,10,1989583
4378,1989150,Ostkreuz,11,19891573
4379,1989150,Treptower Park,12,19892280
4380,1989150,Plänterwald,13,19891667
4381,1989150,Baumschulenweg,14,1989173
4382,1989150,Schöneweide,15,19892031
4383,1989150,Oberspree,16,19891531
4384,1989150,Spindlersfeld,17,19892127
4385,1989151,Buch,0,1989342
4386,1989151,Karow,1,19891057
4387,1989151,Blankenburg,2,1989272
4388,1989151,Pankow-Heinersdorf,3,19891605
4389,1989151,Pankow,4,19891599
4390,1989151,Schönhauser Allee,5,19892033
4391,1989151,Prenzlauer Allee,6,19891683
4392,1989151,Ernst-Thälmann-Park,7,1989523
4393,1989151,Leninallee,8,19891250
4394,1989151,Storkower Strasse,9,19892174
4395,1989151,Frankfurter Allee,10,1989583
4396,1989151,Ostkreuz,11,19891573
4397,1989151,Warschauerstrasse,12,19892485
4398,1989152,Pankow (Vinetastrasse),0,19891600
4399,1989152,Schönhauser Allee,1,19892035
4400,1989152,Dimitroffstrasse,2,1989446
4401,1989152,Senefelderplatz,3,19892061
4402,1989152,Rosa-Luxemburg-Platz,4,19891808
4403,1989152,Alexanderplatz,5,198924
4404,1989152,Klosterstrasse,6,19891115
4405,1989152,Märkisches Museum,7,19891460
4406,1989152,Spittelmarkt,8,19892128
4407,1989152,Hausvogteiplatz,9,1989831
4408,1989152,Stadtmitte,10,19892149
4409,1989152,Otto-Grotewohl-Strasse,11,19891588
4410,1989153,Elsterwerdaer Platz,0,1989508
4411,1989153,Biesdorf Süd,1,1989249
4412,1989153,Tierpark,2,19892258
4413,1989153,Friedrichsfelde,3,1989618
4414,1989153,Bhf. Lichtenberg,4,1989239
4415,1989153,Magdalenenstrasse,5,19891355
4416,1989153,Frankfurter Allee,6,1989584
4417,1989153,Samariterstrasse,7,19891944
4418,1989153,Frankfurter Tor,8,1989585
4419,1989153,Marchlewskistrasse,9,19891372
4420,1989153,Strausberger Platz,10,19892181
4421,1989153,Schillingstrasse,11,19891968
4422,1989153,Alexanderplatz,12,198924
4423,1989154,Mahlsdorfer Allee,0,19891361
4424,1989154,Summter Strasse,1,19892200
4425,1989154,Hultschiner Damm,2,1989950
4427,1989154,Jägerstrasse,3,19891028
4428,1989154,Köpenicker Strasse,4,19891207
4433,1989154,Elsterwerdaer Platz,5,1989507
4434,1989154,Oberfeldstrasse,6,19891527
4435,1989154,Werner-Lamberz-Strasse,7,19892522
4436,1989154,Bhf. Friedrichsfelde,8,1989232
4437,1989154,Bhf. Lichtenberg,9,1989237
4438,1989155,S-Bhf. Kaulsdorf,0,19891873
4439,1989155,Alt-Kaulsdorf,1,198936
4440,1989155,Chemnitzer Strasse,2,1989396
4442,1989155,Jägerstrasse,3,19891028
4443,1989155,Gehsener Strasse,4,1989658
4444,1989155,S-Bhf. Köpenick,5,19891874
4445,1989155,Seelenbinderstrasse,6,19892048
4446,1989155,Lindenstrasse,7,19891306
4448,1989155,Müggelheimer Strasse,8,19891466
4449,1989155,Krankenhaus Köpenick,9,19891153
4450,1989155,Chausseehaus,10,1989393
4451,1989155,Rübezahl,11,19891840
4452,1989155,Müggelseeperle,12,19891469
4453,1989155,"Müggelheim, Dorf",13,19891465
4454,1989155,Alt-Müggelheim,14,198948
4455,1989156,Robert-Koch-Platz,0,19891796
4456,1989156,Oranienburger Tor,1,19891553
4457,1989156,Rosenthaler Platz,2,19891813
4458,1989156,U-Bhf. Rosa-Luxemburg-Platz,3,19892389
4459,1989156,Prenzlauer Allee,4,19891682
4460,1989156,Dimitroffstrasse,5,1989443
4461,1989156,Artur-Becker-Strasse,6,1989134
4462,1989156,Leninallee,7,19891247
4465,1989156,Mühsamstrasse,8,19891475
4466,1989156,Samariterstrasse,9,19891943
4467,1989156,Jacques-Duclos-Strasse,10,1989994
4468,1989156,Herzbergstrasse,11,1989882
4471,1989156,Siegfriedstrasse,12,19892080
4472,1989156,Omnibus Betriebshof,13,19891542
4473,1989156,U-Bhf. Magdalenenstrasse,14,19892355
4474,1989156,Bhf. Lichtenberg,15,1989237
4475,1989156,Weitlingstrasse,16,19892507
4476,1989156,Lückstrasse,17,19891344
4477,1989156,S-Bhf. Rummelsburg,18,19891904
4478,1989156,Holteistrasse,19,1989934
4479,1989156,Warschauer Strasse,20,19892483
4480,1989156,Franz-Mehring-Platz,21,1989588
4481,1989156,Ostbahnhof,22,19891568
4482,1989157,"Buch, Hobrechtsfelder Chaussee",0,1989344
4483,1989157,S-Bhf. Buch,1,19891855
4484,1989157,Karower Strasse,2,19891058
4486,1989157,Stadtrandsiedlung,3,19892152
4487,1989157,Alt-Karow,4,198935
4488,1989157,Straße 26,5,19892182
4489,1989157,Alt-Blankenburg,6,198932
4490,1989157,Heinersdorfer Kirche,7,1989857
4491,1989157,Am Steinberg,8,198999
4492,1989157,Ostseestrasse,9,19891578
4493,1989158,Hans-Beimler-Strasse,0,1989810
4494,1989158,Am Friedrichshain,1,198978
4495,1989158,Leninplatz,2,19891259
4496,1989158,Karl Marx-Allee,3,19891049
4497,1989158,Ostbahnhof,4,19891568
4498,1989158,S-Bhf. Jannowitzbrücke,5,19891871
4499,1989158,Fischerinsel,6,1989562
4500,1989158,Friedrichstrasse,7,1989621
4501,1989158,Otto-Grotewohl-Strasse,8,19891586
4503,1989159,Grumbkowstrasse,0,1989763
4504,1989159,Kurt-Fischer-Platz,1,19891187
4505,1989159,Bürgerpark,2,1989372
4506,1989159,"Pankow, Kirche",3,19891601
4507,1989159,S-Bhf. Pankow,4,19891894
4508,1989159,U-Bhf. Pankow,5,19892368
4509,1989160,"Biesdorf-Süd, Köpenicker Strasse",0,1989250
4510,1989160,Hadubrandstrasse,1,1989800
4511,1989160,Zimmermannstrasse,2,19892635
4512,1989160,Grabensprung,3,1989717
4513,1989160,Elsterwerdaer Platz,4,1989507
4514,1989160,Oberfeldstrasse,5,19891527
4515,1989160,Werner-Lamberz-Strasse,6,19892522
4516,1989160,U-Bhf. Friedrichsfelde,7,19892319
4517,1989160,Lincolnstrasse,8,19891295
4518,1989160,Weitlingstrasse,9,19892507
4519,1989160,S-Bhf. Nöldnerplatz,10,19891890
4520,1989161,S-Bhf. Grünau,0,19891865
4521,1989161,Gartenstadtweg,1,1989646
4522,1989161,"Bohnsdorf, Kirche",2,1989287
4523,1989161,S-Bhf. Grünbergallee,3,19891867
4524,1989161,S-Bhf. Schönefeld,4,19891909
4525,1989161,"Schönefeld, Dorfstrasse",5,19892028
4526,1989162,S-Bhf. Grünau,0,19891865
4527,1989162,Germanenstrasse,1,1989674
4528,1989162,Normannenstrasse,2,19891522
4530,1989162,Köpenicker Strasse,3,19891208
4534,1989162,Rudower Strasse,4,19891824
4536,1989163,S-Bhf. Grünau,0,19891865
4537,1989163,Joachimstrasse,1,19891008
4538,1989163,Eichbuschplatz,2,1989482
4539,1989163,Waltersdorfer Strasse,3,19892479
4540,1989163,"Bohnsdorf, Waldstrasse",4,1989288
4541,1989163,Waltersdorf,5,19892476
4542,1989163,Kienberg,6,19891080
4543,1989163,Diepensee,7,1989442
4544,1989164,"Wartenberg, Siedlung",0,19892487
4545,1989164,Lindenberger Strasse,1,19891300
4548,1989164,Falkenberger Chaussee,2,1989535
4549,1989164,Gehrenseestrasse,3,1989654
4550,1989164,Wollenberger Strasse,4,19892593
4553,1989164,Marzahner Strasse,5,19891399
4554,1989164,Große Leege Strasse,6,1989760
4555,1989164,Degnerstrasse,7,1989425
4556,1989165,Robert-Koch-Platz,0,19891796
4557,1989165,Oranienburger Tor,1,19891553
4558,1989165,Rosenthaler Platz,2,19891813
4559,1989165,U-Bhf. Rosa-Luxemburg-Platz,3,19892389
4560,1989165,Prenzlauer Allee,4,19891682
4561,1989165,Am Friedrichshain,5,198978
4562,1989165,Leninplatz,6,19891259
4563,1989165,Karl-Marx-Allee,7,19891053
4564,1989165,Franz-Mehring-Platz,8,1989588
4565,1989165,Ostbahnhof,9,19891568
4566,1989166,Neu-Lindenberg,0,19891491
4567,1989166,"Lindenberg, Dorf",1,19891299
4568,1989166,"Malchow, Dorf",2,19891364
4569,1989166,Feldtmannstrasse,3,1989547
4570,1989166,Rennbahnstrasse,4,19891771
4571,1989166,Falkenberger Strasse,5,1989536
4572,1989166,Liebermannstrasse,6,19891291
4573,1989166,Straße nach Wartenberg,7,19892187
4574,1989166,"Falkenberg, Schule",8,1989534
4575,1989166,Stadtrandsiedlung,9,19892151
4577,1989166,S-Bhf. Ahrensfelde,10,19891847
4578,1989166,"Ahrensfelde, Lindenberger Strasse",11,198915
4579,1989167,"Buch, Zepernicker Strasse",0,1989345
4580,1989167,Karower Strasse,1,19891058
4582,1989167,Stadtrandsiedlung,2,19892152
4583,1989167,Alt-Karow,3,198935
4584,1989167,Straße 26,4,19892182
4585,1989167,Alt-Blankenburg,5,198932
4586,1989167,"Heinersdorf, Kirche",6,1989854
4587,1989167,Am Steinberg,7,198999
4588,1989167,Ostseestrasse,8,19891578
4589,1989168,S-Bhf. Marzahn,0,19891885
4590,1989168,Murtzaner Ring,1,19891455
4591,1989168,Boschpoler Strasse,2,1989300
4592,1989168,S-Bhf. Springpfuhl,3,19891912
4593,1989168,Kröver Strasse,4,19891172
4594,1989168,S-Bhf. Friedrichsfelde Ost,5,19891860
4595,1989168,Straße der Befreiung,6,19892185
4596,1989168,U-Bhf. Friedrichsfelde,7,19892319
4597,1989168,Weitlingstrasse,8,19892507
4598,1989168,S-Bhf. Nöldnerplatz,9,19891890
4599,1989169,"Hönow, Dorf",0,1989956
4600,1989169,Thälmannstrasse,1,19892251
4601,1989169,Greifswalder Strasse,2,1989732
4603,1989169,Am Rosenhag,3,198996
4604,1989169,S-Bhf. Mahlsdorf,4,19891881
4605,1989170,"Wilhelmsruh, Schillerstrasse",0,19892562
4606,1989170,Edelweißstrasse,1,1989472
4607,1989170,Ehrenmal Schönholz,2,1989476
4608,1989170,Heinrich-Mann-Platz,3,1989858
4609,1989170,"Pankow, Rathaus",4,19891603
4610,1989170,S-Bhf. Pankow,5,19891894
4611,1989170,Prenzlauer Promenade,6,19891688
4613,1989170,Am Steinberg,7,198999
4614,1989170,Hamburger Platz,8,1989808
4615,1989170,Klement-Gottwald-Allee,9,19891103
4616,1989170,Lichtenberger Strasse,10,19891274
4617,1989170,Gehringstrasse,11,1989657
4618,1989170,Schwarzelfenweg,12,19892014
4619,1989171,"Treptow, Eichenstrasse",0,19892277
4620,1989171,S-Bhf. Treptower Park,1,19891918
4621,1989171,"Treptow, Rathaus",2,19892279
4622,1989171,Eichbuschallee,3,1989481
4623,1989171,S-Bhf. Baumschulenweg,4,19891850
4624,1989171,Sonnenallee,5,19892102
4628,1989171,Johannisthaler Chaussee,6,19891012
4629,1989171,Sterndamm,7,19892166
4630,1989171,Bhf. Schöneweide,8,1989242
4632,1989171,Rudower Strasse,9,19891825
4633,1989171,S-Bhf. Oberspree,10,19891891
4635,1989172,Marzahner Strasse,0,19891398
4637,1989172,Plauener Strasse,1,19891666
4640,1989172,Leninallee,2,19891249
4641,1989172,Allee der Kosmonauten,3,198926
4642,1989172,S-Bhf. Friedrichsfelde Ost,4,19891860
4643,1989173,Rolandstrasse,0,19891807
4644,1989173,Grumbkowstrasse,1,1989763
4647,1989173,Lindenberger Strasse,2,19891302
4648,1989173,Idastrasse,3,1989962
4649,1989173,Ossietzkyplatz,4,19891567
4650,1989173,Kurt-Fischer-Strasse,5,19891189
4651,1989173,Bürgerpark,6,1989372
4652,1989173,Görschstrasse,7,1989787
4653,1989173,Dolomitenstrasse,8,1989451
4654,1989173,U-Bhf. Pankow,9,19892368
4655,1989174,"Buch, Am Sandhaus",0,1989343
4656,1989174,S-Bhf. Buch,1,19891855
4657,1989174,Zepernicker Strasse,2,19892624
4658,1989174,"Zepernick, Kirche",3,19892623
4659,1989175,Achtermannstrasse,0,19891
4660,1989175,Galenusstrasse,1,1989640
4661,1989175,Prenzlauer Chaussee,2,19891687
4662,1989175,Granitzstrasse,3,1989727
4663,1989175,Kissingenstrasse,4,19891088
4664,1989175,Kissingenplatz,5,19891087
4665,1989175,Stadtbezirksgericht,6,19892146
4666,1989175,U-Bhf. Pankow,7,19892368
4667,1989176,Degnerstrasse,0,1989425
4668,1989176,Gehrenseestrasse,1,1989654
4669,1989176,Marzahner Strasse,2,19891397
4672,1989176,Mischwerk,3,19891432
4675,1989176,Leninallee,4,19891249
4676,1989176,Allee der Kosmonauten,5,198926
4677,1989176,Kröver Strasse,6,19891172
4678,1989176,S-Bhf. Friedrichsfelde Ost,7,19891860
4679,1989176,Straße der Befreiung,8,19892185
4680,1989176,U-Bhf. Friedrichsfelde,9,19892319
4681,1989176,Mellenseestrasse,10,19891413
4682,1989176,U-Bhf. Tierpark,11,19892406
4683,1989177,S-Bhf. Marzahn,0,19891885
4684,1989177,Alt-Marzahn,1,198944
4685,1989177,Elisabethstrasse,2,1989501
4689,1989177,Cecilienstrasse,3,1989383
4690,1989177,S-Bhf. Biesdorf,4,19891852
4691,1989177,Alt-Biesdorf,5,198931
4692,1989177,S-Bhf. Friedrichsfelde Ost,6,19891860
4693,1989177,Straße der Befreiung,7,19892185
4694,1989177,Bhf. Lichtenberg,8,1989237
4696,1989178,Fontanestrasse,0,1989576
4697,1989178,Edelweißstrasse,1,1989472
4698,1989178,Ehrenmal Schönholz,2,1989476
4699,1989178,Heinrich-Mann-Strasse,3,1989859
4700,1989178,Bürgerpark,4,1989372
4701,1989178,U-Bhf. Pankow,5,19892368
4703,1989178,Prenzlauer Promenade,6,19891689
4704,1989178,"Heinersdorf, Kirche",7,1989854
4705,1989178,Pasedagplatz,8,19891622
4706,1989178,Klement-Gottwald-Allee,9,19891103
4707,1989178,Piesporter Strasse,10,19891652
4708,1989179,Gehringstrasse,0,1989657
4709,1989179,Rennbahnstrasse,1,19891771
4710,1989179,Wigandstaler Strasse,2,19892545
4711,1989179,Hamburger Platz,3,1989808
4712,1989179,Prenzlauer Promenade,4,19891688
4714,1989179,Greilstrasse,5,1989738
4716,1989179,Greifswalder Strasse,6,1989733
4717,1989179,Storkower Strasse,7,19892173
4718,1989179,S-Bhf. Leninallee,8,19891877
4719,1989179,Ho-Chi-Minh-Strasse,9,1989903
4720,1989179,Vulkanstrasse,10,19892451
4722,1989179,Herzbergstrasse,11,1989883
4723,1989179,Jacques-Duclos-Strasse,12,1989994
4724,1989179,S-Bhf. Storkower Strasse,13,19891915
4725,1989180,Michelangelostrasse,0,19891423
4726,1989180,Stedinger Weg,1,19892156
4727,1989180,Storkower Strasse,2,19892173
4728,1989180,Conrad-Blenke-Strasse,3,1989406
4729,1989180,Dimitroffstrasse,4,1989443
4730,1989180,Hufelandstrasse,5,1989949
4731,1989180,Bötzowstrasse,6,1989368
4732,1989180,Am Friedrichshain,7,198978
4733,1989180,Mollstrasse,8,19891441
4734,1989180,Karl-Liebknecht-Strasse,9,19891051
4735,1989180,Bhf. Alexanderplatz,10,1989228
4736,1989180,Palasthotel,11,19891597
4737,1989180,Universitätsstrasse,12,19892431
4738,1989180,Bhf. Friedrichstrasse,13,1989233
4739,1989180,Oranienburger Tor,14,19891553
4740,1989180,Schlegelstrasse,15,19891971
4741,1989180,Invalidenstrasse,16,1989989
4742,1989180,Platz vor dem Neuen Tor,17,19891665
4743,1989180,Orthopädische Klinik,18,19891559
4744,1989180,Scharnhorststrasse,19,19891957
4745,1989181,Stadion der Weltjugend,0,19892142
4746,1989181,Invalidenstrasse,1,1989989
4747,1989181,Oranienburger Tor,2,19891553
4748,1989181,Bhf. Friedrichstrasse,3,1989233
4749,1989181,U-Bhf. Stadtmitte,4,19892401
4750,1989181,Leipziger Strasse,5,19891246
4751,1989181,Otto-Grotewohl-Strasse,6,19891586
4753,1989182,S-Bhf. Kaulsdorf,0,19891873
4754,1989182,Briesener Weg,1,1989318
4755,1989182,Wernerbad,2,19892524
4756,1989182,Grottkauer Strasse,3,1989751
4757,1989182,Uckermarkstrasse,4,19892423
4758,1989182,S-Bhf. Kaulsdorf,5,19891873
4759,1989183,"Schöneiche, Dorfaue",0,19892030
4760,1989183,Dr.-Wilhelm-Külz-Strasse,1,1989457
4761,1989183,S-Bhf. Rahnsdorf,2,19891902
4762,1989183,Waldschänke,3,19892472
4763,1989183,Zentralschule,4,19892621
4764,1989183,S-Bhf. Wilhelmshagen,5,19891924
4765,1989183,Fahlenbergstrasse,6,1989529
4766,1989183,Hessenwinkel,7,1989887
4767,1989184,VEB Kombinat Auto Trans,0,19892439
4768,1989184,Bhf. Schöneweide,1,1989242
4769,1989184,Hoevelstrasse,2,1989912
4770,1989184,Springbornstrasse,3,19892132
4771,1989185,Krüllsstrasse,0,19891173
4772,1989185,S-Bhf. Treptower Park,1,19891918
4773,1989185,S-Bhf. Plänterwald,2,19891899
4774,1989185,Baumschulenstrasse,3,1989172
4775,1989185,Bhf. Schöneweide,4,1989242
4777,1989185,Rudower Strasse,5,19891825
4778,1989185,S-Bhf. Oberspree,6,19891891
4779,1989185,Oberspree,7,19891530
4780,1989186,Krüllsstrasse,0,19891173
4781,1989186,S-Bhf. Treptower Park,1,19891918
4782,1989186,S-Bhf. Plänterwald,2,19891899
4783,1989186,Baumschulenstrasse,3,1989172
4784,1989186,Bhf. Schöneweide,4,1989242
4785,1989186,Sterndamm,5,19892166
4786,1989186,Lindhorstweg,6,19891310
4787,1989186,Springbornstrasse,7,19892132
4788,1989187,S-Bhf. Treptower Park,0,19891918
4789,1989187,S-Bhf. Plänterwald,1,19891899
4790,1989187,Hänselstrasse,2,1989955
4791,1989187,Krematorium,3,19891160
4792,1989187,Bhf. Schöneweide,4,1989242
4793,1989187,VEB Kombinat Auto Trans,5,19892439
4794,1989188,Kaulsdorfer Strasse,0,19891072
4795,1989188,S-Bhf. Köpenick,1,19891874
4796,1989188,Lindenstrasse,2,19891306
4798,1989188,Müggelheimer Strasse,3,19891466
4799,1989188,"Krankenhaus, Köpenick",4,19891157
4800,1989188,Müggelschlößchenweg,5,19891467
4801,1989189,Arkonaplatz,0,1989128
4802,1989189,Invalidenstrasse,1,1989989
4803,1989189,Rosenthaler Platz,2,19891813
4804,1989189,Alexanderplatz,3,198922
4805,1989189,S-Bhf. Jannowitzbrücke,4,19891871
4807,1989189,Adalbertstrasse,5,19893
4808,1989189,U-Bhf. Märkisches Museum,6,19892360
4809,1989189,Oberwallstrasse,7,19891532
4810,1989189,Bhf. Friedrichstrasse,8,1989233
4811,1989189,Schumannstrasse,9,19892011
4813,1989190,Lindenberger Strasse,0,19891301
4815,1989190,S-Bhf. Ahrensfelde,1,19891847
4816,1989190,S-Bhf. Otto-Winzer-Strasse,2,19891893
4817,1989190,Otto-Buchwitz-Strasse,3,19891583
4818,1989190,Alt-Marzahn,4,198944
4819,1989190,Elisabethstrasse,5,1989501
4821,1989190,Otto-Buchwitz-Strasse,6,19891583
4822,1989190,Siegmarstrasse,7,19892083
4823,1989190,Hellersdorfer Strasse,8,1989863
4824,1989190,Kaulsdorf-Nord,9,19891071
4825,1989190,S-Bhf. Kaulsdorf,10,19891873
4826,1989191,S-Bhf. Marzahn,0,19891885
4827,1989191,S-Bhf. Bruno-Leuschner-Strasse,1,19891854
4828,1989191,Paul-Dessau-Strasse,2,19891625
4829,1989191,Alt-Marzahn,3,198944
4832,1989191,Charlottenstrasse,4,1989392
4834,1989191,Cecilienstrasse,5,1989382
4836,1989191,S-Bhf. Biesdorf,6,19891852
4838,1989192,Lindenhof,0,19891304
4839,1989192,Siegfriedstrasse,1,19892079
4841,1989192,Fanninger Strasse,2,1989543
4842,1989192,U-Bhf. Lichtenberg,3,19892353
4843,1989193,U-Bhf. Tierpark,0,19892406
4844,1989193,Zwieseler Strasse,1,19892656
4845,1989193,Robert-Siewert-Strasse,2,19891797
4846,1989193,Frankestrasse,3,1989582
4847,1989193,U-Bhf. Tierpark,4,19892406
4848,1989194,Greifswalder Strasse,0,1989732
4850,1989194,An den Siedlergärten,1,1989111
4851,1989194,Hönower Strasse,2,1989957
4852,1989194,Am Rosenhag,3,198996
4853,1989194,Lindenhofstrasse,4,19891305
4854,1989194,S-Bhf. Mahlsdorf,5,19891881
4855,1989194,Landréstrasse,6,19891226
4856,1989194,S-Bhf. Kaulsdorf,7,19891873
4857,1989194,Kaulsdorf-Nord,8,19891071
4858,1989194,Hellersdorf,9,1989862
4859,1989194,LPG Edwin-Hoernle,10,19891217
4860,1989194,Otto-Buchwitzstrasse,11,19891585
4861,1989194,Alt-Marzahn,12,198944
4862,1989194,Elisabethstrasse,13,1989501
4864,1989194,Bruno-Baum-Strasse,14,1989336
4865,1989194,S-Bhf. Marzahn,15,19891885
4866,1989195,S-Bhf. Nöldnerplatz,0,19891890
4867,1989195,Schlichtallee,1,19891975
4868,1989195,Kraftwerk,2,19891143
4869,1989195,IFA-Vertrieb,3,1989961
4870,1989195,Bhf. Karlshorst,4,1989235
4871,1989195,Waldowallee,5,19892467
4872,1989195,U-Bhf. Tierpark,6,19892406
4873,1989195,Mellenseestrasse,7,19891413
4874,1989195,Volkradstrasse,8,19892447
4875,1989195,Weitlingstrasse,9,19892507
4876,1989195,S-Bhf. Nöldnerplatz,10,19891890
4877,1989196,Rangierbahnhof,0,19891726
4878,1989196,S-Bhf. Karlshorst,1,19891872
4879,1989196,Sangeallee,2,19891948
4880,1989196,Wallensteinstrasse,3,19892474
4881,1989196,Dolgenseestrasse,4,1989450
4882,1989196,Rangierbahnhof,5,19891726
4883,1989197,Franz-Stenzer-Strasse,0,1989590
4884,1989197,S-Bhf. Bruno-Leuschner-Strasse,1,19891854
4885,1989197,Backwarenkombinat,2,1989155
4886,1989197,Arbeitsstättengebiet Marzahn,3,1989124
4887,1989198,Greifswalder Strasse,0,1989732
4889,1989198,Hönower Strasse,1,1989957
4890,1989198,Am Rosenhag,2,198996
4891,1989198,S-Bhf. Mahlsdorf,3,19891881
4892,1989198,Landréstrasse,4,19891226
4893,1989198,S-Bhf. Kaulsdorf,5,19891873
4894,1989198,"Kaulsdorf, Nord",6,19891070
4895,1989198,Otto-Buchwitzstrasse,7,19891585
4896,1989198,Alt-Marzahn,8,198944
4897,1989198,Elisabethstrasse,9,1989501
4899,1989198,S-Bhf. Springpfuhl,10,19891912
4900,1989198,Kröver Strasse,11,19891172
4901,1989198,S-Bhf. Friedrichsfelde Ost,12,19891860
