,line_id,stop_name,stop_order,stop_id
0,19631,Pankow (Vinetastrasse),0,1963232
1,19631,Schönhauser Allee,1,1963321
2,19631,Dimitroffstrasse,2,196375
3,19631,Luxemburgplatz,3,1963204
4,19631,Alexanderplatz,4,19631
5,19631,Klosterstrasse,5,1963173
6,19631,Spittelmarkt,6,1963328
7,19631,Stadtmitte,7,1963330
8,19631,Thälmannplatz,8,1963343
9,19632,Alexanderplatz,0,19631
10,19632,Schillingstrasse,1,1963311
11,19632,Strausberger Platz,2,1963340
12,19632,Marchlewskistrasse,3,1963210
13,19632,Frankfurter Tor,4,1963104
14,19632,Samariterstrasse,5,1963307
15,19632,Stalinallee (Ringbahn),6,1963331
16,19632,Magdalenenstrasse,7,1963205
17,19632,Bahnhof Lichtenberg (Zentralfriedhof),8,196326
18,19632,Friedrichsfelde (Tierpark),9,1963107
19,19633,Köpenickerstrasse Ecke Adalbertstrasse,0,1963190
20,19633,"Alexanderplatz, Grunerstrasse",1,19632
21,19634,Ostbahnhof,0,1963231
22,19634,Breslauerstrasse Ecke Andreasstrasse,1,196357
23,19634,U-Bhf. Strausberger Platz,2,1963353
24,19634,Leninplatz,3,1963197
25,19634,"Alexanderplatz, Memhardstrasse",4,19635
26,19634,Brunnenstrasse Ecke Invalidenstrasse,5,196358
27,19634,Oranienburger Tor,6,1963228
28,19634,Hannoversche Strasse,7,1963129
29,19635,S-Bhf. Warschauer Strasse,0,1963303
30,19635,Holteistrasse Ecke Boxhagener Strasse,1,1963149
31,19635,U- u. S-Bhf. Frankfurter Allee,2,1963346
32,19635,Roederplatz,3,1963263
33,19635,Hohenschönhauser Strasse,4,1963148
34,19635,Omnibus-Bf. Lichtenberger Strasse,5,1963225
35,19635,Klement-Gottwald-Allee,6,1963167
36,19635,Antonplatz,7,196324
37,19635,Prenzlauer Promenade,8,1963246
38,19635,Schönhauser Allee,9,1963320
39,19635,Björnsonstrasse Ecke Ibsenstrasse,10,196346
40,19636,S-Bhf. Warschauer Strasse,0,1963303
41,19636,Grünberger Strasse,1,1963123
42,19636,Frankfurter Tor,2,1963103
43,19636,Bersarinplatz,3,196333
44,19636,Leninallee,4,1963194
45,19636,Kniprodestrasse,5,1963174
46,19636,Greifswalder Strasse,6,1963116
47,19636,Prenzlauer Allee,7,1963243
48,19636,U-Bhf. Dimitroffstrasse,8,1963347
49,19637,S-Bhf. Warschauer Strasse,0,1963303
50,19637,Grünberger Strasse,1,1963123
51,19637,Frankfurter Tor,2,1963103
52,19637,Bersarinplatz,3,196333
53,19637,Leninallee,4,1963194
54,19637,Kniprodestrasse,5,1963174
55,19637,Greifswalder Strasse,6,1963116
56,19637,Prenzlauer Allee,7,1963243
57,19637,U-Bhf. Dimitroffstrasse,8,1963347
58,19637,Eberswalderstrasse Ecke Oderberger Strasse,9,196384
59,19638,Heinrich-Heine-Strasse Ecke Schmidtstrasse,0,1963139
60,19638,S-Bhf. Jannowitzbrücke,1,1963284
61,19638,"Alexanderplatz, Memhardstrasse",2,19635
62,19638,Brunnenstrasse Ecke Invalidenstrasse,3,196358
63,19638,Oranienburger Tor,4,1963228
64,19638,Bhf. Friedrichstrasse,5,196339
65,19638,Am Kupfergraben,6,196318
66,19639,"Rosenthal, Haupstrasse",0,1963264
67,19639,Nordendstrasse,1,1963222
68,19639,Kurt-Fischer-Platz,2,1963185
69,19639,"Pankow, Rathaus",3,1963236
70,19639,"Pankow, Kirche",4,1963234
71,19639,S-Bhf. Pankow,5,1963294
72,19639,U-Bhf. Pankow (Vinetastrasse),6,1963351
73,19639,Bornholmer Strasse Ecke Schönhauser Alle,7,196353
74,19639,S-Bhf. Schönhauser Allee,8,1963300
75,19639,U-Bhf. Dimitroffstrasse,9,1963347
76,19639,Rosenthaler Platz,10,1963266
77,19639,"Alexanderplatz, Memhardstrasse",11,19635
78,19639,S-Bhf. Jannowitzbrücke,12,1963284
79,196310,"Rosenthal, Haupstrasse",0,1963264
80,196310,Nordendstrasse,1,1963222
81,196310,Kurt-Fischer-Platz,2,1963185
82,196310,"Pankow, Rathaus",3,1963236
83,196310,"Pankow, Kirche",4,1963234
84,196310,S-Bhf. Pankow,5,1963294
85,196310,U-Bhf. Pankow (Vinetastrasse),6,1963351
86,196310,Bornholmer Strasse Ecke Schönhauser Alle,7,196353
87,196310,S-Bhf. Schönhauser Allee,8,1963300
88,196310,U-Bhf. Dimitroffstrasse,9,1963347
89,196310,Rosenthaler Platz,10,1963266
90,196310,"Alexanderplatz, Memhardstrasse",11,19635
91,196310,Wallnerstrasse Ecke Alexanderstrasse,12,1963361
92,196311,"Klingenberg, Blockdammweg",0,1963171
93,196311,Kraftwerk Klingenberg,1,1963180
94,196311,Karlshorster Strasse,2,1963161
95,196311,Boxhagenerstrasse Ecke Holteistrasse,3,196356
96,196311,Frankfurter Tor,4,1963103
97,196311,Bersarinplatz,5,196333
98,196311,Leninallee Ecke Dimitroffstrasse,6,1963195
99,196311,Kniprodestrasse Ecke Dimitroffstrasse,7,1963175
100,196311,Greifswalder Strasse Ecke Dimitroffstrasse,8,1963117
101,196311,Prenzlauer Allee Ecke Dimitroffstrasse,9,1963244
102,196311,U-Bhf. Dimitroffstrasse,10,1963347
103,196312,"Klingenberg, Blockdammweg",0,1963171
104,196312,Kraftwerk Klingenberg,1,1963180
105,196312,Karlshorster Strasse,2,1963161
106,196312,Boxhagenerstrasse Ecke Holteistrasse,3,196356
107,196312,Frankfurter Tor,4,1963103
108,196312,Bersarinplatz,5,196333
109,196312,Leninallee Ecke Dimitroffstrasse,6,1963195
110,196312,Kniprodestrasse Ecke Dimitroffstrasse,7,1963175
111,196312,Greifswalder Strasse Ecke Dimitroffstrasse,8,1963117
112,196312,Prenzlauer Allee Ecke Dimitroffstrasse,9,1963244
113,196312,U-Bhf. Dimitroffstrasse,10,1963347
114,196312,Eberswalderstrasse Ecke Oderberger Strasse,11,196384
115,196313,Nordend,0,1963221
116,196313,Ossietzkyplatz,1,1963229
117,196313,Kurt-Fischer-Platz,2,1963185
118,196313,"Pankow, Rathaus",3,1963236
119,196313,"Pankow, Kirche",4,1963234
120,196313,S-Bhf. Pankow,5,1963294
121,196313,U-Bhf. Pankow (Vinetastrasse),6,1963351
122,196313,Bornholmer Strasse Ecke Schönhauser Allee,7,196354
123,196313,S-Bhf. Schönhauser Allee,8,1963300
124,196313,U-Bhf. Dimitroffstrasse,9,1963347
125,196313,Brunnenstrasse Ecke Invalidenstrasse,10,196358
126,196313,Oranienburger Tor,11,1963228
127,196313,Bhf. Friedrichstrasse,12,196339
128,196313,Am Kupfergraben,13,196318
129,196314,"Bucholz, Hauptstrasse",0,196361
130,196314,Rosenthaler Strasse,1,1963267
131,196314,Blankenburger Strasse,2,196348
132,196314,Galenusstrasse/ Krankenhaus Pankow,3,1963110
133,196314,"Pankow, Kirche",4,1963234
134,196314,S-Bhf. Pankow,5,1963294
135,196314,U-Bhf. Pankow (Vinetastrasse),6,1963351
136,196314,Bornholmer Strasse Ecke Schönhauser Allee,7,196354
137,196314,S-Bhf. Schönhauser Allee,8,1963300
138,196314,U-Bhf. Dimitroffstrasse,9,1963347
139,196314,Rosenthaler Platz,10,1963266
140,196314,Hackescher Markt,11,1963127
141,196315,"Bucholz, Elfenallee",0,196360
142,196315,Bahnhofstrasse,1,196327
143,196315,Margaretenaue,2,1963211
144,196315,Galenusstrasse/ Krankenhaus Pankow,3,1963110
145,196315,S-Bhf. Pankow-Heinersdorf,4,1963295
146,196315,"Pankow, Kirche",5,1963234
147,196315,S-Bhf. Pankow,6,1963294
148,196315,U-Bhf. Pankow (Vinetastrasse),7,1963351
149,196315,Wisbyer Strasse Ecke Schönhauser Allee,8,1963390
150,196315,S-Bhf. Schönhauser Allee,9,1963300
151,196315,U-Bhf. Dimitroffstrasse,10,1963347
152,196315,Rosenthaler Platz,11,1963266
153,196315,S-Bhf. Marx-Engels-Platz,12,1963291
154,196315,Große Präsidentenstrasse,13,1963122
155,196316,"Hohenschönhausen, Gartenstadt",0,1963147
156,196316,Falkenbergerstrasse Ecke Wartenberger Strasse,1,196398
157,196316,Hauptstrasse/Berliner Strasse,2,1963132
158,196316,Degnerstrasse,3,196373
160,196316,Weißenseer Weg,4,1963378
161,196316,Steuerhaus,5,1963334
162,196316,Dimitroffstrasse Ecke Leninallee,6,196378
163,196316,Leninplatz,7,1963197
164,196316,"Alexanderplatz, Memhardstrasse",8,19635
165,196316,Hackescher Markt,9,1963127
166,196317,"Hohenschönhausen, Gartenstadt",0,1963147
167,196317,Falkenbergerstrasse Ecke Wartenberger Strasse,1,196398
168,196317,Hauptstrasse/Berliner Strasse,2,1963132
169,196317,Degnerstrasse,3,196373
171,196317,Weißenseer Weg,4,1963378
172,196317,Steuerhaus,5,1963334
173,196317,Bersarinstrasse Ecke Leninallee,6,196334
174,196317,Leninplatz,7,1963197
175,196317,"Alexanderplatz, Memhardstrasse",8,19635
176,196317,Große Präsidentenstrasse,9,1963122
177,196318,"Hohenschönhausen, Falkenberger Strasse",0,1963146
178,196318,Hauptstrasse/Berliner Strasse,1,1963132
180,196318,Degnerstrasse,2,196374
181,196318,Weißenseer Weg Ecke Berliner Strasse,3,1963379
182,196318,Steuerhaus,4,1963334
183,196318,Dimitroffstrasse Ecke Leninallee,5,196378
184,196318,Leninplatz,6,1963197
185,196318,"Alexanderplatz, Leninallee",7,19634
186,196318,S-Bhf. Jannowitzbrücke,8,1963284
187,196318,Heinrich-Heine-Strasse,9,1963138
188,196318,Spittelmarkt,10,1963327
189,196318,Dönhoffplatz,11,196383
190,196319,"Johannisthal, Haeckelstrasse",0,1963156
191,196319,Bhf. Schöneweide,1,196344
192,196319,Wilhelminenhofstrasse,2,1963385
193,196319,S-Bhf. Karlshorst,3,1963285
194,196319,Hochschule für Ökonomie,4,1963144
195,196319,Tierpark Berlin,5,1963344
196,196319,Alt-Friedrichsfele/Am Tierpark,6,196310
197,196319,Bhf. Lichtenberg,7,196341
198,196319,Bf. Siegfriedstrasse,8,196336
199,196319,Siegfriedstrasse Ecke Herzbergstrasse,9,1963325
200,196319,Roederplatz,10,1963263
201,196319,Steuerhaus,11,1963334
202,196319,Dimitroffstrasse Ecke Leninallee,12,196378
203,196319,Leninplatz,13,1963197
204,196319,"Alexanderplatz, Leninallee",14,19634
205,196319,Hackescher Markt,15,1963127
206,196319,Oranienburger Tor,16,1963228
207,196319,Walter-Ulbricht-Stadion,17,1963363
208,196320,"Hohenschönhausen, Falkenberger Strasse",0,1963146
209,196320,Hauptstrasse/Suermondstrasse,1,1963133
210,196320,Stadion Buschallee,2,1963329
211,196320,Buschallee/K.-Gottwald-Allee,3,196364
212,196320,Lichtenberger Strasse Ecke Buschallee,4,1963200
213,196320,Antonplatz,5,196324
214,196320,Prenzlauer Promenade,6,1963246
215,196320,Humannplatz,7,1963151
216,196320,U-Bhf. Dimitroffstrasse,8,1963347
217,196320,Brunnenstrasse Ecke Invalidenstrasse,9,196358
218,196320,Oranienburger Tor,10,1963228
219,196320,Bhf. Friedrichstrasse,11,196339
220,196320,Am Kupfergraben,12,196318
221,196321,"Heinersdorf, Romain-Rolland-Strasse",0,1963136
222,196321,"Heinersdorf, Kirche",1,1963135
223,196321,Am Steinberg,2,196321
224,196321,Prenzlauer Promenade (Spitze),3,1963248
225,196321,S-Bhf. Prenzlauer Allee,4,1963297
226,196321,Dimitroffstrasse Ecke Prenzlauer Allee,5,196379
227,196321,Saarbrücker Strasse Ecke Prenzlauer Allee,6,1963305
228,196321,"Alexanderplatz, Memhardstrasse",7,19635
229,196321,S-Bhf. Jannowitzbrücke,8,1963284
230,196321,Molkenmarkt,9,1963216
231,196322,"Heinersdorf, Romain-Rolland-Strasse",0,1963136
232,196322,"Heinersdorf, Kirche",1,1963135
233,196322,Am Steinberg,2,196321
234,196322,Prenzlauer Promenade (Spitze),3,1963248
235,196322,S-Bhf. Prenzlauer Allee,4,1963297
236,196322,Dimitroffstrasse Ecke Prenzlauer Allee,5,196379
237,196322,Prenzlauer Tor,6,1963252
238,196322,"Alexanderplatz, Grunerstrasse",7,19633
239,196322,Wallnerstrasse Ecke Alexanderstrasse,8,1963361
240,196322,Jüdenstrasse,9,1963158
241,196323,"Weißensee, Pasedagplatz",0,1963374
242,196323,Klement-Gottwald-Allee/Rennbahnstrasse,1,1963170
243,196323,Buschallee,2,196362
244,196323,Lichtenberger Strasse,3,1963199
245,196323,Antonplatz,4,196324
246,196323,Prenzlauer Promenade,5,1963246
247,196323,S-Bhf. Prenzlauer Allee,6,1963297
248,196323,Dimitroffstrasse Ecke Prenzlauer Allee,7,196379
249,196323,Saarbrücker Strasse Ecke Prenzlauer Allee,8,1963305
250,196323,"Alexanderplatz, Memhardstrasse",9,19635
251,196323,Molkenmarkt,10,1963216
252,196323,Spittelmarkt,11,1963327
253,196323,Charlottenstrasse,12,196369
254,196323,Taubenstrasse Ecke Glinkastrasse,13,1963341
255,196324,"Weißensee, Pasedagplatz/Klement-Gottwald-Allee",0,1963375
256,196324,Antonplatz,1,196324
257,196324,S-Bhf. Greifswalder Strasse,2,1963280
258,196324,Dimitroffstrasse Ecke Greifswalderstrasse,3,196377
259,196324,Königstor,4,1963189
260,196324,"Alexanderplatz, Memhardstrasse",5,19635
261,196324,Molkenmarkt,6,1963216
262,196324,Spittelmarkt,7,1963327
263,196324,Wilhelmstrasse,8,1963389
264,196325,Rennbahnstrasse Ecke Bernkasteler Strasse,0,1963256
265,196325,Lichtenberger Strasse,1,1963199
266,196325,Antonplatz,2,196324
267,196325,S-Bhf. Greifswalder Strasse,3,1963280
268,196325,Dimitroffstrasse Ecke Greifswalderstrasse,4,196377
269,196325,Königstor,5,1963189
270,196325,"Alexanderplatz, Memhardstrasse",6,19635
271,196325,Molkenmarkt,7,1963216
272,196325,Spittelmarkt,8,1963327
273,196325,Wilhelmstrasse,9,1963389
274,196326,"Mahlsdorf-Süd, Hubertus",0,1963207
275,196326,S-Bhf. Köpenick,1,1963288
276,196326,Lindenstrasse/Hegelschule,2,1963203
277,196326,Parkstrasse Ecke An der Wuhlheide,3,1963238
278,196326,Edisonstrasse Ecke An der Wuhlheide,4,196386
279,196326,Ehrlichstrasse Ecke Treskowallee,5,196388
280,196326,Kraftwerk Klingenberg,6,1963180
281,196326,S-Bhf. Ostkreuz,7,1963292
282,196326,Stralauer Allee,8,1963337
283,196326,Warschauer Strasse,9,1963367
284,196326,Ostbahnhof,10,1963231
285,196326,S-Bhf. Jannowitzbrücke,11,1963284
286,196326,"Alexanderplatz, Memhardstrasse",12,19635
287,196326,Rosenthaler Platz,13,1963266
288,196326,Brunnenstrasse Ecke Invalidenstrasse,14,196358
289,196326,Invalidenstrasse Ecke Chausseestrasse,15,1963154
290,196326,Walter-Ulbricht-Stadion,16,1963363
291,196327,Wendenschloß,0,1963380
292,196327,VEB Schiffswerft,1,1963358
293,196327,Strab. Bf. Köpenick,2,1963335
294,196327,Bahnhofstrasse/Lindenstrasse,3,196330
295,196327,Seelenbinderstrasse,4,1963322
297,196327,S-Bhf. Köpenick,5,1963288
298,196327,Mahlsdorf-Süd,6,1963206
299,196327,Bürgerwäldchen,7,196366
300,196327,Rahnsdorfer Strasse Ecke Hultschiner Damm,8,1963255
301,196327,S-Bhf. Mahlsdorf,9,1963290
302,196328,"Altglienicke, Am Falkenberg",0,196315
303,196328,"Altglienicke, Kirche",1,196317
304,196328,S-Bhf. Adlershof,2,1963270
305,196328,S-Bhf. Spindlersfeld,3,1963301
306,196328,Köllnischer Platz,4,1963186
307,196328,Bahnhofstrasse Ecke Lindenstrasse,5,196329
309,196328,Seelenbinderstrasse,6,1963323
310,196328,Hirschgarten,7,1963142
311,196328,S-Bhf. Friedrichshagen,8,1963279
312,196328,"Bölschestrasse, Brauerei",9,196365
313,196328,"Friedrichshagen, Wasserwerk",10,1963108
314,196329,Alt-Schmöckwitz,0,196314
315,196329,Karolinenhof Mitte,1,1963162
316,196329,Richtershorn,2,1963258
317,196329,Freibad Grünau,3,1963105
318,196329,S-Bhf. Grünau,4,1963282
319,196329,Chemische Fabrik,5,196370
320,196329,Köllnischer Platz,6,1963186
321,196329,Bahnhofstrasse Ecke Lindenstrasse,7,196329
323,196329,Seelenbinderstrasse,8,1963323
324,196329,S-Bhf. Köpenick,9,1963288
325,196329,Hirtestrasse,10,1963143
326,196329,"Mahlsdorf-Süd, Hubertus",11,1963207
327,196330,Rahnsdorf,0,1963254
328,196330,Wasserwerk,1,1963370
329,196330,S-Bhf. Friedrichshagen,2,1963279
330,196330,"Bölschestrasse, Brauerei",3,196365
331,196330,Hirschgarten,4,1963142
332,196330,Seelenbinderstrasse Ecke Bahnhofstrasse,5,1963324
333,196330,Bahnhofstrasse Ecke Lindenstrasse,6,196329
334,196330,Parkstrasse,7,1963237
335,196330,Wilhelminenhofstrasse Ecke Edisonstrasse,8,1963386
336,196330,"Bhf. Schöneweide, Brückenstrasse",9,196345
337,196330,Kali-Chemie,10,1963159
338,196330,Baumschulenstrasse,11,196332
339,196330,S-Bhf. Plänterwald,12,1963296
340,196330,Elsenstrasse/S-Bhf. Treptower Park,13,196394
341,196330,"Wiener Brücke, Krüllstrasse",14,1963384
342,196331,"Oberspree, Bruno-Bürgel-Weg",0,1963224
343,196331,Bhf. Schöneweide,1,196344
344,196331,Kali-Chemie,2,1963159
345,196331,Baumschulenstrasse,3,196332
346,196331,S-Bhf. Plänterwald,4,1963296
347,196331,Elsenstrasse/S-Bhf. Treptower Park,5,196394
348,196331,Wiener Brücke,6,1963383
349,196332,Krankenhaus Köpenick,0,1963182
350,196332,Lindenstrasse Ecke Bahnhofstrasse,1,1963202
351,196332,Parkstrasse Ecke An der Wulheide,2,1963239
352,196332,Edisonstrasse Ecke An der Wuhlheide,3,196386
353,196332,Bhf. Schöneweide,4,196344
354,196332,Kali-Chemie,5,1963159
355,196332,Baumschulenstrasse,6,196332
356,196332,S-Bhf. Baumschulenweg,7,1963275
357,196333,S-Bhf. Baumschulenweg,0,1963275
358,196333,Sonnenallee,1,1963326
359,196334,Klosterstrasse,0,1963172
360,196334,Andreasstrasse,1,196323
361,196334,Küstriner Platz,2,1963191
362,196334,Warschauer Strasse,3,1963366
363,196334,Boxhagenerstrasse Ecke Holteistrasse,4,196355
364,196334,S-Bhf. Rummelsburg,5,1963299
365,196334,Bhf. Lichtenberg,6,196340
366,196334,Bf. Siegfriedstrasse,7,196335
367,196334,Roederplatz,8,1963262
368,196334,Proskauerstrasse Ecke Dolziger Strasse,9,1963253
369,196334,Ebertystrasse Ecke Leninallee,10,196385
370,196334,Greifswalderstrasse Ecke Dimitroffstrasse,11,1963119
371,196334,S-Bhf. Alexanderplatz,12,1963272
372,196334,Klosterstrasse,13,1963172
373,196335,Bf. Siegfriedstrasse,0,196335
374,196335,Bhf. Lichtenberg,1,196340
375,196335,Alt-Friedrichsfelde/Am Tierpark,2,19639
376,196335,"Alt-Biesdorf, Oberfeldstrasse",3,19637
377,196335,S-Bhf. Biesdorf,4,1963276
378,196335,Elisabethstrasse,5,196393
379,196335,"Alt-Marzahn, Kirche",6,196312
380,196335,Marzahner Chaussee,7,1963215
381,196335,Bürknersfelde,8,196368
382,196335,Dingelstädter Strasse,9,196381
383,196335,Genslerstrasse/Siegfriedstrasse,10,1963112
384,196335,Weißenseer Weg,11,1963377
385,196335,Steuerhaus,12,1963333
386,196335,Dimitroffstrasse/Leninallee,13,196380
387,196336,Ostbahnhof,0,1963230
388,196336,Küstriner Platz,1,1963191
389,196336,Karl-Marx-Allee,2,1963160
390,196336,Leninplatz,3,1963196
391,196336,Königstor,4,1963188
392,196336,Prenzlauer Tor,5,1963251
393,196336,Rosenthaler Platz,6,1963265
394,196336,Oranienburger Tor,7,1963227
395,196336,Robert-Koch-Platz,8,1963261
396,196337,"Glienicke, Kirche",0,1963113
397,196337,Elsässer Strasse,1,196395
398,196337,"Schildow, Kirche",2,1963310
399,196337,"Blankenfelde, Hauptstrasse",3,196349
400,196337,Nordend,4,1963220
401,196337,Kurt-Fischer-Platz,5,1963184
402,196337,"Pankow, Rathaus",6,1963235
403,196337,U-Bhf. Pankow (Vinetastrasse),7,1963350
404,196338,"Waldesruh, Mahlsdorfer Allee",0,1963359
405,196338,Fichtestrasse Ecke Schopenhauerstrasse,1,1963102
406,196338,Hultschiner Damm,2,1963150
407,196338,Sadowastrasse,3,1963306
408,196338,Chemnitzerstrasse Ecke Ulmenstrasse,4,196372
409,196338,"Alt-Biesdorf, Oberfelderstrasse",5,19636
410,196338,Alt-Friedrichsfelde/Am Tierpark,6,19638
411,196338,U-Bhf. Friedrichsfelde (Tierpark),7,1963349
412,196339,Kurische Strasse,0,1963183
413,196339,Dimitroffstrasse Ecke Bötzowstrasse,1,196376
414,196339,Königstor,2,1963187
415,196339,S-Bhf. Alexanderplatz,3,1963271
416,196339,Marx-Engels-Platz,4,1963213
417,196339,Friedrichstrasse Ecke Unter den Linden,5,1963109
418,196339,Bhf. Friedrichstrasse,6,196338
419,196339,Oranienburger Tor,7,1963226
420,196339,Platz vor dem Neuen Tor,8,1963241
421,196339,Scharnhorststrasse Ecke Kieler Strasse,9,1963309
422,196340,Kurische Strasse,0,1963183
423,196340,Arnswalder Platz,1,196325
424,196340,Königstor,2,1963187
425,196340,S-Bhf. Alexanderplatz,3,1963271
426,196340,Marx-Engels-Platz,4,1963213
427,196340,Friedrichstrasse Ecke Unter den Linden,5,1963109
428,196340,Bhf. Friedrichstrasse,6,196338
429,196340,Oranienburger Tor,7,1963226
430,196340,Platz vor dem Neuen Tor,8,1963241
431,196340,Scharnhorststrasse Ecke Kieler Strasse,9,1963309
432,196341,"Hessenwinkel, Lindenstrasse",0,1963141
433,196341,Fahlenbergstrasse/Fürstenwalder Allee,1,196396
434,196341,S-Bhf. Wilhelmshagen,2,1963304
435,196341,Zentralschule,3,1963394
436,196341,Waldschänke,4,1963360
437,196341,S-Bhf. Rahnsdorf,5,1963298
438,196341,"Fichtenau, Stadtgrenze",6,1963101
439,196342,S-Bhf. Altglienicke,0,1963273
440,196342,Wendenstrasse,1,1963381
441,196342,Normannenstrasse,2,1963223
442,196342,Wolfmarsteig,3,1963391
443,196342,Schönefelder Chaussee,4,1963318
444,196342,"Altglienicke, Kirche",5,196316
445,196343,"Schönefeld, Flughafen Süd",0,1963315
446,196343,Waßmannsdorfer Weg,1,1963372
447,196343,Waltersdorfer Chaussee,2,1963365
448,196343,Bhf. Schönefeld,3,196342
449,196343,"Schönefeld, Kirche",4,1963317
450,196343,"Schönefeld, Flughafen Nord",5,1963314
451,196344,"Schönefeld, Flughafen Süd",0,1963315
452,196344,Waßmannsdorfer Weg,1,1963372
453,196344,Kienbergstrasse,2,1963165
454,196344,Bhf. Schönefeld,3,196342
455,196344,"Schönefeld, Kirche",4,1963317
456,196344,"Schönefeld, Flughafen Nord",5,1963314
457,196345,VEB Baustransporte,0,1963357
458,196345,Bhf. Schöneweide,1,196343
459,196346,Müggelheim,0,1963217
460,196346,Müggelseeperle,1,1963218
461,196346,Krankenhaus Köpenick,2,1963181
462,196346,Bahnhofstrasse Ecke Lindenstrasse,3,196328
463,196346,S-Bhf. Köpenick,4,1963287
464,196346,Wongrowitzer Steig,5,1963393
465,196346,Ulmenstrasse,6,1963356
466,196346,Chemnitzer Strasse/Alt-Kaulsdorf,7,196371
467,196346,"S-Bhf. Kaulsdorf, Planitzstrasse",8,1963286
468,196347,"Schönefeld, Gartenstrasse",0,1963316
469,196347,S-Bhf. Grünbergallee,1,1963283
470,196347,"Bohnsdorf, Kirche",2,196351
471,196347,Gartenstadtweg,3,1963111
472,196347,S-Bhf. Grünau,4,1963281
473,196347,Gartenstadtweg,5,1963111
474,196347,"Bohnsdorf, Kirche",6,196351
475,196347,S-Bhf. Grünbergallee,7,1963283
477,196348,Waltersdorf,0,1963364
478,196348,"Bohnsdorf, Waldstrasse",1,196352
479,196348,Eichbuschplatz,2,196390
480,196348,Joachimstrasse,3,1963155
481,196348,S-Bhf. Grünau,4,1963281
482,196349,"Wartenberg, Siedlung",0,1963369
483,196349,"Wartenberg, Dorfstrasse",1,1963368
484,196349,Falkenberger Chaussee,2,196397
485,196349,"Kolonie ""Land im Sonne""",3,1963177
487,196350,"Buch, Kiesgruben",0,196359
488,196350,Karower Strasse/Alt-Buch,1,1963163
489,196350,Strasse 78,2,1963338
490,196350,"Alt-Karow, Bahnhofstrasse",3,196311
491,196350,Güteraußenring,4,1963125
492,196350,"Blankenburg, Bahnhofstrasse",5,196347
493,196350,"Heinersdorf, Kirche",6,1963134
494,196350,Am Steinberg,7,196320
495,196350,Prenzlauer Promenade (Spitze),8,1963247
496,196351,Bürknersfelde,0,196367
497,196351,"Marzahn, Berliner Chaussee",1,1963214
498,196351,Güterbahnhof Springpfuhl,2,1963126
499,196351,S-Bhf. Friedrichsfelde-Ost,3,1963277
500,196351,Alt-Friedrichsfelde/Am Tierpark,4,19638
501,196351,U-Bhf. Friedrichsfelde (Tierpark),5,1963349
502,196352,"Hönow, Dorfstrasse",0,1963152
503,196352,Greifswalder Strasse,1,1963115
504,196352,Am Rosenhag,2,196319
505,196352,S-Bhf. Mahlsdorf,3,1963289
506,196353,Greifswalder Strasse Ecke Hönower Strasse,0,1963118
507,196353,Am Rosenhag,1,196319
508,196353,S-Bhf. Mahlsdorf,2,1963289
509,196354,"Wilhelmsruh, Fontanestrasse",0,1963387
510,196354,Hauptstrasse Ecke Edelweißstrasse,1,1963130
511,196354,Ehrenmal,2,196387
512,196354,Heinrich-Mann-Platz,3,1963140
513,196354,"Pankow, Rathaus",4,1963235
514,196354,"Pankow, Kirche",5,1963233
515,196354,S-Bhf. Pankow,6,1963293
516,196354,Prenzlauer Promenade Ecke Kissingenstrasse,7,1963250
517,196354,Am Steinberg,8,196320
518,196354,Langhansstrasse Ecke Gustav-Adolf-Strasse,9,1963193
519,196354,Klement-Gottwald-Allee/Rennbahnstrasse,10,1963169
521,196355,"Ahrensfelde, Kirche",0,19630
522,196355,LPG Falkenberg,1,1963192
523,196355,Strasse nach Wartenberg,2,1963339
524,196355,Malchower Weg,3,1963209
525,196355,Buschallee Ecke Klement-Gottwald-Allee,4,196363
526,196355,Klement-Gottwald-Allee/Rennbahnstrasse,5,1963169
527,196355,Feldtmannstrasse,6,1963100
528,196355,"Malchow, Dorfstrasse",7,1963208
529,196356,Bhf. Schöneweide,0,196343
530,196356,Sterndamm,1,1963332
531,196356,Johannisthaler Chaussee,2,1963157
532,196356,Baumschulenstrasse,3,196331
533,196356,S-Bhf. Baumschulenweg,4,1963274
534,196356,Eichbuschallee,5,196389
535,196356,"Treptow, Rathaus",6,1963345
536,196356,S-Bhf. Treptower Park,7,1963302
537,196357,"Kaulsdorf, Bausdorfstrasse",0,1963164
538,196357,Ridbacher Strasse,1,1963259
539,196357,Grottkauer Strasse,2,1963120
540,196357,Uckermarkstrasse,3,1963355
541,196357,"Kaulsdorf, Bausdorfstrasse",4,1963164
542,196358,"Wilhelmsruh, Fontanestrasse",0,1963387
543,196358,Hauptstrasse Ecke Edelweißstrasse,1,1963130
544,196358,Ehrenmal,2,196387
545,196358,Heinrich-Mann-Platz,3,1963140
546,196358,"Pankow, Rathaus",4,1963235
547,196358,"Pankow, Kirche",5,1963233
548,196358,S-Bhf. Pankow,6,1963293
549,196358,Prenzlauer Promenade Ecke Granitzstrasse,7,1963249
550,196358,Heinersdorf/Kirche,8,1963137
551,196358,Am Steinberg/Thulestrasse,9,196322
552,196358,Langhansstrasse Ecke Gustav-Adolf-Strasse,10,1963193
553,196358,Hamburger Platz,11,1963128
554,196358,Gustav-Adolf-Strasse Ecke Rennbahnstrasse,12,1963124
555,196358,Klement-Gottwald-Allee Ecke Rennbahnstrasse,13,1963168
557,196359,"Weißensee, Nüßlerstrasse",0,1963373
558,196359,Rennbahnstrasse Ecke Gustav-Adolf-Strasse,1,1963257
559,196359,Hamburger Platz,2,1963128
560,196359,Prenzlauer Promenade,3,1963245
561,196359,Wicherstrasse Ecke Prenzlauer Allee,4,1963382
562,196360,Kniprodestrasse/Ermländische Strasse,0,1963176
563,196360,Königstor,1,1963187
564,196360,S-Bhf. Alexanderplatz,2,1963271
565,196360,Marx-Engels-Platz,3,1963213
566,196360,Friedrichstrasse Ecke Unter den Linden,4,1963109
567,196360,Bhf. Friedrichstrasse,5,196338
568,196360,Schumannstrasse,6,1963312
569,196360,Robert-Koch-Platz,7,1963260
570,196360,Scharnhorststrasse,8,1963308
571,196361,"Wilhelmsruh, Fontanestrasse",0,1963387
572,196361,Hauptstrasse Ecke Hertzstrasse,1,1963131
573,196361,Ehrenmal,2,196387
574,196361,Heinrich-Mann-Platz,3,1963140
575,196361,"Pankow, Rathaus",4,1963235
576,196361,"Pankow, Kirche",5,1963233
577,196361,S-Bhf. Pankow,6,1963293
578,196361,U-Bhf. Pankow (Vinetastrasse),7,1963350
579,196362,Walter-Ulbricht-Stadion,0,1963362
580,196362,Invalidenstrasse Ecke Chausseestrasse,1,1963153
581,196362,Oranienburger Tor,2,1963226
582,196362,Bhf. Friedrichstrasse,3,196338
583,196362,U-Bhf. Franzsösische Strasse,4,1963348
584,196362,U-Bhf. Stadtmitte,5,1963352
585,196362,Wilhelmstrasse,6,1963388
586,196362,U-Bhf. Thälmannplatz,7,1963354
587,196363,"Stralau, Kinderheim",0,1963336
588,196363,Friedrich-Junge-Strasse,1,1963106
589,196363,Markgrafendamm,2,1963212
590,196364,Neu-Lindenberg,0,1963219
591,196364,Lindenberg,1,1963201
592,196364,"Malchow, Dorfstrasse",2,1963208
593,196365,Groß Ziethen,0,1963121
594,196365,Klein Ziethen,1,1963166
595,196365,Waßmannsdorf,2,1963371
596,196365,"Schönefeld, Kirche",3,1963317
597,196365,Bhf. Schönefeld,4,196342
598,196366,S-Bhf. Friedrichshagen,0,1963278
599,196366,"Schöneiche, Goethepark",1,1963319
600,196366,Dorfaue,2,196382
601,196366,"Rüdersdorf, Thälmannplatz",3,1963269
602,196366,Post,4,1963242
603,196366,"Rüdersdorf, Karl-Marx-Platz",5,1963268
604,196367,S-Bhf. Rahnsdorf,0,1963298
605,196367,Goethestrasse,1,1963114
606,196367,Eichendamm,2,196391
607,196367,Lerchenstrasse,3,1963198
608,196367,Fasanenstrasse,4,196399
609,196367,Thälmannplatz,5,1963342
610,196367,Blumenstrasse,6,196350
611,196367,Woltersdorfer Schleuse,7,1963392
612,196368,Alt-Schmöckwitz,0,196313
613,196368,"Eichwalde, Uhlandstrasse",1,196392
614,196368,Bhf. Eichwalde,2,196337
615,196369,Alt-Schmöckwitz,0,196313
616,196369,Konsum Wernsdorf,1,1963178
617,196369,Konsum Ziegenhals,2,1963179
618,196369,"Ziegenhals, VA-Dienststelle",3,1963395
