,stop_id,stop_name,type,location,in_lines,identifier
0,19630,"Ahrensfelde, Kirche",Autobus,"52.57532251281871, 13.576456279814597",['A 46'],
1,19631,Alexanderplatz,u-bahn,"52.5214,13.4119","['E', 'A']",Q17173458
2,19632,"Alexanderplatz, Grunerstrasse",Omnibus,"52.52008326268696, 13.41408418961877",['1'],
3,19633,"Alexanderplatz, Grunerstrasse",strassenbahn,"52.52008326268696, 13.41408418961877",['71'],
4,19634,"Alexanderplatz, Leninallee",strassenbahn,"52.522103158947594, 13.416511130432587","['69', '64']",
5,19635,"Alexanderplatz, Memhardstrasse",strassenbahn,"52.5233439,13.4110773","['22', '1', '11'], ['82', '74', '63', '71', '72']","Q65227406, Q65227406"
6,19636,"Alt-Biesdorf, Oberfelderstrasse",Autobus,"52.50918606891929, 13.553347058493491",['A 8'],
7,19637,"Alt-Biesdorf, Oberfeldstrasse",Omnibus,"52.50918606891929, 13.553347058493491",['O 37'],
8,19638,Alt-Friedrichsfelde/Am Tierpark,Autobus,"52.5097025850849, 13.518832511815527","['A 43', 'A 8']",
9,19639,Alt-Friedrichsfelde/Am Tierpark,Omnibus,"52.5097025850849, 13.518832511815527",['O 37'],
10,196310,Alt-Friedrichsfele/Am Tierpark,strassenbahn,"52.50914093654053, 13.518129930582422",['69'],
11,196311,"Alt-Karow, Bahnhofstrasse",Autobus,"52.60931228539711, 13.481265848599735",['A 42'],
12,196312,"Alt-Marzahn, Kirche",Omnibus,"52.542423454435976, 13.564061751343658",['O 37'],
13,196313,Alt-Schmöckwitz,Autobus,"52.37536708814027, 13.649399886968025","['Schmöckwitz - Ziegenhals', 'Schmöckwitz - Eichwalde']",
14,196314,Alt-Schmöckwitz,strassenbahn,"52.3752767,13.649549",['86'],Q66459540
15,196315,"Altglienicke, Am Falkenberg",strassenbahn,"52.41079970042163, 13.570452931545786",['84'],
16,196316,"Altglienicke, Kirche",Autobus,"52.421845729296805, 13.539407702079252",['A 23'],
17,196317,"Altglienicke, Kirche",strassenbahn,"52.421845729296805, 13.539407702079252",['84'],
18,196318,Am Kupfergraben,strassenbahn,"52.5194208,13.3953839","['70', '46', '11']",Q65055027
19,196319,Am Rosenhag,Autobus,"52.52474356253909, 13.621775828105108","['A 44', 'A 44 E']",
20,196320,Am Steinberg,Autobus,"52.55648144940878, 13.429306764151775","['A 45', 'A 42']",
21,196321,Am Steinberg,strassenbahn,"52.5585796,13.4333751",['71'],Q65103320
22,196322,Am Steinberg/Thulestrasse,Autobus,"52.55644689291127, 13.429226457898798",['A 55'],
23,196323,Andreasstrasse,Omnibus,"52.51797306914227, 13.432895480772247",['O 30'],
24,196324,Antonplatz,strassenbahn,"52.5484803,13.4517416","['70', '72', '74', '3']",Q65548849
25,196325,Arnswalder Platz,Autobus,"52.53376530892205, 13.438121296337357",['A 9'],
26,196326,Bahnhof Lichtenberg (Zentralfriedhof),u-bahn,"52.510556,13.496389",['E'],Q3831986
27,196327,Bahnhofstrasse,strassenbahn,"52.59633,13.432876",['49'],Q66192394
28,196328,Bahnhofstrasse Ecke Lindenstrasse,Autobus,"52.45096281111, 13.572146868709519",['A 27'],
29,196329,Bahnhofstrasse Ecke Lindenstrasse,strassenbahn,"52.4505094,13.572684","['84', '87', '86']",Q66095701
30,196330,Bahnhofstrasse/Lindenstrasse,strassenbahn,"52.4505094,13.572684",['83'],Q66095701
31,196331,Baumschulenstrasse,Autobus,"52.460823690124585, 13.503654622533428",['A 47'],
32,196332,Baumschulenstrasse,strassenbahn,"52.46085478943951, 13.481376331759526","['87', '92', '95']",
33,196333,Bersarinplatz,strassenbahn,"52.519215,13.4525257","['13', '4']",Q65706258
34,196334,Bersarinstrasse Ecke Leninallee,strassenbahn,"52.52637416456414, 13.447600391274861",['63'],
35,196335,Bf. Siegfriedstrasse,Omnibus,"52.520558278471135, 13.49943441740371","['O 30', 'O 37']",
36,196336,Bf. Siegfriedstrasse,strassenbahn,"52.52557752899851, 13.49972478101036",['69'],
37,196337,Bhf. Eichwalde,Autobus,"52.371950560017005, 13.614447144096058",['Schmöckwitz - Eichwalde'],
38,196338,Bhf. Friedrichstrasse,Autobus,"52.5205606637086, 13.388231915342985","['A 57', 'A 9', 'A 59']",
39,196339,Bhf. Friedrichstrasse,strassenbahn,"52.5192805,13.3884107","['11'], ['70', '46']","Q65095382, Q65095382"
40,196340,Bhf. Lichtenberg,Omnibus,"52.5442346,13.4687215","['O 30', 'O 37']",Q65939077
41,196341,Bhf. Lichtenberg,strassenbahn,"52.5123603,13.4977547",['69'],Q66013733
42,196342,Bhf. Schönefeld,Autobus,"52.38192403313463, 13.511545079208773","['A Z', 'A 24']",
43,196343,Bhf. Schöneweide,Autobus,"52.45374952013775, 13.510200397684477","['A 47', 'A 26']",
44,196344,Bhf. Schöneweide,strassenbahn,"52.4553413,13.5110449","['69', '92', '95']",Q65950245
45,196345,"Bhf. Schöneweide, Brückenstrasse",strassenbahn,"52.45648404130997, 13.509984392000785",['87'],
46,196346,Björnsonstrasse Ecke Ibsenstrasse,strassenbahn,"52.55438588228195, 13.40316116759326",['3'],
47,196347,"Blankenburg, Bahnhofstrasse",Autobus,"52.591380472079955, 13.453512267562314",['A 42'],
48,196348,Blankenburger Strasse,strassenbahn,"52.58856735400595, 13.430204947038318",['49'],
49,196349,"Blankenfelde, Hauptstrasse",Autobus,"52.63002534735451, 13.38262328371393",['A 7'],
50,196350,Blumenstrasse,Autobus,"52.44932599725309, 13.759715132008731",['S-Bhf. Rahnsdorf - Woltersdorfer Schleuse'],
51,196351,"Bohnsdorf, Kirche",Autobus,"52.39948771402893, 13.555574431978044",['A 36'],
52,196352,"Bohnsdorf, Waldstrasse",Autobus,"52.389397192754984, 13.570666562153916",['A 38'],
53,196353,Bornholmer Strasse Ecke Schönhauser Alle,strassenbahn,"52.553700502372415, 13.414415773259165",['22'],
54,196354,Bornholmer Strasse Ecke Schönhauser Allee,strassenbahn,"52.5537705,13.4138898","['46'], ['49']","Q65076842, Q65076842"
55,196355,Boxhagenerstrasse Ecke Holteistrasse,Omnibus,"52.508613193309614, 13.466277189422302",['O 30'],
56,196356,Boxhagenerstrasse Ecke Holteistrasse,strassenbahn,"52.5088235,13.465969",['13'],"Q65675805, Q65675805"
57,196357,Breslauerstrasse Ecke Andreasstrasse,strassenbahn,"52.51112572772843, 13.430544216648766",['1'],
58,196358,Brunnenstrasse Ecke Invalidenstrasse,strassenbahn,"52.5324542,13.3974236","['1', '11'], ['82', '70', '46']","Q65691740, Q65691740"
59,196359,"Buch, Kiesgruben",Autobus,"52.641758052786535, 13.515964627443202",['A 42'],
60,196360,"Bucholz, Elfenallee",strassenbahn,"52.60622577373445, 13.436532929306946",['49'],
61,196361,"Bucholz, Hauptstrasse",strassenbahn,"52.60726996020294, 13.433394005316927",['49'],
62,196362,Buschallee,strassenbahn,"52.553924140794436, 13.467529287034905",['72'],
63,196363,Buschallee Ecke Klement-Gottwald-Allee,Autobus,"52.55387173520125, 13.467543412166556",['A 46'],
64,196364,Buschallee/K.-Gottwald-Allee,strassenbahn,"52.553924140794436, 13.467529287034905",['70'],
65,196365,"Bölschestrasse, Brauerei",strassenbahn,"52.44699265840037, 13.624251999339991","['84', '87']",
66,196366,Bürgerwäldchen,strassenbahn,"52.48924332057368, 13.606368760127548",['83'],Q66364551
67,196367,Bürknersfelde,Autobus,"52.538889807153126, 13.534159376784622",['A 43'],
68,196368,Bürknersfelde,Omnibus,"52.538889807153126, 13.534159376784622",['O 37'],
69,196369,Charlottenstrasse,strassenbahn,"52.51050786460274, 13.391831492474326",['72'],
70,196370,Chemische Fabrik,strassenbahn,"52.42696432509712, 13.573540465650169",['86'],
71,196371,Chemnitzer Strasse/Alt-Kaulsdorf,Autobus,"52.5051288553116, 13.581585054064426",['A 27'],
72,196372,Chemnitzerstrasse Ecke Ulmenstrasse,Autobus,"52.487292887135375, 13.574950596463296",['A 8'],
73,196373,Degnerstrasse,strassenbahn,"52.54488036635163, 13.493949954029993",['63'],
74,196374,Degnerstrasse,strassenbahn,"52.54489445227284, 13.493984825262666",['64'],
75,196375,Dimitroffstrasse,u-bahn,"52.541666666667,13.412222222222",['A'],Q571382
76,196376,Dimitroffstrasse Ecke Bötzowstrasse,Autobus,"52.53414393000563, 13.437397675986524",['A 9'],
77,196377,Dimitroffstrasse Ecke Greifswalderstrasse,strassenbahn,"52.53616928671014, 13.433023161244224",['74'],
78,196378,Dimitroffstrasse Ecke Leninallee,strassenbahn,"52.5259343,13.4462368","['64'], ['69', '63']","Q65553230, Q65553230"
79,196379,Dimitroffstrasse Ecke Prenzlauer Allee,strassenbahn,"52.539226902813354, 13.424209201692193","['72', '71']",
80,196380,Dimitroffstrasse/Leninallee,Omnibus,"52.52644398829154, 13.447645022319072",['O 37'],
81,196381,Dingelstädter Strasse,Omnibus,"52.53587676296107, 13.522058626010088",['O 37'],
82,196382,Dorfaue,Autobus,"52.47886105131975, 13.70053232372426","['S-Bhf. Friedrichshagen - Rüdersdorf, Karl-Marx-Platz']",
83,196383,Dönhoffplatz,strassenbahn,"52.509950568117645, 13.398144081918815",['64'],
84,196384,Eberswalderstrasse Ecke Oderberger Strasse,strassenbahn,"52.54061076763243, 13.404559930731686","['13', '4']",","
85,196385,Ebertystrasse Ecke Leninallee,Omnibus,"52.52722237261361, 13.450799684654514",['O 30'],
86,196386,Edisonstrasse Ecke An der Wuhlheide,strassenbahn,"52.468743401601294, 13.514467987195852","['82', '95']",
87,196387,Ehrenmal,Autobus,"52.57958419912971, 13.375974716701414","['A 55', 'A 58', 'A 45']",
88,196388,Ehrlichstrasse Ecke Treskowallee,strassenbahn,"52.47856329184395, 13.524546995527436",['82'],
89,196389,Eichbuschallee,Autobus,"52.47574296676633, 13.487312571777435",['A 47'],
90,196390,Eichbuschplatz,Autobus,"52.39366126137233, 13.582046308470128",['A 38'],
91,196391,Eichendamm,Autobus,"52.45563928691219, 13.730601143973864",['S-Bhf. Rahnsdorf - Woltersdorfer Schleuse'],
92,196392,"Eichwalde, Uhlandstrasse",Autobus,"52.372634587228696, 13.62680242919348",['Schmöckwitz - Eichwalde'],
93,196393,Elisabethstrasse,Omnibus,"52.53409533705918, 13.55949915809485",['O 37'],
94,196394,Elsenstrasse/S-Bhf. Treptower Park,strassenbahn,"52.49175631513716, 13.457761342155928","['87', '92']",
95,196395,Elsässer Strasse,Autobus,"52.63337294510061, 13.345103420124245",['A 7'],
96,196396,Fahlenbergstrasse/Fürstenwalder Allee,Autobus,"52.431470149043314, 13.718708856639706",['A 22'],
97,196397,Falkenberger Chaussee,Autobus,"52.565814225343445, 13.511924619006814",['A 39'],
98,196398,Falkenbergerstrasse Ecke Wartenberger Strasse,strassenbahn,"52.55036672097044, 13.509915032138812",['63'],
99,196399,Fasanenstrasse,Autobus,"52.45303125634222, 13.744280675634114",['S-Bhf. Rahnsdorf - Woltersdorfer Schleuse'],
100,1963100,Feldtmannstrasse,Autobus,"52.56401588379611, 13.46980857664685",['A 46'],
101,1963101,"Fichtenau, Stadtgrenze",Autobus,"52.45479242349705, 13.701499962608066",['A 22'],
102,1963102,Fichtestrasse Ecke Schopenhauerstrasse,Autobus,"52.47979924975105, 13.617292306977053",['A 8'],
103,1963103,Frankfurter Tor,strassenbahn,"52.5153903,13.4540172","['13', '4']",Q65706246
104,1963104,Frankfurter Tor,u-bahn,"52.515833333333,13.454166666667",['E'],Q568627
105,1963105,Freibad Grünau,strassenbahn,"52.4086224,13.604455",['86'],Q66489598
106,1963106,Friedrich-Junge-Strasse,Autobus,"52.49382897072681, 13.471572865851856",['A 82 P'],
107,1963107,Friedrichsfelde (Tierpark),u-bahn,"52.506111111111,13.512777777778",['E'],Q429781
108,1963108,"Friedrichshagen, Wasserwerk",strassenbahn,"52.4560563,13.6419956",['84'],Q66362601
109,1963109,Friedrichstrasse Ecke Unter den Linden,Autobus,"52.51718498081941, 13.388821428784585","['A 57'], ['A 9']",", "
110,1963110,Galenusstrasse/ Krankenhaus Pankow,strassenbahn,"52.58161537149107, 13.428740729800658",['49'],
111,1963111,Gartenstadtweg,Autobus,"52.412313913821045, 13.56660267841369",['A 36'],
112,1963112,Genslerstrasse/Siegfriedstrasse,Omnibus,"52.53419051284018, 13.497014225567375",['O 37'],
113,1963113,"Glienicke, Kirche",Autobus,"52.63062737184449, 13.312861916755343",['A 7'],
114,1963114,Goethestrasse,Autobus,"52.40437395250698, 13.406194791584095",['S-Bhf. Rahnsdorf - Woltersdorfer Schleuse'],
115,1963115,Greifswalder Strasse,Autobus,"52.53002871375482, 13.62681794411932",['A 44'],
116,1963116,Greifswalder Strasse,strassenbahn,"52.5364975,13.4334045",['4'],Q65548960
117,1963117,Greifswalder Strasse Ecke Dimitroffstrasse,strassenbahn,"52.5364975,13.4334045",['13'],Q65548960
118,1963118,Greifswalder Strasse Ecke Hönower Strasse,Autobus,"52.53002871375482, 13.62681794411932",['A 44 E'],
119,1963119,Greifswalderstrasse Ecke Dimitroffstrasse,Omnibus,"52.5362177572407, 13.433017500945247",['O 30'],
120,1963120,Grottkauer Strasse,Autobus,"52.52747689361331, 13.606500303391726",['A 49'],
121,1963121,Groß Ziethen,Autobus,"52.41404104155547, 13.438879163306126",['A Z'],
122,1963122,Große Präsidentenstrasse,strassenbahn,"52.52326345734971, 13.401134586268517","['63', '49']",
123,1963123,Grünberger Strasse,strassenbahn,"52.5122359,13.452609",['4'],Q65706239
124,1963124,Gustav-Adolf-Strasse Ecke Rennbahnstrasse,Autobus,"52.562178269666816, 13.454275093038184",['A 55'],
125,1963125,Güteraußenring,Autobus,"52.599887239389226, 13.469297130431492",['A 42'],
126,1963126,Güterbahnhof Springpfuhl,Autobus,"52.52561231977731, 13.533687321893124",['A 43'],
127,1963127,Hackescher Markt,strassenbahn,"52.522700593509725, 13.401605863643521","['69', '63', '49']",Q65094590
128,1963128,Hamburger Platz,Autobus,"52.555394187589414, 13.438973139463632","['A 56', 'A 55']",
129,1963129,Hannoversche Strasse,strassenbahn,"52.52716496126181, 13.387046759579254",['1'],
130,1963130,Hauptstrasse Ecke Edelweißstrasse,Autobus,"52.586379262142074, 13.36752938856218","['A 55', 'A 45']",
131,1963131,Hauptstrasse Ecke Hertzstrasse,Autobus,"52.58936172371789, 13.369900800420519",['A 58'],
132,1963132,Hauptstrasse/Berliner Strasse,strassenbahn,"52.54899316592503, 13.501757745807819","['63'], ['64']",", "
133,1963133,Hauptstrasse/Suermondstrasse,strassenbahn,"52.54899316592503, 13.501757745807819",['70'],
134,1963134,"Heinersdorf, Kirche",Autobus,"52.568251990817764, 13.440484539756532",['A 42'],
135,1963135,"Heinersdorf, Kirche",strassenbahn,"52.5686908,13.4389053",['71'],Q65096107
136,1963136,"Heinersdorf, Romain-Rolland-Strasse",strassenbahn,"52.5725511,13.4371063",['71'],Q65096052
137,1963137,Heinersdorf/Kirche,Autobus,"52.56826376476754, 13.440601903603064",['A 55'],
138,1963138,Heinrich-Heine-Strasse,strassenbahn,"52.51099529411967, 13.416420239383946",['64'],
139,1963139,Heinrich-Heine-Strasse Ecke Schmidtstrasse,strassenbahn,"52.510985527920624, 13.416475371446467",['11'],
140,1963140,Heinrich-Mann-Platz,Autobus,"52.57297246262195, 13.392146133350426","['A 55', 'A 58', 'A 45']",
141,1963141,"Hessenwinkel, Lindenstrasse",Autobus,"52.42653518647879, 13.728458969026482",['A 22'],
142,1963142,Hirschgarten,strassenbahn,"52.4518533,13.6006245","['84', '87']",Q66360740
143,1963143,Hirtestrasse,strassenbahn,"52.4590446,13.5838302",['86'],Q66459446
144,1963144,Hochschule für Ökonomie,strassenbahn,"52.4927681,13.5266059",['69'],Q65952866
145,1963145,"Hohenschönhausen, Falkenberger Strasse",Autobus,"52.550229554941964, 13.509585042301534",['A 39'],
146,1963146,"Hohenschönhausen, Falkenberger Strasse",strassenbahn,"52.5508672,13.5094994","['70', '64']",Q65555882
147,1963147,"Hohenschönhausen, Gartenstadt",strassenbahn,"52.5508672,13.5094994",['63'],Q65555882
148,1963148,Hohenschönhauser Strasse,strassenbahn,"52.5359329,13.4729468",['3'],Q65553684
149,1963149,Holteistrasse Ecke Boxhagener Strasse,strassenbahn,"52.5088235,13.465969",['3'],Q65675805
150,1963150,Hultschiner Damm,Autobus,"52.47711373957008, 13.600598140620137",['A 8'],
151,1963151,Humannplatz,strassenbahn,"52.5493627,13.4213646",['70'],Q65962652
152,1963152,"Hönow, Dorfstrasse",Autobus,"52.54884927869554, 13.63648687804691",['A 44'],
153,1963153,Invalidenstrasse Ecke Chausseestrasse,Autobus,"52.530584371359055, 13.383078391497033",['A 59'],
154,1963154,Invalidenstrasse Ecke Chausseestrasse,strassenbahn,"52.5304158,13.3827302",['82'],Q65552697
155,1963155,Joachimstrasse,Autobus,"52.40316589631168, 13.57664158970399",['A 38'],
156,1963156,"Johannisthal, Haeckelstrasse",strassenbahn,"52.4402944,13.5052638",['69'],Q66225573
157,1963157,Johannisthaler Chaussee,Autobus,"52.45136033294721, 13.488299619950027",['A 47'],
158,1963158,Jüdenstrasse,strassenbahn,"52.51609564053117, 13.410616931384226",['71'],
159,1963159,Kali-Chemie,strassenbahn,"52.46329854840191, 13.499789773217568","['87', '92', '95']",
160,1963160,Karl-Marx-Allee,Omnibus,"52.51831920404112, 13.430003655626638",['O 40'],
161,1963161,Karlshorster Strasse,strassenbahn,"52.502334098187674, 13.475466875195085",['13'],
162,1963162,Karolinenhof Mitte,strassenbahn,"52.39176095915858, 13.634654256792825",['86'],
163,1963163,Karower Strasse/Alt-Buch,Autobus,"52.6353147366511, 13.49919747411447",['A 42'],
164,1963164,"Kaulsdorf, Bausdorfstrasse",Autobus,"52.51256368150751, 13.601906818686038",['A 49'],
165,1963165,Kienbergstrasse,Autobus,"52.37533197787343, 13.541625075853752",['A 24'],
166,1963166,Klein Ziethen,Autobus,"52.379580499215606, 13.44656986522325",['A Z'],
167,1963167,Klement-Gottwald-Allee,strassenbahn,"52.55207481375682, 13.465630856253787",['3'],
168,1963168,Klement-Gottwald-Allee Ecke Rennbahnstrasse,Autobus,"52.55694652931542, 13.466966083751453",['A 55'],","
169,1963169,Klement-Gottwald-Allee/Rennbahnstrasse,Autobus,"52.55694573710591, 13.46690169748388","['A 46', 'A 45']",
170,1963170,Klement-Gottwald-Allee/Rennbahnstrasse,strassenbahn,"52.55698366082651, 13.466917794929422",['72'],
171,1963171,"Klingenberg, Blockdammweg",strassenbahn,"52.4842462,13.5104609",['13'],Q66085182
172,1963172,Klosterstrasse,Omnibus,"52.51798604342281, 13.412126746747086",['O 30'],
173,1963173,Klosterstrasse,u-bahn,"52.516111111111, 13.412222222222",['A'],Q657893
174,1963174,Kniprodestrasse,strassenbahn,"52.5325286,13.4406868",['4'],Q65707391
175,1963175,Kniprodestrasse Ecke Dimitroffstrasse,strassenbahn,"52.53212517120371, 13.441486830298444",['13'],
176,1963176,Kniprodestrasse/Ermländische Strasse,Autobus,"52.53412263578274, 13.444622763935293",['A 57'],
177,1963177,"Kolonie ""Land im Sonne""",Autobus,"52.55462883361286, 13.511870302373488",['A 39'],
178,1963178,Konsum Wernsdorf,Autobus,"52.36448396303661, 13.698441127852544",['Schmöckwitz - Ziegenhals'],
179,1963179,Konsum Ziegenhals,Autobus,"52.353014165379946, 13.671672670712805",['Schmöckwitz - Ziegenhals'],
180,1963180,Kraftwerk Klingenberg,strassenbahn,"52.4881374,13.4958685","['82', '13']",Q66079524
181,1963181,Krankenhaus Köpenick,Autobus,"52.4388396,13.5920763",['A 27'],
182,1963182,Krankenhaus Köpenick,strassenbahn,"52.43861200573594, 13.592411258792163",['95'],
183,1963183,Kurische Strasse,Autobus,"52.53541468899389, 13.439085794623837",['A 9'],
184,1963184,Kurt-Fischer-Platz,Autobus,"52.57973292845757, 13.398330728468228",['A 7'],
185,1963185,Kurt-Fischer-Platz,strassenbahn,"52.578668,13.3983016","['22', '46']",Q65032974
186,1963186,Köllnischer Platz,strassenbahn,"52.4447189,13.5686225","['84', '86']",Q66363379
187,1963187,Königstor,Autobus,"52.52520269485428, 13.419834994127731","['A 57', 'A 9']",
188,1963188,Königstor,Omnibus,"52.52520269485428, 13.419834994127731",['O 40'],
189,1963189,Königstor,strassenbahn,"52.52821600265539, 13.423869016265495",['74'],
190,1963190,Köpenickerstrasse Ecke Adalbertstrasse,Omnibus,"52.5088020100168, 13.42459205564356",['1'],
191,1963191,Küstriner Platz,Omnibus,"52.51324778107561, 13.439333192026231","['O 30', 'O 40']",
192,1963192,LPG Falkenberg,Autobus,"52.57689764194031, 13.582483848603614",['A 46'],
193,1963193,Langhansstrasse Ecke Gustav-Adolf-Strasse,Autobus,"52.55363454206649, 13.43469073771919","['A 55', 'A 45']",
194,1963194,Leninallee,strassenbahn,"52.5259343,13.4462368",['4'],Q65553230
195,1963195,Leninallee Ecke Dimitroffstrasse,strassenbahn,"52.5259343,13.4462368",['13'],Q65553230
196,1963196,Leninplatz,Omnibus,"52.523238998562235, 13.433594583798834",['O 40'],
197,1963197,Leninplatz,strassenbahn,"52.5232658,13.4326457","['1', '63', '69', '64']",Q65553105
198,1963198,Lerchenstrasse,Autobus,"52.45518873071384, 13.734268401558374",['S-Bhf. Rahnsdorf - Woltersdorfer Schleuse'],
199,1963199,Lichtenberger Strasse,strassenbahn,"52.552032612200605, 13.465689924366766","['72'], ['74']",", "
200,1963200,Lichtenberger Strasse Ecke Buschallee,strassenbahn,"52.55398925514543, 13.467683317947278",['70'],
201,1963201,Lindenberg,Autobus,"52.602597712625055, 13.5250306401055",['A L'],
202,1963202,Lindenstrasse Ecke Bahnhofstrasse,strassenbahn,"52.4505094,13.572684",['95'],Q66095701
203,1963203,Lindenstrasse/Hegelschule,strassenbahn,"52.4505094,13.572684",['82'],Q66095701
204,1963204,Luxemburgplatz,u-bahn,"52.528333333333,13.410277777778",['A'],Q658790
205,1963205,Magdalenenstrasse,u-bahn,"52.5125,13.486388888889",['E'],Q473901
206,1963206,Mahlsdorf-Süd,strassenbahn,"52.4741663,13.5991443",['83'],Q66368466
207,1963207,"Mahlsdorf-Süd, Hubertus",strassenbahn,"52.4741663,13.5991443","['82', '86']",Q66368466
208,1963208,"Malchow, Dorfstrasse",Autobus,"52.580462270708544, 13.482797576255583","['A 46', 'A L']",
209,1963209,Malchower Weg,Autobus,"52.56152031238405, 13.500485897507804",['A 46'],
210,1963210,Marchlewskistrasse,u-bahn,"52.516794444444,13.444991666667",['E'],Q551768
211,1963211,Margaretenaue,strassenbahn,"52.587907241470944, 13.430038901840085",['49'],
212,1963212,Markgrafendamm,Autobus,"52.49919969372071, 13.465742293248686",['A 82 P'],
213,1963213,Marx-Engels-Platz,Autobus,"52.51617617310524, 13.400937413635054","['A 57', 'A 9']",
214,1963214,"Marzahn, Berliner Chaussee",Autobus,"52.54286481407268, 13.550124906736844",['A 43'],
215,1963215,Marzahner Chaussee,Omnibus,"52.53978688562053, 13.53943029431785",['O 37'],
216,1963216,Molkenmarkt,strassenbahn,"52.51679321421663, 13.409330619020574","['72', '74', '71']",
217,1963217,Müggelheim,Autobus,"52.41018331064196, 13.665897531850348",['A 27'],
218,1963218,Müggelseeperle,Autobus,"52.42170168937569, 13.640893083169368",['A 27'],
219,1963219,Neu-Lindenberg,Autobus,"52.600885625411856, 13.554794085696633",['A L'],
220,1963220,Nordend,Autobus,"52.59006569360479, 13.401740566033476",['A 7'],
221,1963221,Nordend,strassenbahn,"52.5902104,13.4027524",['46'],Q65032696
222,1963222,Nordendstrasse,strassenbahn,"52.588534,13.3882952",['22'],Q65428345
223,1963223,Normannenstrasse,Autobus,"52.41755553724523, 13.541493283222094",['A 23'],
224,1963224,"Oberspree, Bruno-Bürgel-Weg",strassenbahn,"52.452777014581045, 13.537124836409932",['92'],
225,1963225,Omnibus-Bf. Lichtenberger Strasse,strassenbahn,"52.5442346,13.4687215",['3'],Q65939077
226,1963226,Oranienburger Tor,Autobus,"52.52716314203455, 13.38710905184874","['A 9', 'A 59']",
227,1963227,Oranienburger Tor,Omnibus,"52.52716314203455, 13.38710905184874",['O 40'],
228,1963228,Oranienburger Tor,strassenbahn,"52.5256031,13.3872745","['1', '46', '70', '11', '69']",Q65095375
229,1963229,Ossietzkyplatz,strassenbahn,"52.58100580136794, 13.404014807678767",['46'],
230,1963230,Ostbahnhof,Omnibus,"52.50976670730252, 13.43372198235041",['O 40'],
231,1963231,Ostbahnhof,strassenbahn,"52.509107635417394, 13.43550619008533","['82', '1']",
232,1963232,Pankow (Vinetastrasse),u-bahn,"52.559166666667,13.413333333333",['A'],Q570906
233,1963233,"Pankow, Kirche",Autobus,"52.57124680898358, 13.410670715665145","['A 55', 'A 58', 'A 45']",
234,1963234,"Pankow, Kirche",strassenbahn,"52.5706452,13.4103115","['22', '49', '46']",Q65055066
235,1963235,"Pankow, Rathaus",Autobus,"52.56953908840178, 13.404186437171612","['A 45', 'A 55', 'A 58', 'A 7']",
236,1963236,"Pankow, Rathaus",strassenbahn,"52.5694816,13.4038045","['22', '46']",Q65055060
237,1963237,Parkstrasse,strassenbahn,"52.45870588645984, 13.539865120378947",['87'],
238,1963238,Parkstrasse Ecke An der Wuhlheide,strassenbahn,"52.458692811582104, 13.539859756020707",['82'],
239,1963239,Parkstrasse Ecke An der Wulheide,strassenbahn,"52.458692811582104, 13.539859756020707",['95'],
240,1963240,Piesporter Strasse,Autobus,"52.560428325050296, 13.476578086985889",['A 55'],
241,1963241,Platz vor dem Neuen Tor,Autobus,"52.52921245715711, 13.378513556812177",['A 9'],
242,1963242,Post,Autobus,"52.47029587176764, 13.786537970773646","['S-Bhf. Friedrichshagen - Rüdersdorf, Karl-Marx-Platz']",
243,1963243,Prenzlauer Allee,strassenbahn,"52.5396522,13.4244789",['4'],Q65222180
244,1963244,Prenzlauer Allee Ecke Dimitroffstrasse,strassenbahn,"52.539197857899126, 13.424201067893557",['13'],
245,1963245,Prenzlauer Promenade,Autobus,"52.5516751737526, 13.430326005865055",['A 56'],
246,1963246,Prenzlauer Promenade,strassenbahn,"52.55155536618067, 13.43032253030515","['70', '72', '3']",
247,1963247,Prenzlauer Promenade (Spitze),Autobus,"52.55169017006126, 13.430288457592285",['A 42'],
248,1963248,Prenzlauer Promenade (Spitze),strassenbahn,"52.5516751737526, 13.430326005865055",['71'],
249,1963249,Prenzlauer Promenade Ecke Granitzstrasse,Autobus,"52.572092016203484, 13.42875772052513",['A 55'],
250,1963250,Prenzlauer Promenade Ecke Kissingenstrasse,Autobus,"52.56795804833996, 13.427734373319213",['A 45'],
251,1963251,Prenzlauer Tor,Omnibus,"52.52709114016772, 13.415809370320808",['O 40'],
252,1963252,Prenzlauer Tor,strassenbahn,"52.52709114016772, 13.415809370320808",['71'],
253,1963253,Proskauerstrasse Ecke Dolziger Strasse,Omnibus,"52.519874079766325, 13.463289228834057",['O 30'],
254,1963254,Rahnsdorf,strassenbahn,"52.443531694444445,13.685038",['87'],Q66361311
255,1963255,Rahnsdorfer Strasse Ecke Hultschiner Damm,strassenbahn,"52.49863606696212, 13.613320584450898",['83'],
256,1963256,Rennbahnstrasse Ecke Bernkasteler Strasse,strassenbahn,"52.55697630217991, 13.466894532923181",['74'],
257,1963257,Rennbahnstrasse Ecke Gustav-Adolf-Strasse,Autobus,"52.56218648050474, 13.454267038723398",['A 56'],
258,1963258,Richtershorn,strassenbahn,"52.40105,13.6248473",['86'],Q66481215
259,1963259,Ridbacher Strasse,Autobus,"52.527457204488485, 13.606447755554132",['A 49'],
260,1963260,Robert-Koch-Platz,Autobus,"52.527570508835595, 13.37877230286134",['A 57'],
261,1963261,Robert-Koch-Platz,Omnibus,"52.527570508835595, 13.37877230286134",['O 40'],
262,1963262,Roederplatz,Omnibus,"52.52671388514014, 13.479662353432392",['O 30'],
263,1963263,Roederplatz,strassenbahn,"52.5266001,13.479068","['69', '3']",Q65685373
264,1963264,"Rosenthal, Haupstrasse",strassenbahn,"52.5970063,13.3763916",['22'],Q65364985
265,1963265,Rosenthaler Platz,Omnibus,"52.5296729549826, 13.401428926082492",['O 40'],
266,1963266,Rosenthaler Platz,strassenbahn,"52.5301769,13.4016121","['22', '49', '82']",Q65093945
267,1963267,Rosenthaler Strasse,strassenbahn,"52.59633,13.432876",['49'],Q66192394
268,1963268,"Rüdersdorf, Karl-Marx-Platz",Autobus,"52.468598623083736, 13.791633300477105","['S-Bhf. Friedrichshagen - Rüdersdorf, Karl-Marx-Platz']",
269,1963269,"Rüdersdorf, Thälmannplatz",Autobus,"52.474663106849825, 13.77362632033625","['S-Bhf. Friedrichshagen - Rüdersdorf, Karl-Marx-Platz']",
270,1963270,S-Bhf. Adlershof,strassenbahn,"52.435251,13.5408489",['84'],Q66363728
271,1963271,S-Bhf. Alexanderplatz,Autobus,"52.52074877770386, 13.412147230655155","['A 57', 'A 9']",
272,1963272,S-Bhf. Alexanderplatz,Omnibus,"52.52074877770386, 13.412147230655155",['O 30'],
273,1963273,S-Bhf. Altglienicke,Autobus,"52.40840519773821, 13.558816171743953",['A 23'],
274,1963274,S-Bhf. Baumschulenweg,Autobus,"52.4674967534767, 13.489379882069517",['A 47'],
275,1963275,S-Bhf. Baumschulenweg,strassenbahn,"52.467425320387854, 13.489303343986984","['95P', '95']",
276,1963276,S-Bhf. Biesdorf,Omnibus,"52.513432593832405, 13.555387279249894",['O 37'],
277,1963277,S-Bhf. Friedrichsfelde-Ost,Autobus,"52.51324537165634, 13.524030584354616",['A 43'],
278,1963278,S-Bhf. Friedrichshagen,Autobus,"52.45731046148184, 13.625536519339297","['S-Bhf. Friedrichshagen - Rüdersdorf, Karl-Marx-Platz']",
279,1963279,S-Bhf. Friedrichshagen,strassenbahn,"52.4564126,13.6253656","['84', '87']",Q66360784
280,1963280,S-Bhf. Greifswalder Strasse,strassenbahn,"52.5407234,13.4382904",['74'],Q65548932
281,1963281,S-Bhf. Grünau,Autobus,"52.41361515857581, 13.573796290663196","['A 36', 'A 38']",
282,1963282,S-Bhf. Grünau,strassenbahn,"52.413493,13.5746802",['86'],Q62470512
283,1963283,S-Bhf. Grünbergallee,Autobus,"52.39982232817773, 13.540170966673278",['A 36'],
284,1963284,S-Bhf. Jannowitzbrücke,strassenbahn,"52.51478599600389, 13.418056238742702","['22', '82', '64', '71', '11']",
285,1963285,S-Bhf. Karlshorst,strassenbahn,"52.481331,13.5254433",['69'],Q65952829
286,1963286,"S-Bhf. Kaulsdorf, Planitzstrasse",Autobus,"52.51113864301491, 13.58755467300039",['A 27'],
287,1963287,S-Bhf. Köpenick,Autobus,"52.45882190200453, 13.579564677172508",['A 27'],
288,1963288,S-Bhf. Köpenick,strassenbahn,"52.4582153,13.5790435","['82', '86', '83']",Q66370784
289,1963289,S-Bhf. Mahlsdorf,Autobus,"52.51234908870327, 13.61221793610957","['A 44', 'A 44 E']",
290,1963290,S-Bhf. Mahlsdorf,strassenbahn,"52.51221826761895, 13.612190748726157",['83'],
291,1963291,S-Bhf. Marx-Engels-Platz,strassenbahn,"52.52299166458439, 13.401977754137919",['49'],
292,1963292,S-Bhf. Ostkreuz,strassenbahn,"52.50243021718411, 13.469020052690205",['82'],
293,1963293,S-Bhf. Pankow,Autobus,"52.56742037379333, 13.412250129587665","['A 55', 'A 58', 'A 45']",
294,1963294,S-Bhf. Pankow,strassenbahn,"52.5675692,13.4121641","['22', '49', '46']",Q65055075
295,1963295,S-Bhf. Pankow-Heinersdorf,strassenbahn,"52.577507820515834, 13.427853061920917",['49'],
296,1963296,S-Bhf. Plänterwald,strassenbahn,"52.479645467025435, 13.47567729609248","['87', '92']",
297,1963297,S-Bhf. Prenzlauer Allee,strassenbahn,"52.5448075,13.427408","['72', '71']",Q65219791
298,1963298,S-Bhf. Rahnsdorf,Autobus,"52.451628368326396, 13.691579101298974","['A 22', 'S-Bhf. Rahnsdorf - Woltersdorfer Schleuse']",
299,1963299,S-Bhf. Rummelsburg,Omnibus,"52.50179539105723, 13.478028581044718",['O 30'],
300,1963300,S-Bhf. Schönhauser Allee,strassenbahn,"52.5493619,13.4135734","['22', '49', '46']",Q65088013
301,1963301,S-Bhf. Spindlersfeld,strassenbahn,"52.4457311,13.5624298",['84'],Q66363397
302,1963302,S-Bhf. Treptower Park,Autobus,"52.49403640886682, 13.460762565516704",['A 47'],
303,1963303,S-Bhf. Warschauer Strasse,strassenbahn,"52.506416666667,13.450955555556","['3', '4']",Q111252298
304,1963304,S-Bhf. Wilhelmshagen,Autobus,"52.43886122089184, 13.721060252199655",['A 22'],
305,1963305,Saarbrücker Strasse Ecke Prenzlauer Allee,strassenbahn,"52.52853502182196, 13.41711797726751","['72', '71']",
306,1963306,Sadowastrasse,Autobus,"52.482675472271694, 13.584833068425244",['A 8'],
307,1963307,Samariterstrasse,u-bahn,"52.514722222222,13.464444444444",['E'],Q552891
308,1963308,Scharnhorststrasse,Autobus,"52.530048717863, 13.374421833191816",['A 57'],
309,1963309,Scharnhorststrasse Ecke Kieler Strasse,Autobus,"52.534358722624745, 13.370310836134667",['A 9'],
310,1963310,"Schildow, Kirche",Autobus,"52.63581867397586, 13.377719168374458",['A 7'],
311,1963311,Schillingstrasse,u-bahn,"52.520277777778,13.421666666667",['E'],Q552899
312,1963312,Schumannstrasse,Autobus,"52.52350700053633, 13.379478600060418",['A 57'],
313,1963313,Schönefeld Gartenstrasse,Autobus,"52.39306384968221, 13.524936786130585",['A 36'],
314,1963314,"Schönefeld, Flughafen Nord",Autobus,"52.391408388594286, 13.516045082012493",['A 24'],
315,1963315,"Schönefeld, Flughafen Süd",Autobus,"52.36638150611842, 13.518172113668877",['A 24'],
316,1963316,"Schönefeld, Gartenstrasse",Autobus,"52.39306384968221, 13.524936786130585",['A 36'],
317,1963317,"Schönefeld, Kirche",Autobus,"52.387425080944524, 13.505964115736859","['A Z', 'A 24']",
318,1963318,Schönefelder Chaussee,Autobus,"52.409778884134546, 13.526974904149686",['A 23'],
319,1963319,"Schöneiche, Goethepark",Autobus,"52.470798548586494, 13.68835638892532","['S-Bhf. Friedrichshagen - Rüdersdorf, Karl-Marx-Platz']",
320,1963320,Schönhauser Allee,strassenbahn,"52.5537705,13.4138898",['3'],Q65076842
321,1963321,Schönhauser Allee,u-bahn,"52.549328888889,13.413706111111",['A'],Q47014936
322,1963322,Seelenbinderstrasse,strassenbahn,"52.4554632,13.5769303",['83'],Q66324934
323,1963323,Seelenbinderstrasse,strassenbahn,"52.45577189402544, 13.577137501189938","['84', '86']",
324,1963324,Seelenbinderstrasse Ecke Bahnhofstrasse,strassenbahn,"52.4554632,13.5769303",['87'],Q66324934
325,1963325,Siegfriedstrasse Ecke Herzbergstrasse,strassenbahn,"52.52637512000325, 13.499791136524967",['69'],
326,1963326,Sonnenallee,strassenbahn,"52.46218348846541, 13.477104416215733",['95P'],
327,1963327,Spittelmarkt,strassenbahn,"52.511243321361405, 13.40494539543245","['72', '74', '64']",
328,1963328,Spittelmarkt,u-bahn,"52.511111111111,13.403611111111",['A'],Q569489
329,1963329,Stadion Buschallee,strassenbahn,"52.5566718,13.4869834",['70'],Q65504715
330,1963330,Stadtmitte,u-bahn,"52.5122,13.3894",['A'],Q660066
331,1963331,Stalinallee (Ringbahn),u-bahn,"52.514166666667,13.474722222222",['E'],Q552872
332,1963332,Sterndamm,Autobus,"52.44658674940087, 13.506534865142585",['A 47'],
333,1963333,Steuerhaus,Omnibus,"52.530493,13.4614989",['O 37'],
334,1963334,Steuerhaus,strassenbahn,"52.530493,13.4614989","['69', '63', '64']",Q65553632
335,1963335,Strab. Bf. Köpenick,strassenbahn,"52.4582153,13.5790435",['83'],Q66370784
336,1963336,"Stralau, Kinderheim",Autobus,"52.4898153097415, 13.481404230737937",['A 82 P'],
337,1963337,Stralauer Allee,strassenbahn,"52.49740745019046, 13.46463650693144",['82'],
338,1963338,Strasse 78,Autobus,"52.614646041574915, 13.484873269723556",['A 42'],
339,1963339,Strasse nach Wartenberg,Autobus,"52.56866269126953, 13.520582099858125",['A 46'],
340,1963340,Strausberger Platz,u-bahn,"52.518055555556,13.430833333333",['E'],Q570999
341,1963341,Taubenstrasse Ecke Glinkastrasse,strassenbahn,"52.51282807699578, 13.386550049684635",['72'],
342,1963342,Thälmannplatz,Autobus,"52.45066904252597, 13.752260000383929",['S-Bhf. Rahnsdorf - Woltersdorfer Schleuse'],
343,1963343,Thälmannplatz,u-bahn,"52.51167,13.38472",['A'],Q658391
344,1963344,Tierpark Berlin,strassenbahn,"52.50297204519277, 13.520916474066839",['69'],
345,1963345,"Treptow, Rathaus",Autobus,"52.48358899866382, 13.480324760498638",['A 47'],
346,1963346,U- u. S-Bhf. Frankfurter Allee,strassenbahn,"52.5138037,13.4773772",['3'],Q65948557
347,1963347,U-Bhf. Dimitroffstrasse,strassenbahn,"52.5401928,13.4113979","['22', '70', '13', '4'], ['49', '46']","Q65088313, Q65088313"
348,1963348,U-Bhf. Franzsösische Strasse,Autobus,"52.514766362780534, 13.389198160378083",['A 59'],
349,1963349,U-Bhf. Friedrichsfelde (Tierpark),Autobus,"52.505467902077775, 13.513705817628793","['A 43', 'A 8']",
350,1963350,U-Bhf. Pankow (Vinetastrasse),Autobus,"52.559329803871, 13.413333194922279","['A 58', 'A 7']",
351,1963351,U-Bhf. Pankow (Vinetastrasse),strassenbahn,"52.5596168,13.413232","['22', '46'], ['49']","Q65075426, Q65075426"
352,1963352,U-Bhf. Stadtmitte,Autobus,"52.5104179669139, 13.389881304836392",['A 59'],
353,1963353,U-Bhf. Strausberger Platz,strassenbahn,"52.51808306742478, 13.432938339097822",['1'],
354,1963354,U-Bhf. Thälmannplatz,Autobus,"52.5114441966642, 13.383432905885536",['A 59'],
355,1963355,Uckermarkstrasse,Autobus,"52.52145144349922, 13.596724604247981",['A 49'],
356,1963356,Ulmenstrasse,Autobus,"52.48730877811447, 13.574932033917504",['A 27'],
357,1963357,VEB Baustransporte,Autobus,"52.44295541604966, 13.519519091051876",['A 26'],
358,1963358,VEB Schiffswerft,strassenbahn,"52.42547977761138, 13.586220039541647",['83'],
359,1963359,"Waldesruh, Mahlsdorfer Allee",Autobus,"52.48493120102871, 13.629069441163518",['A 8'],
360,1963360,Waldschänke,Autobus,"52.443318139967566, 13.68593963431219",['A 22'],
361,1963361,Wallnerstrasse Ecke Alexanderstrasse,strassenbahn,"52.515528873421424, 13.418227297042726","['22'], ['71']",", "
362,1963362,Walter-Ulbricht-Stadion,Autobus,"52.536515137173154, 13.377775719050113",['A 59'],
363,1963363,Walter-Ulbricht-Stadion,strassenbahn,"52.536515137173154, 13.377775719050113","['82', '69']",
364,1963364,Waltersdorf,Autobus,"52.36492901110609, 13.555712408051676",['A 38'],
365,1963365,Waltersdorfer Chaussee,Autobus,"52.402177459037354, 13.51294235752257",['A 24'],
366,1963366,Warschauer Strasse,Omnibus,"52.512432267445355, 13.452598837307189",['O 30'],
367,1963367,Warschauer Strasse,strassenbahn,"52.50502,13.44863",['82'],Q63490275
368,1963368,"Wartenberg, Dorfstrasse",Autobus,"52.57484089632958, 13.518020972979759",['A 39'],
369,1963369,"Wartenberg, Siedlung",Autobus,"52.58393195902164, 13.53076033685478",['A 39'],
370,1963370,Wasserwerk,strassenbahn,"52.4560563,13.6419956",['87'],Q66362601
371,1963371,Waßmannsdorf,Autobus,"52.37269773285082, 13.465032652682668",['A Z'],
372,1963372,Waßmannsdorfer Weg,Autobus,"52.36725754220821, 13.466690921850635",['A 24'],
373,1963373,"Weißensee, Nüßlerstrasse",Autobus,"52.56398537909407, 13.469733771213992",['A 56'],
374,1963374,"Weißensee, Pasedagplatz",strassenbahn,"52.5594027,13.4609594",['72'],Q65954665
375,1963375,"Weißensee, Pasedagplatz/Klement-Gottwald-Allee",strassenbahn,"52.5597125027563, 13.460307340258108",['74'],
376,1963376,"Weißensee, Schwarzelfenweg",Autobus,"52.56729838338304, 13.46535452978551",['A 45'],
377,1963377,Weißenseer Weg,Omnibus,"52.53305919668049, 13.476252837088406",['O 37'],
378,1963378,Weißenseer Weg,strassenbahn,"52.532258,13.476705",['63'],Q65942700
379,1963379,Weißenseer Weg Ecke Berliner Strasse,strassenbahn,"52.532258,13.476705",['64'],Q65942700
380,1963380,Wendenschloß,strassenbahn,"52.4169658,13.5885926",['83'],Q66363928
381,1963381,Wendenstrasse,Autobus,"52.41578842802203, 13.549898784524798",['A 23'],
382,1963382,Wicherstrasse Ecke Prenzlauer Allee,Autobus,"52.5456730102219, 13.427746498417138",['A 56'],
383,1963383,Wiener Brücke,strassenbahn,"52.49588477409083, 13.43650068505988",['92'],
384,1963384,"Wiener Brücke, Krüllstrasse",strassenbahn,"52.49164735650872, 13.446700972117204",['87'],
385,1963385,Wilhelminenhofstrasse,strassenbahn,"52.460837970970566, 13.521054382869073",['69'],Q65951882
386,1963386,Wilhelminenhofstrasse Ecke Edisonstrasse,strassenbahn,"52.4619496,13.5139049",['87'],Q65951882
387,1963387,"Wilhelmsruh, Fontanestrasse",Autobus,"52.58985938767378, 13.361193570257216","['A 55', 'A 58', 'A 45']",
388,1963388,Wilhelmstrasse,Autobus,"52.5100063666283, 13.384161195049645",['A 59'],
389,1963389,Wilhelmstrasse,strassenbahn,"52.51000721625461, 13.384162341711823",['74'],
390,1963390,Wisbyer Strasse Ecke Schönhauser Allee,strassenbahn,"52.55374610843057, 13.414453768690132",['49'],
391,1963391,Wolfmarsteig,Autobus,"52.41268952057738, 13.536602630335091",['A 23'],
392,1963392,Woltersdorfer Schleuse,Autobus,"52.4427723984596, 13.764524016423056",['S-Bhf. Rahnsdorf - Woltersdorfer Schleuse'],
393,1963393,Wongrowitzer Steig,Autobus,"52.4669377,13.5853227",['A 27'],
394,1963394,Zentralschule,Autobus,"52.43465069286089, 13.703692212644038",['A 22'],
395,1963395,"Ziegenhals, VA-Dienststelle",Autobus,"52.3470916280972, 13.664196000865504",['Schmöckwitz - Ziegenhals'],
