,stop_id,stop_name,type,in_lines
0,1,4. Ring,bus,{'A53'}
1,2,Adamstrasse,bus,"{'A34', 'A35'}"
2,3,Adlershof,s-bahn,"{'KBS 106', 'KBS 103', 'KBS 100a'}"
3,4,Adolf-Scheidt-Platz,strassenbahn,{'96'}
4,5,Afrikanische Str.,u-bahn,{'C I'}
5,6,Afrikanische Strasse,bus,{'A16'}
6,7,"Ahrensfeld, Kirche",bus,{'A46'}
7,8,Albertstrasse,strassenbahn,"{'74', '73'}"
8,9,Alboinstrasse Ecke Prellerweg,bus,{'A68'}
9,10,Albrechtshof,s-bahn,{'KBS 103'}
10,11,Alexanderplatz,s-bahn,"{'KBS 101', 'KBS 103', 'KBS 102'}"
11,12,Alexanderplatz,u-bahn,"{'A', 'E'}"
12,13,"Alexanderplatz, Elisabethstrasse",strassenbahn,{'82'}
13,14,"Alexanderplatz, Grunerstrasse",strassenbahn,{'71'}
14,15,"Alexanderplatz, Leninallee",strassenbahn,{'64'}
15,16,"Alexanderplatz, Memhardstr.",strassenbahn,{'1'}
16,17,"Alexanderplatz, Memhardstrasse",strassenbahn,"{'22', '11', '74', '72', '63', '74E'}"
17,18,"Alt-Biesdorf, OBerfeldstrasse",bus,{'O37'}
18,19,"Alt-Biesdorf, Oberfeldstrasse",bus,"{'A8', 'A8E'}"
19,20,Alt-Buckow Ecke Buckower Damm,strassenbahn,{'27'}
20,21,Alt-Friedrichsfelde Ecke Am Tierpark,strassenbahn,{'69'}
21,22,"Alt-Friedrichsfelde, Am Tierpark",bus,"{'A43', 'A8E', 'A8', 'O37'}"
22,23,Alt-Heiligensee,bus,"{'A14', 'A13'}"
23,24,Alt-Kladow,bus,"{'A34', 'A35'}"
24,25,Alt-Mariendorf,bus,{'AS2'}
25,26,Alt-Mariendorf Ecke Lichtenrader Damm,bus,{'A76'}
26,27,Alt-Marienfelde,bus,{'A52'}
27,28,"Alt-Marzahn, Kirche",bus,{'O37'}
28,29,Alt-Moabit,bus,{'A24'}
29,30,Alt-Moabit Ecke Rathenower Strasse,strassenbahn,{'2'}
30,31,Alt-Reinickendorf Ecke Rödern Allee,bus,{'A72'}
31,32,Alt-Schmöckwitz,bus,"{'Schmöckwitz<>Ziegenhals (VEB Kraftverkehr Schöneiche-Rüdersdorf)', 'Schmöckwitz<>Eichwalde (VEB Kraftverkehr Schöneiche-Rüdersdorf)'}"
32,33,Alt-Schmöckwitz,strassenbahn,{'86'}
33,34,Alt-Tempelhof Ecke Tempelhofer Damm,bus,"{'A77', 'A68', 'A76'}"
34,35,Alt-Wittenau,bus,"{'A62', 'A15', 'A21'}"
35,36,"Altglienicke, Am Falkenberg",strassenbahn,{'84'}
36,37,"Altglienicke, Kirche",bus,{'A23'}
37,38,Am Beelitzhof,bus,{'A3'}
38,39,Am Dachsbau,bus,{'A13'}
39,40,Am Fließ,bus,{'A15'}
40,41,Am Grossen Wannsee,bus,"{'A18', 'A6', 'A51'}"
41,42,Am Großen Wannsee Ecke Königstrasse,bus,{'A3'}
42,43,Am Karlsbad,bus,{'A75'}
43,44,Am Kupfergraben,strassenbahn,"{'46', '70', '1'}"
44,45,Am Nordhafen,bus,{'A70'}
45,46,Am Oberhafen,bus,{'A67'}
46,47,Am Rosenhag,bus,"{'A44', 'A44E'}"
47,48,Am Steinberg,bus,"{'A55', 'A42', 'A45'}"
48,49,Am Steinberg,strassenbahn,{'71'}
49,50,Am Treptower Park Ecke Elsenstrasse,strassenbahn,{'87'}
50,51,Am Vierrutenbert,bus,{'A20'}
51,52,Am Volkspark,bus,{'A60'}
52,53,Amtsgerichsplatz,bus,{'A10'}
53,54,Amtsgericht,strassenbahn,"{'76', '75'}"
54,55,Amtsgericht Charlottenburg,bus,{'A21'}
55,56,Andreasstrasse,bus,{'O30'}
56,57,Andreezeile,bus,{'A66'}
57,58,Anhalter Bahnhof,s-bahn,"{'KBS 106', 'KBS 105', 'KBS 104'}"
58,59,Antonplatz,strassenbahn,"{'70', '74', '3', '72', '74E'}"
59,60,Apoldaer Strasse Ecke Sonderhaus Strasse,bus,{'A11'}
60,61,Arnimallee,bus,{'A68'}
61,62,Aroser Allee,bus,"{'A14', 'A61'}"
62,63,Askanierring,bus,"{'A34', 'A35', 'A63'}"
63,64,Askanischer Platz,bus,"{'A29', 'A24', 'A75'}"
64,65,Attilaplatz,bus,"{'AS2', 'A68', 'A25'}"
65,66,Attilaplatz,strassenbahn,{'96'}
66,67,Augsburger Str.,u-bahn,"{'B II', 'A II'}"
67,68,Auguste-Viktoria-Allee,bus,{'A62'}
68,69,Augustenbrücke Platz,bus,{'A64'}
69,70,BSC-Sportplatz,bus,{'A29'}
70,71,Babelsberg,s-bahn,{'KBS 102'}
71,72,Badstrasse,bus,{'A70'}
72,73,Badstrasse/Prinzenallee,bus,{'A71'}
73,74,Baerwaldstrasse Ecke Urbanstrasse,strassenbahn,{'95'}
74,75,Bahnhof Friedrichstr. (Stadtbahn),u-bahn,{'C I'}
75,76,Bahnhof Lichtenberg (Zentralfriedhof),u-bahn,{'E'}
76,77,Bahnhof Wedding,u-bahn,{'C I'}
77,78,Bahnhofstrasse,strassenbahn,{'47'}
78,79,Bahnhofstrasse Ecke Lindenstrasse,bus,{'A27'}
79,80,Bahnhofstrasse Ecke Lindenstrasse,strassenbahn,"{'82', '87'}"
80,81,Baumschulenstrasse,strassenbahn,"{'95', '92'}"
81,82,Baumschulenstrasse Ecke Südostallee,bus,{'A47'}
82,83,Baumschulenweg,s-bahn,"{'KBS 106', 'KBS 103', 'KBS 103a', 'KBS 100a'}"
83,84,Bayerischer Platz,u-bahn,{'B III'}
84,85,Beeskowdamm,bus,{'A1'}
85,86,Behring-Krankenhaus,bus,{'A10'}
86,87,Bellevue,s-bahn,"{'KBS 101', 'KBS 102'}"
87,88,Belziger Strasse,strassenbahn,{'66'}
88,89,Benschallee,bus,{'A18'}
89,90,Benschallee Ecke Potsdamer Chaussee,bus,{'A3'}
90,91,Benzolwerk,strassenbahn,{'84'}
91,92,Bergstrasse,bus,{'A68'}
92,93,Bergstrasse,strassenbahn,{'66'}
93,94,Bergstrasse Ecke Bismarckstrasse,bus,{'A2'}
94,95,Berkaer Strasse,bus,{'A29'}
95,96,"Berkaer Strasse, Elsterplatz",bus,{'AS3'}
96,97,Berliner Strasse,bus,"{'AS2', 'A60'}"
97,98,Berliner Strasse Ecke Bundesallee,bus,"{'A2', 'A25'}"
98,99,Berliner StrasseEcke Drakestrasse,bus,{'A11'}
99,100,Berlinickeplatz,bus,{'A73'}
100,101,Berlinickeplatz,strassenbahn,{'96'}
101,102,Bernau (b Bln),s-bahn,{'KBS 106'}
102,103,Bernauer Strasse,bus,"{'A13', 'A61'}"
103,104,Bernauer Strasse Ecke Wolliner Strasse,bus,"{'A64', 'A71'}"
104,105,Bernauer Strasse Ecke Wolliner Strasse,strassenbahn,{'2'}
105,106,Bernauer Strasse/Brunnenstrasse,bus,{'A71'}
106,107,Bersarinplatz,strassenbahn,"{'13', '4'}"
107,108,Betriebsbahnhof Rummelsburg,s-bahn,{'KBS 102'}
108,109,Betriebsbahnhof Schöneweide,s-bahn,"{'KBS 106', 'KBS 103', 'KBS 100a'}"
109,110,Beusselstr.,s-bahn,{'KBS 100'}
110,111,Bezirksamt,bus,{'A63'}
111,112,Bf. Siegfriedstrasse,bus,{'O30'}
112,113,Bhf. Beusselstrasse,strassenbahn,{'3'}
113,114,Bhf. Botanischer Garten,strassenbahn,"{'78', '77'}"
114,115,Bhf. Buckower Chaussee,bus,{'A52'}
115,116,Bhf. Drewitz,bus,"{'S-Bhf. Grünau <> Potsdam, Bassinplatz (VEB Potsdam-Babelsberg)'}"
116,117,Bhf. Eichbornstrasse,bus,"{'A15', 'A21'}"
117,118,Bhf. Eichwalde,bus,{'Schmöckwitz<>Eichwalde (VEB Kraftverkehr Schöneiche-Rüdersdorf)'}
118,119,Bhf. Friedrichstrasse,bus,"{'A57', 'A9'}"
119,120,Bhf. Friedrichstrasse,strassenbahn,"{'46', '70', '1'}"
120,121,Bhf. Frohnau,bus,"{'A12', 'A15'}"
121,122,Bhf. Gesundbrunnen,bus,"{'A61', 'A71'}"
122,123,Bhf. Groß Ziethen,bus,{'AZ'}
123,124,Bhf. Grunewald,bus,{'A17'}
124,125,Bhf. Halensee,bus,"{'A29', 'A4', 'A19', 'A69', 'A10'}"
125,126,Bhf. Heerstrasse,strassenbahn,"{'76', '75'}"
126,127,Bhf. Heiligensee,bus,{'A14'}
127,128,Bhf. Hermannstrasse,strassenbahn,{'27'}
128,129,Bhf. Hermsdorf,bus,{'A15'}
129,130,Bhf. Hohenzollerndamm,bus,"{'A50', 'A65', 'AS3', 'A21'}"
130,131,Bhf. Jungfernheide,bus,"{'A62', 'A65', 'A21'}"
131,132,Bhf. Jungfernheide,strassenbahn,{'55'}
132,133,Bhf. Köpenick,strassenbahn,{'83'}
133,134,Bhf. Lichtenberg,bus,"{'O30', 'O37'}"
134,135,Bhf. Lichtenberg,strassenbahn,{'69'}
135,136,Bhf. Lichtenrade,bus,"{'AS2', 'A76'}"
136,137,Bhf. Lichterfelde-Ost,bus,{'A11'}
137,138,Bhf. Lichterfelde-Ost,strassenbahn,"{'96', '73'}"
138,139,Bhf. Lichterfelde-West,bus,{'A11'}
139,140,Bhf. Lichterfelde-West,strassenbahn,"{'78', '77'}"
140,141,Bhf. Lindenthaler Allee,bus,"{'A3', 'A53'}"
141,142,Bhf. Mahlow,bus,"{'S-Bhf. Grünau <> Potsdam, Bassinplatz (VEB Potsdam-Babelsberg)'}"
142,143,Bhf. Mariendorf,bus,{'A33'}
143,144,Bhf. Mariendorf,strassenbahn,{'96'}
144,145,Bhf. Marienfelde,bus,"{'A77', 'A32'}"
145,146,Bhf. Marienfelde,strassenbahn,{'15'}
146,147,Bhf. Neukölln,bus,{'A65'}
147,148,Bhf. Nikolassee,bus,{'A3'}
148,149,Bhf. Papestrasse,bus,"{'A73', 'A74'}"
149,150,Bhf. Papestrasse,strassenbahn,{'60'}
150,151,Bhf. PutlitzStrasse,bus,{'A16'}
151,152,Bhf. Rosenthal,strassenbahn,{'22'}
152,153,Bhf. Schulzendorf,bus,{'A14'}
153,154,Bhf. Schöneberg,bus,"{'A73', 'A65'}"
154,155,Bhf. Schöneweide,bus,"{'A47', 'A26', 'Flughafen Schönefeld <> Strausberger Platz'}"
155,156,Bhf. Schöneweide,strassenbahn,"{'95', '92', '69'}"
156,157,"Bhf. Schöneweide, Brückenstrasse",strassenbahn,{'87'}
157,158,Bhf. Siegfriedstrasse,strassenbahn,{'69'}
158,159,Bhf. Sonnenallee,bus,"{'A67', 'A65'}"
159,160,Bhf. Sonnenallee,strassenbahn,"{'95', '15'}"
160,161,Bhf. Spandau,strassenbahn,"{'54', '53'}"
161,162,Bhf. Spandau-West,bus,"{'A5', 'A63'}"
162,163,Bhf. Stalinallee,strassenbahn,{'3'}
163,164,Bhf. Steglitz,bus,{'A33'}
164,165,Bhf. Südende,bus,{'A33'}
165,166,Bhf. Teltow,bus,"{'S-Bhf. Grünau <> Potsdam, Bassinplatz (VEB Potsdam-Babelsberg)'}"
166,167,Bhf. Teltowkanal,strassenbahn,{'26'}
167,168,Bhf. Tempelhof,bus,{'A68'}
168,169,Bhf. Waidmannslust,bus,{'A20'}
169,170,Bhf. Wannsee,bus,"{'A6', 'A3', 'A51'}"
170,171,Bhf. Wedding,bus,{'A70'}
171,172,Bhf. Westend,bus,{'A65'}
172,173,Bhf. Wilhelmsruh,bus,{'A71'}
173,174,Bhf. Wittenau,bus,{'A15'}
174,175,Bhf. Wollankstrasse,bus,{'A70'}
175,176,Bhf. Yorckstrasse,bus,{'A19'}
176,177,Bhf. Zehlendorf,bus,"{'A1', 'A53'}"
177,178,Bhf. Zoo,bus,"{'A73', 'AS3', 'A62', 'AS1', 'AS2', 'A2', 'A25'}"
178,179,Bhf. Zoo,strassenbahn,"{'78', '2', '55', '77'}"
179,180,"Bhf. Zoo, Kantstrasse",strassenbahn,"{'76', '75'}"
180,181,Biesdorf,s-bahn,{'KBS 101'}
181,182,Birkenwerder,s-bahn,{'KBS 104'}
182,183,Bismarckplatz,bus,{'A29'}
183,184,Bismarckstrasse,bus,{'A33'}
184,185,Bismarckstrasse Ecke Bergstrasse,bus,"{'A75', 'A68'}"
185,186,Björnsonstrasse,strassenbahn,{'3'}
186,187,Blankenburg,s-bahn,{'KBS 106'}
187,188,"Blankenburg, Bahnhofstrasse",bus,{'A42'}
188,189,Blankenburger Strasse,strassenbahn,{'49'}
189,190,Blankenfelde,s-bahn,{'KBS 105'}
190,191,"Blankenfelde, Hauptstrasse",bus,{'A7'}
191,192,Bleibtreustrasse Ecke Kurfürstendamm,bus,{'A69'}
192,193,Blohmstrasse Ecke Wünsdorfer Strasse,bus,{'A76'}
193,194,Blumenstrasse,bus,{'S-Bhf. Rahnsdorf <> Woltersdorfer Schleuse (VEB Woltersdorf)'}
194,195,Boddinstr.,u-bahn,{'D'}
195,196,"Bohnsdorf, Kirche",bus,{'AD/36'}
196,197,"Bohnsdorf, Waldstrasse",bus,{'A38'}
197,198,Bonhoeffer-Heim,bus,{'A62'}
198,199,Borgsdorf,s-bahn,{'KBS 104'}
199,200,Bornholmer Strasse,strassenbahn,{'49'}
200,201,Borsigwalder Weg,bus,{'A15'}
201,202,Borsigwerke,u-bahn,{'C I'}
202,203,Bosestrasse,bus,{'A74'}
203,204,Botanischer Garten,bus,"{'A1', 'A68'}"
204,205,Botanischer Garten,s-bahn,{'KBS 104'}
205,206,Boxhagenerstrasse Ecke Holteistrasse,bus,{'O30'}
206,207,Brabanter Platz,bus,{'A60'}
207,208,Brauerei,strassenbahn,{'84'}
208,209,Breite Strasse,bus,"{'A33', 'A31', 'A5', 'A68'}"
209,210,Breitenbachplatz,bus,"{'A1', 'A16', 'A32'}"
210,211,Breitenbachplatz,u-bahn,"{'B II', 'A II'}"
211,212,Breitscheidplatz,bus,"{'A29', 'A19', 'A60'}"
212,213,Breslauer Strasse,strassenbahn,{'1'}
213,214,Bristolstrasse,bus,{'A12'}
214,215,Britzer Damm Ecke Gradestrasse,bus,{'A73'}
215,216,Brixplatz,bus,{'A4'}
216,217,Brunnenstrasse,strassenbahn,"{'46', '70'}"
217,218,Brunnenstrasse Ecke Invalidenstrasse,strassenbahn,{'11'}
218,219,Brunsb tteler Damm,bus,{'A31'}
219,220,Buch,s-bahn,{'KBS 106'}
220,221,"Buch, Kiesgruben",bus,{'A42'}
221,222,"Buchholz, Hauptstrasse",strassenbahn,{'49'}
222,223,Buckower Ch.,s-bahn,{'KBS 105'}
223,224,Buckower Chaussee,bus,{'AS2'}
224,225,Buckower Chaussee Ecke Lichtenrader Damm,bus,{'A76'}
225,226,Buckower Damm,bus,{'A52'}
226,227,Buckower Friedhof,bus,{'A52'}
227,228,Bundesallee,bus,"{'A17', 'A4', 'A74', 'A48'}"
228,229,Bundesallee,strassenbahn,"{'74', '78', '60', '77'}"
229,230,Bundesallee Ecke Berliner Strasse,strassenbahn,{'3'}
230,231,Bundesallee Ecke Rheinstrasse,strassenbahn,{'73'}
231,232,Bundesplatz,bus,"{'A16', 'A65', 'AS2', 'A2', 'A25'}"
232,233,Bundesplatz,strassenbahn,"{'78', '77'}"
233,234,Burgemeister Strasse Ecke Tempelhofer Damm,bus,"{'A77', 'A76'}"
234,235,Buschallee,strassenbahn,{'72'}
235,236,Buschallee Ecke Klement-Gottwald-Alle,bus,{'A46'}
236,237,Buschallee Ecke Klement-Gottwald-Allee,strassenbahn,{'70'}
237,238,Buschkrug,strassenbahn,{'47'}
238,239,Buschkrug Alle Ecke Blaschko-Allee,bus,{'A73'}
239,240,"Bölschestrasse, Brauerei",strassenbahn,{'87'}
240,241,Bötzowbahn,bus,{'A63'}
241,242,Bühler Weg,bus,{'A52'}
242,243,Bülowstr.,u-bahn,{'A I'}
243,244,Bürgerwäldchen,strassenbahn,{'83'}
244,245,Bürknersfelde,bus,"{'A43', 'O37'}"
245,246,Canovastrasse,bus,{'AS2'}
246,247,Canovastrasse (Krankenhaus),strassenbahn,{'66'}
247,248,Carl-Schurz-Strasse Ecke Neundorfer Strasse,bus,{'A13'}
248,249,Carl-von-Ossietzky-Werk,bus,"{'S-Bhf. Grünau <> Potsdam, Bassinplatz (VEB Potsdam-Babelsberg)'}"
249,250,Cauerstrasse,bus,{'AS1'}
250,251,Cauerstrasse,strassenbahn,{'55'}
251,252,Ceciliengärten,strassenbahn,{'66'}
252,253,Charlottenburg,s-bahn,"{'KBS 101', 'KBS 102'}"
253,254,Charlottenstrasse,strassenbahn,{'72'}
254,255,Chemische Fabrik,strassenbahn,{'86'}
255,256,Chemnitzer Ecke Ulmenstrasse,bus,"{'A8', 'A8E'}"
256,257,Chemnitzer Strasse Ecke Alt-Kaulsdorf,bus,{'A27'}
257,258,Clayallee,bus,{'A1'}
258,259,Clayallee Ecke Berliner Strasse,bus,{'A66'}
259,260,Clayallee Ecke Königin-Luise-Strasse,bus,{'A68'}
260,261,Clayallee/Teltower Damm,bus,{'AS3'}
261,262,Colomierstrasse,bus,{'A51'}
262,263,Columbiadamm,bus,{'A24'}
263,264,Corrensplatz,bus,{'A11'}
264,265,Cunostrasse,bus,{'A50'}
265,266,Cyclopstrasse,bus,{'A12'}
266,267,Dachdeckerweg Ecke Buckower Damm,strassenbahn,{'27'}
267,268,Dahlem-Dorf,u-bahn,"{'B II', 'A II'}"
268,269,Dahlemer Weg,bus,"{'A10', 'A48', 'A53'}"
269,270,Dahlewitz,s-bahn,{'KBS 105'}
270,271,Daimlerstrasse,bus,{'A77'}
271,272,Daimlerstrasse,strassenbahn,{'15'}
272,273,Dammweg,bus,{'A67'}
273,274,Dammweg,strassenbahn,{'15'}
274,275,Dammweg Ecke Sonnenallee,strassenbahn,{'95'}
275,276,Dankmarsteig,bus,{'A23'}
276,277,Daumstrasse,bus,{'A13'}
277,278,Degnerstrasse,strassenbahn,"{'64', '63'}"
278,279,Demminer Strasse Ecke Brunnenstrasse,bus,{'A64'}
279,280,Detmolder Strasse,bus,{'A1'}
280,281,Deutsche Oper (Bismarckstr.),u-bahn,"{'A III', 'A I'}"
281,282,Deutsches Oper (Bismarckstr.),u-bahn,{'B I'}
282,283,"Diepensee, Flughafen",bus,{'AD/36'}
283,284,Dimitroffstr.,u-bahn,{'A'}
284,285,Dimitroffstrasse,bus,{'A9'}
285,286,Dimitroffstrasse,strassenbahn,"{'71', '74', '64', '72', '63', '74E'}"
286,287,Dimitroffstrasse Ecke Leninallee,bus,{'O37'}
287,288,Dingelstädter Strasse,bus,{'O37'}
288,289,Dominicusstrasse,bus,"{'A4', 'A48'}"
289,290,Dominicusstrasse,strassenbahn,"{'74', '73'}"
290,291,Dominicusstrasse Ecke Hauptstrasse,bus,{'A75'}
291,292,Dominikus-Krankenhaus,bus,{'A15'}
292,293,Donnersmarckplatz,bus,"{'A12', 'A15'}"
293,294,"Doppel-Süd, Bechtheimer Strasse",bus,{'A66'}
294,295,Dorfaue,bus,"{'S-Bhf. Friedrichshagen <> Rüdersdorf, Karl-Marx-Platz (VEB Schöneiche-Rüdersdorf)'}"
295,296,Drakestrasse,bus,{'A48'}
296,297,Dudenstrasse,bus,{'A28'}
297,298,Dyotzer Strasse,bus,{'A63'}
298,299,Dönhoffplatz,strassenbahn,{'64'}
299,300,Düppel-Kleinmachnow,s-bahn,{'KBS 104a'}
300,301,Eberswalderstrasse Ecke Oderberger Strasse,strassenbahn,{'4'}
301,302,Ebertystrasse Ecke Leninallee,bus,{'O30'}
302,303,Edisonstrasse,strassenbahn,{'95'}
303,304,Efeuweg,bus,{'A52'}
304,305,Egelpfuhlstrasse,bus,{'A31'}
305,306,Ehrenmal,bus,"{'A55', 'A45'}"
306,307,Eichbornstr.,s-bahn,{'KBS 105'}
307,308,Eichbuschallee,bus,{'A47'}
308,309,Eichbuschplatz,bus,{'A38'}
309,310,Eichendamm,bus,{'S-Bhf. Rahnsdorf <> Woltersdorfer Schleuse (VEB Woltersdorf)'}
310,311,Eichkamp,bus,{'A69'}
311,312,Eichkamp,s-bahn,{'KBS 101'}
312,313,Eichwalde,s-bahn,{'KBS 103'}
313,314,"Eichwalde, Uhlandstrasse",bus,{'Schmöckwitz<>Eichwalde (VEB Kraftverkehr Schöneiche-Rüdersdorf)'}
314,315,EinemStrasse,bus,{'A16'}
315,316,Elisabethstrasse,bus,{'O37'}
316,317,Elisabethstrasse,strassenbahn,{'22'}
317,318,Elsenstraße Ecke Heidelberger Strasse,strassenbahn,{'3'}
318,319,Elsterplatz,bus,"{'A10', 'A50'}"
319,320,Elsässer Strasse,bus,{'A7'}
320,321,Emmentaler Strasse,bus,"{'A12', 'A71'}"
321,322,Emser Platz,bus,{'A50'}
322,323,Endestrasse,bus,{'A6'}
323,324,Englerallee,bus,{'A16'}
324,325,Erdener Strasse,bus,{'A19'}
325,326,Erkner,s-bahn,{'KBS 102'}
326,327,Erkstrasse,bus,{'A67'}
327,328,Erkstrasse Ecke Sonnenallee,strassenbahn,{'95'}
328,329,Ernst-Reuter-Platz,bus,{'A2'}
329,330,Ernst-Reuter-Platz,strassenbahn,{'2'}
330,331,Ernst-Reuter-Platz,u-bahn,"{'A I', 'B I'}"
331,332,"Ernst-Reuter-Platz, Straße des 17. Juni",bus,{'A2'}
332,333,Exerzierstrasse,bus,{'A61'}
333,334,Eythstrasse,bus,{'A74'}
334,335,Eythstrasse,strassenbahn,{'60'}
335,336,Fahlenbergstrasse Ecke Fürstenwalder Allee,bus,{'A22'}
336,337,Falkenberger Chaussee,bus,{'A39'}
337,338,Falkenbergerstrasse Ecke Wartenberger Strasse,strassenbahn,{'63'}
338,339,Falkenplatz,bus,{'A20'}
339,340,Falkensee,s-bahn,{'KBS 103'}
340,341,Falkenseer Chaussee,bus,{'A5'}
341,342,Fasanenstrasse,bus,{'S-Bhf. Rahnsdorf <> Woltersdorfer Schleuse (VEB Woltersdorf)'}
342,343,Fehrbelliner Platz,bus,"{'A74', 'A50'}"
343,344,Fehrbelliner Platz,strassenbahn,"{'3', '60'}"
344,345,Fehrbelliner Platz,u-bahn,"{'B II', 'A II'}"
345,346,Feldtmannstrasse,bus,{'A46'}
346,347,Feuerbachstr.,s-bahn,{'KBS 104'}
347,348,"Fichtenau, Stadtgrenze",bus,{'A22'}
348,349,Fichtestrasse Ecke Schopenhauerstrasse,bus,{'A8'}
349,350,Finckensteinallee,strassenbahn,{'74'}
350,351,Flinsberger Platz,bus,{'A50'}
351,352,Flughafen,bus,"{'A24', 'A19'}"
352,353,Flughafen,u-bahn,{'C II'}
353,354,Flughafen Schönefeld,bus,{'Flughafen Schönefeld <> Strausberger Platz'}
354,355,Flughafen Tempelhof,bus,"{'A77', 'A76'}"
355,356,Forckenbeckstrasse,bus,{'A50'}
356,357,Frankfurter Tor,u-bahn,{'E'}
357,358,Frankfurter Tor/Stalinallee,strassenbahn,"{'13', '4'}"
358,359,Frauenklinik,strassenbahn,{'15'}
359,360,Fredersdorf (b Bln),s-bahn,{'KBS 101'}
360,361,Freibad Grünau,strassenbahn,{'86'}
361,362,Freie Scholle,bus,{'A20'}
362,363,Friedenau,s-bahn,{'KBS 104'}
363,364,Friedenstrasse,bus,{'A6'}
364,365,Friedhof Rudow,bus,{'A52'}
365,366,Friedhof Ruhleben,bus,"{'A31', 'A5'}"
366,367,Friedrich-Junge-Strasse,bus,{'A82P'}
367,368,Friedrich-Körner-Strasse Ecke Britzer Damm,strassenbahn,{'27'}
368,369,Friedrich-Wilhelm-Platz,bus,{'A2'}
369,370,Friedrich-Wilhelm-Platz,strassenbahn,"{'78', '77'}"
370,371,Friedriche-Wilhelm-Platz,bus,{'A17'}
371,372,Friedrichsfelde (Tierpark),u-bahn,{'E'}
372,373,Friedrichsfelde Ost,s-bahn,{'KBS 101'}
373,374,Friedrichshagen,s-bahn,{'KBS 102'}
374,375,"Friedrichshagen, Wasserwerk",strassenbahn,{'84'}
375,376,Friedrichstr.,s-bahn,"{'KBS 102', 'KBS 104', 'KBS 101', 'KBS 103', 'KBS 105', 'KBS 106'}"
376,377,Friedrichstrasse,bus,"{'A57', 'A9'}"
377,378,Friedrichstrasse,strassenbahn,{'74'}
378,379,Friesenstrasse,bus,{'A4'}
379,380,Frohnau,s-bahn,{'KBS 106'}
380,381,Fuldastrasse,bus,{'A67'}
381,382,Fürstenbrunner Weg,bus,{'AS1'}
382,383,Fürstenwalder Damm,strassenbahn,{'84'}
383,384,Gabelung,bus,{'A13'}
384,385,"Galenusstrasse, Krankenhaus Pankow",strassenbahn,{'49'}
385,386,Gartenfeld,s-bahn,{'KBS 100c'}
386,387,"Gartenplatz, Feldstrasse",bus,{'A61'}
387,388,Gartenstadtweg,bus,{'AD/36'}
388,389,Gartenstrasse Ecke Bernauer Strasse,bus,{'A12'}
389,390,"Gatow, Kirche",bus,"{'A34', 'A35'}"
390,391,Gatower Strasse,bus,{'A35'}
391,392,Genslerstrasse Ecke Siegfriedstrasse,bus,{'O37'}
392,393,Germaniaplatz,strassenbahn,{'27'}
393,394,Germaniastrasse,strassenbahn,"{'26', '15'}"
394,395,Germersheimer Platz,bus,{'A35'}
395,396,Gerosteig,bus,{'A23'}
396,397,Gesundbrunnen,s-bahn,"{'KBS 106', 'KBS 105', 'KBS 100', 'KBS 104'}"
397,398,Gesundbrunnen,u-bahn,{'D'}
398,399,Giebelsee,s-bahn,{'KBS 101'}
399,400,Giesendorf Strasse Ecke Ostpreußendamm,strassenbahn,{'96'}
400,401,Glasow,bus,"{'S-Bhf. Grünau <> Potsdam, Bassinplatz (VEB Potsdam-Babelsberg)'}"
401,402,Gleisdreieck,u-bahn,"{'B II', 'A I', 'A II', 'B I'}"
402,403,"Glienicke, Kirche",bus,{'A7'}
403,404,Glienicker Brücke,bus,{'A6'}
404,405,Glogauer Strasse,strassenbahn,{'26'}
405,406,Gneisenaustr.,u-bahn,{'C I'}
406,407,Gneisenaustrasse,bus,{'A24'}
407,408,Goebelplatz,bus,{'A65'}
408,409,Goeben-/Pallasstrasse,bus,{'A48'}
409,410,Goerzallee,strassenbahn,"{'78', '77'}"
410,411,Goethestrasse,bus,{'S-Bhf. Rahnsdorf <> Woltersdorfer Schleuse (VEB Woltersdorf)'}
411,412,Goethestrasse Ecke Lichtenrader Damm,bus,{'A76'}
412,413,Goltzstrasse,bus,{'AS2'}
413,414,Gorkistrasse,bus,{'A15'}
414,415,GotenStrasse,strassenbahn,{'2'}
415,416,Gottlieb-Dunkel-Strasse,bus,{'A25'}
416,417,Gottlieb-Dunkel-Strasse Ecke Tempelhofer Weg,bus,{'A73'}
417,418,GotzkowskyStrasse,bus,{'A24'}
418,419,Gotzkowskybrücke,bus,{'A25'}
419,420,Gotzkowskybrücke,strassenbahn,{'2'}
420,421,Gotzkowskystrasse Ecke Turmstrasse,strassenbahn,{'3'}
421,422,Gradestrasse Ecke Britzer Damm,strassenbahn,{'27'}
422,423,Grazer Platz,bus,{'A25'}
423,424,Greifswalder Str.,s-bahn,"{'KBS 106', 'KBS 103a'}"
424,425,Greifswalder Strasse,bus,"{'A44', 'A44E'}"
425,426,Greifswalder Strasse,strassenbahn,"{'13', '4'}"
426,427,Greifswalderstrasse Ecke Dimitroffstrasse,bus,{'O30'}
427,428,Grenadierstrasse,bus,"{'A31', 'A5'}"
428,429,Grenzallee,u-bahn,{'C I'}
429,430,Grenzstrasse,bus,{'A12'}
430,431,Griebnitzsee,s-bahn,{'KBS 102'}
431,432,GritznerStrasse,bus,{'A32'}
432,433,Grottkauer Strasse,bus,{'A49'}
433,434,Groß Ziethen,bus,{'AZ'}
434,435,Große Seestrasse Ecke Klement-Gottwald-Allee,bus,{'A55'}
435,436,Großer Stern,bus,{'A69'}
436,437,Großglienicker Weg,bus,"{'A34', 'A35'}"
437,438,Großgörschenstr.,s-bahn,{'KBS 104'}
438,439,Grunewald,s-bahn,{'KBS 102'}
439,440,Grunewaldstrasse,bus,{'A73'}
440,441,Grunewaldstrasse,strassenbahn,"{'78', '77'}"
441,442,Grunewaldstrasse Ecke Martin-Luther-Strasse,strassenbahn,{'2'}
442,443,Grünau,s-bahn,"{'KBS 106', 'KBS 103', 'KBS 100a'}"
443,444,Grünberger Strasse,strassenbahn,{'4'}
444,445,Grüner Weg,bus,"{'A25', 'A52'}"
445,446,Grüntaler Straße Ecke Osloer Strasse,strassenbahn,{'3'}
446,447,Gustav-Adolf-Strasse Ecke Rennbahnstrasse,bus,{'A55'}
447,448,Gutschmidtstrasse,bus,{'A25'}
448,449,Gutschmidtstrasse Ecke Buckower Damm,strassenbahn,{'27'}
449,450,Gutshof,bus,{'A34'}
450,451,Gutshof Marienfelde,bus,{'A52'}
451,452,Görlitzer Bahnhof (Oranienstr.),u-bahn,"{'B II', 'B I'}"
452,453,Güntzelstrasse,bus,{'A60'}
453,454,Güteraußenring,bus,{'A42'}
454,455,Güterbahnhof Springpfuhl,bus,{'A43'}
455,456,Hackbuschstrasse,bus,{'A31'}
456,457,"Hackescher Markt, Große Präsidentenstrasse",strassenbahn,"{'49', '63'}"
457,458,Hafenplatz,bus,"{'A24', 'A34', 'AS1'}"
458,459,Hafenplatz,strassenbahn,"{'54', '53', '76', '75'}"
459,460,Hagenplatz,bus,"{'A17', 'A19'}"
460,461,Hainbuchenstrasse,bus,{'A12'}
461,462,Hakenfelde,strassenbahn,"{'53', '75'}"
462,463,Halensee,s-bahn,{'KBS 100'}
463,464,Hallesches Tor,u-bahn,"{'C I', 'B II', 'A II', 'B I'}"
464,465,Halskestrasse,bus,{'A33'}
465,466,Hamburger Platz,bus,"{'A55', 'A45', 'A56'}"
466,467,"Hamburger Strasse, Rudolf-Mosse-Platz",bus,{'A60'}
467,468,Hannoversche Strasse,strassenbahn,{'11'}
468,469,Hansaplatz,bus,"{'A16', 'A25'}"
469,470,HardenbergStrasse,bus,"{'AS2', 'AS3'}"
470,471,Hartmannsweiler Weg,bus,{'A53'}
471,472,Harzer Strasse,bus,{'A4'}
472,473,"Haselhorst, Kirche",bus,{'A10'}
473,474,Hatzfeldallee,bus,{'A20'}
474,475,Hauptkinderheim,bus,{'A5'}
475,476,Hauptstrasse (Schöneberg),bus,{'A74'}
476,477,Hauptstrasse (Schöneberg),strassenbahn,"{'60', '66'}"
477,478,Hauptstrasse Ecke Berliner Strasse,strassenbahn,{'64'}
478,479,Hauptstrasse Ecke Berliner strasse,strassenbahn,{'63'}
479,480,Hauptstrasse Ecke Dominicusstrasse,bus,{'A73'}
480,481,Hauptstrasse Ecke Dominicusstrasse,strassenbahn,{'2'}
481,482,Hauptstrasse Ecke Edelweißstrasse,bus,"{'A55', 'A45'}"
482,483,Hauptstrasse Ecke Karlshorster Strasse,strassenbahn,{'82'}
483,484,Hauptstrasse Ecke Suermondtstrasse,strassenbahn,{'70'}
484,485,Hausvogteiplatz,u-bahn,{'A'}
485,486,Havensteinstrasse Ecke Tautenberg Strasse,bus,{'A2'}
486,487,Heckerdamm,bus,"{'A62', 'A21'}"
487,488,Heckmannufer,bus,{'A28'}
488,489,Heerstr.,s-bahn,{'KBS 101'}
489,490,Heerstrasse,bus,"{'A34', 'A13', 'A35'}"
490,491,Heidebergplan,bus,{'A31'}
491,492,Heidelberger Platz,u-bahn,"{'B II', 'A II'}"
492,493,Heiligensee,s-bahn,{'KBS 105'}
493,494,Heiligenseestrasse,bus,"{'A14', 'A20'}"
494,495,"Heinersdorf, Kirche",bus,{'A42'}
495,496,"Heinersdorf, Kirche",strassenbahn,{'71'}
496,497,"Heinersdorf, Romain-Rolland-Str.",strassenbahn,{'71'}
497,498,Heinrich-Duncker-Strasse Ecke Ehrlichstrasse,strassenbahn,{'82'}
498,499,Heinrich-Heine-Strasse,strassenbahn,"{'11', '64'}"
499,500,Heinrich-Mann-Platz,bus,"{'A55', 'A45'}"
500,501,Hennigsdorf (b Bln),s-bahn,{'KBS 105'}
501,502,Hennigsdorf Nord,s-bahn,{'KBS 105'}
502,503,Hermannplatz,bus,{'A67'}
503,504,Hermannplatz,strassenbahn,"{'26', '3', '47', '27', '95'}"
504,505,Hermannplatz,u-bahn,"{'C I', 'D'}"
505,506,Hermannstr.,s-bahn,"{'KBS 100', 'KBS 100a'}"
506,507,Hermannstrasse,strassenbahn,"{'26', '15'}"
507,508,Hermannstrasse Ecke Germaniastrasse,bus,{'A65'}
508,509,Hermsdorf,s-bahn,{'KBS 106'}
509,510,Hermsdorfer Damm,bus,"{'A12', 'A15'}"
510,511,Hertzbergplatz,bus,{'A67'}
511,512,Hertzbergplatz,strassenbahn,{'95'}
512,513,"Hessenwinkel, Lindenstrasse",bus,{'A22'}
513,514,Hildburghauser Strasse,bus,{'A11'}
514,515,Hindenburgdamm,bus,{'A48'}
515,516,Hindenburgdamm,strassenbahn,"{'78', '77'}"
516,517,Hirschgarten,s-bahn,{'KBS 102'}
517,518,Hirschgarten,strassenbahn,"{'84', '87'}"
518,519,Hirtestrasse,strassenbahn,{'86'}
519,520,Hochgerichtstrasse,bus,"{'A5', 'A63'}"
520,521,Hochmeisterplatz,bus,{'A4'}
521,522,Hochschule für Ökonomie,strassenbahn,{'69'}
522,523,Hohen-Neuendorf (b Bln),s-bahn,{'KBS 104'}
523,524,"Hohenschönhausen, Falkenberger Strasse",bus,{'A39'}
524,525,"Hohenschönhausen, Falkenberger Strasse",strassenbahn,"{'64', '70'}"
525,526,"Hohenschönhausen, Gartenstadt",strassenbahn,{'63'}
526,527,Hohenschönhauser Strasse,strassenbahn,{'3'}
527,528,Hohenschöpping,s-bahn,{'KBS 105'}
528,529,Hohenstaufenplatz,bus,{'A67'}
529,530,Hohenzollerndamm,bus,{'A50'}
530,531,Hohenzollerndamm,s-bahn,{'KBS 100'}
531,532,Hohenzollernplatz,u-bahn,"{'B II', 'A II'}"
532,533,Hohenzollernring,bus,{'AS1'}
533,534,Hohenzollernring,strassenbahn,"{'54', '53', '76', '75'}"
534,535,Holteistrasse Ecke Boxhagener Strasse,strassenbahn,{'3'}
535,536,Holteistrasse Ecke Boxhagenerstrasse,strassenbahn,{'13'}
536,537,Holzhauser Str.,u-bahn,{'C I'}
537,538,Holzhauser Strasse,bus,"{'A14', 'A12', 'A15'}"
538,539,Hoppegarten (Mark),s-bahn,{'KBS 101'}
539,540,Hottengrund,bus,{'A35'}
540,541,Hultschiner Damm,bus,{'A8'}
541,542,Humannplatz,strassenbahn,{'70'}
542,543,Humboldthain,s-bahn,"{'KBS 106', 'KBS 105', 'KBS 104'}"
543,544,Humboldtstrasse,bus,{'A61'}
544,545,Hundekehlestrasse,bus,{'A10'}
545,546,Händelplatz,strassenbahn,"{'74', '78', '73', '77'}"
546,547,"Hönow, Dorfstrasse",bus,{'A44'}
547,548,Ihnestrasse,bus,{'A11'}
548,549,Imbrosweg,strassenbahn,{'15'}
549,550,Industriestrasse,strassenbahn,"{'26', '15'}"
550,551,Innsbrucker Platz,bus,"{'A16', 'A75', 'A65', 'A4', 'A48'}"
551,552,Innsbrucker Platz,s-bahn,"{'KBS 100', 'KBS 100a'}"
552,553,Innsbrucker Platz,strassenbahn,"{'74', '73', '66'}"
553,554,Innsbrucker Platz (Hauptstr.),u-bahn,{'B III'}
554,555,Invalidenstrasse Ecke Chausseestrasse,strassenbahn,{'1'}
555,556,"J denstrasse, Molkenmarkt",strassenbahn,{'71'}
556,557,Jakob-Kaiser-Platz,bus,{'A72'}
557,558,Jakob-Kaiser-Platz,strassenbahn,{'55'}
558,559,Jannowitzbrücke,s-bahn,"{'KBS 101', 'KBS 103', 'KBS 102'}"
559,560,"Jerusalems-Kirche, Lindenstrasse",bus,{'A67'}
560,561,Joachim-Friedrich-Strasse,bus,{'A29'}
561,562,Joachim-Friedrich-Strasse Ecke Kurfürsten Damm,bus,{'A69'}
562,563,Joachimstaler Strasse,bus,"{'A29', 'A19', 'A60'}"
563,564,Joachimstaler Strasse Ecke Kurfürstendamm,bus,{'A69'}
564,565,Joachimstrasse,bus,{'A38'}
565,566,Johannesstift,strassenbahn,"{'54', '76'}"
566,567,"Johannisthal, Haeckelstrasse",strassenbahn,{'69'}
567,568,Johannisthaler Chaussee,bus,{'A47'}
568,569,Johannisthaler Chaussee,strassenbahn,{'47'}
569,570,John-Foster-Dulles-Allee,bus,{'A24'}
570,571,Jungfernheide,s-bahn,"{'KBS 100', 'KBS 100c', 'KBS 103a'}"
571,572,Jänickestrasse,bus,{'A53'}
572,573,Kaiser-Friedrich-Strasse,bus,{'A74'}
573,574,Kaiser-Wilhelm-Platz,bus,"{'A4', 'A75', 'A48'}"
574,575,Kaiser-Wilhelm-Platz,strassenbahn,"{'74', '2', '73'}"
575,576,Kaiserdamm (Messedamm),u-bahn,"{'A I', 'B I'}"
576,577,Kaisereiche,bus,"{'A25', 'A75', 'A48'}"
577,578,Kaisereiche,strassenbahn,"{'74', '73'}"
578,579,Kaiserin-Augusta-Strasse Ecke Tempelhofer Damm,bus,{'A68'}
579,580,Kaiserstrasse,bus,{'A33'}
580,581,Kaiserstrasse Ecke Lichtenrader Damm,bus,{'A76'}
581,582,Kaiserstrasse Ecke Mariendorfer Damm,bus,{'A77'}
582,583,Kaiserstrasse/Ringstrasse,bus,{'A33'}
583,584,Kali-Chamie,strassenbahn,{'95'}
584,585,Kali-Chemie,strassenbahn,{'92'}
585,586,Kanalstrasse,bus,{'A52'}
586,587,Kantstrasse,bus,{'A21'}
587,588,Karl-Marx-Platz,strassenbahn,"{'26', '47'}"
588,589,Karl-Marx-Str.,u-bahn,{'C I'}
589,590,Karlshorst,s-bahn,{'KBS 102'}
590,591,Karlshorster Strasse,strassenbahn,{'13'}
591,592,Karolinenhof Mitte,strassenbahn,{'86'}
592,593,Karolinenstrasse,bus,{'A20'}
593,594,Karow,s-bahn,{'KBS 106'}
594,595,"Karow, Bahnhofstrasse",bus,{'A42'}
595,596,"Karower Strasse, Alt-Buch",bus,{'A42'}
596,597,Kaserne Südtor,bus,{'A21'}
597,598,Katzbachstrasse,bus,{'A19'}
598,599,Kaulsdorf,s-bahn,{'KBS 101'}
599,600,"Kaulsdorf, Bausdorfstrasse",bus,{'A49'}
600,601,Kinderheim,bus,{'A82P'}
601,602,Kinderheim Ruhleben,bus,{'A31'}
602,603,Kirchstrasse,bus,{'A12'}
603,604,Kirschenallee,strassenbahn,"{'54', '53'}"
604,605,Kisselnallee Ecke Pionierstrasse,bus,{'A63'}
605,606,Kladow,Fähre,{'Wannsee<>Kladow (Betrieb durch Stern und Kreisschiffahrt)'}
606,607,Klausenerplatz,bus,{'A74'}
607,608,Klausenerplatz,strassenbahn,"{'54', '53'}"
608,609,Klein Ziethen,bus,{'AZ'}
609,610,"Kleinbahn, Buckower Damm",strassenbahn,{'27'}
610,611,Klement-Gottwald-Allee Ecke Remmbahnstrasse,bus,{'A45'}
611,612,Klement-Gottwald-Allee Ecke Rennbahnstrasse,bus,{'A46'}
612,613,Klement-Gottwald-Allee Ecke Rennbahnstrasse,strassenbahn,"{'74', '72', '74E'}"
613,614,Klement-Gottwalt-Allee,strassenbahn,{'3'}
614,615,"Klingenberg, Blockdammweg",strassenbahn,"{'13', '82'}"
615,616,Klingsorstrasse,bus,{'A33'}
616,617,Klinkeplatz,bus,{'AS1'}
617,618,Klosterstr.,u-bahn,{'A'}
618,619,Klosterstrasse,bus,{'O30'}
619,620,Knesebeckstrasse,bus,{'A53'}
620,621,Kniprodestrasse,strassenbahn,"{'13', '4'}"
621,622,Kniprodestrasse Ecke Ermländische Strasse,bus,{'A57'}
622,623,KoblanckStrasse,bus,{'A51'}
623,624,Kochstr.,u-bahn,{'C I'}
624,625,Kohlhasenbr ck,bus,{'A18'}
625,626,"Kolonie ""Land in Sonne""",bus,{'A39'}
626,627,Kongreßhalle,bus,{'A69'}
627,628,Konstanzer Strasse,bus,{'A50'}
628,629,Konsum Wernsdorf,bus,{'Schmöckwitz<>Ziegenhals (VEB Kraftverkehr Schöneiche-Rüdersdorf)'}
629,630,Konsum Ziegenhals,bus,{'Schmöckwitz<>Ziegenhals (VEB Kraftverkehr Schöneiche-Rüdersdorf)'}
630,631,Kopenhagener Strasse,bus,{'A14'}
631,632,Kopernikusstrasse,strassenbahn,"{'3', '4'}"
632,633,Kosterstrasse,bus,{'O30'}
633,634,Kottbusser Brücke,bus,{'A67'}
634,635,Kottbusser Damm (Schönleinstr.),u-bahn,{'D'}
635,636,Kottbusser Tor,u-bahn,"{'B I', 'B II', 'A II', 'D'}"
636,637,Kraftwerk Klingenberg,strassenbahn,{'13'}
637,638,Kraftwerk Lingenberg,strassenbahn,{'82'}
638,639,Krampnitzer Weg,bus,{'A35'}
639,640,Krankenhaus Havelh he,bus,{'A35'}
640,641,Krankenhaus Havelhöhe,bus,{'A34'}
641,642,Krankenhaus Heckeshorn,bus,{'A51'}
642,643,Krankenhaus Hohengatow,bus,"{'A34', 'A35'}"
643,644,Krankenhaus Köpenick,strassenbahn,{'95'}
644,645,Krankenhaus Moabit,bus,{'A70'}
645,646,Krankenhaus Tegel-Süd,bus,{'A13'}
646,647,Krankenhaus Wannsee,bus,{'A51'}
647,648,Krankenhause Neukölln,strassenbahn,{'47'}
648,649,Kreuzbergstrasse,bus,{'A28'}
649,650,Kronprinzessinen Weg,bus,{'A18'}
650,651,Krumme Lanke,u-bahn,"{'B II', 'A II'}"
651,652,Kurfürstendamm,bus,"{'A74', 'AS3', 'A1', 'A21', 'AS2', 'A10', 'A60'}"
652,653,Kurfürstenstr.,u-bahn,"{'B II', 'B I'}"
653,654,Kurfürstenstrasse,bus,{'A33'}
654,655,Kurfürstenstrasse,u-bahn,{'A II'}
655,656,Kurische Strasse,bus,{'A9'}
656,657,Kurt-Fischer-Platz,bus,{'A7'}
657,658,Kurt-Fischer-Platz,strassenbahn,"{'46', '22'}"
658,659,Kurt-Schumacher-Damme,bus,{'A65'}
659,660,Kurt-Schumacher-Platz,bus,{'A21'}
660,661,Kurt-Schumacher-Platz,u-bahn,{'C I'}
661,662,Köllnische Heide,s-bahn,{'KBS 100a'}
662,663,Köllnischer Platz,strassenbahn,"{'84', '86'}"
663,664,Königin-Elisabeth-Strasse,bus,"{'A65', 'A74'}"
664,665,Königin-Elisabeth-Strasse,strassenbahn,"{'54', '53', '60'}"
665,666,Königin-Luise-Strasse,bus,"{'A10', 'AS3'}"
666,667,Königs Wusterhausen,s-bahn,{'KBS 103'}
667,668,Königstor,bus,"{'O40', 'A57', 'A9'}"
668,669,Königstor,strassenbahn,"{'74', '74E'}"
669,670,Königstrasse,bus,{'A6'}
670,671,Königstrasse/Kronprinzessinnenweg,bus,{'A51'}
671,672,Köpenick,s-bahn,{'KBS 102'}
672,673,"Köpenick, Krankenhaus",bus,{'A27'}
673,674,Köpenicker Landstrasse Ecke Baumschulenstrasse,strassenbahn,{'87'}
674,675,Köpenicker Strasse,bus,"{'A52', 'A28'}"
675,676,Köpenicker Strasse,strassenbahn,"{'84', '47'}"
676,677,Körtingstrasse,bus,{'A77'}
677,678,Körtingstrasse,strassenbahn,{'15'}
678,679,Küstriner Platz,bus,"{'O40', 'O30'}"
679,680,LPG Falkenberg,bus,{'A46'}
680,681,Landgericht,bus,"{'A72', 'A65'}"
681,682,Landsberger Chaussee,strassenbahn,{'3'}
682,683,Lange Strasse,bus,{'A11'}
683,684,Langhans Strasse Ecke Gustav-Adolf-Strasse,bus,{'A45'}
684,685,Langhansstrasse Ecke Gustav-Adolf-Strasse,bus,{'A55'}
685,686,Lankwitz,s-bahn,{'KBS 106'}
686,687,"Lankwitz, Kirche",bus,"{'A2', 'A32'}"
687,688,"Lankwitz, Kirche",strassenbahn,{'96'}
688,689,Lauenburger Platz,bus,{'A75'}
689,690,Lauterplatz,strassenbahn,"{'74', '73'}"
690,691,Lehnitz,s-bahn,{'KBS 104'}
691,692,Lehrter Stadtbahnhof,s-bahn,"{'KBS 101', 'KBS 102'}"
692,693,Leibnizstrasse Ecke Kurfürstendamm,bus,{'A69'}
693,694,Leibnizstrasse Ecke Otto-Suhr-Allee,bus,{'A62'}
694,695,Leinestr.,u-bahn,{'D'}
695,696,Leipziger Strasse Ecke Wilhelmstrasse,strassenbahn,{'74'}
696,697,Leninallee,s-bahn,"{'KBS 106', 'KBS 103a'}"
697,698,Leninallee,strassenbahn,"{'13', '4'}"
698,699,Leninplatz,bus,{'O40'}
699,700,Leninplatz,strassenbahn,"{'64', '63', '1'}"
700,701,LeonorenStrasse,bus,"{'A17', 'A32'}"
701,702,Leonorenstrasse Ecke Albrechstrasse,bus,{'A2'}
702,703,Leopoldplatz,bus,{'A64'}
703,704,Leopoldplatz,u-bahn,{'C I'}
704,705,Lepsiusstrasse,bus,{'A68'}
705,706,Lerbaacher Weg Ecke Tautenbergstrasse,bus,{'A2'}
706,707,Lerchenstrasse,bus,{'S-Bhf. Rahnsdorf <> Woltersdorfer Schleuse (VEB Woltersdorf)'}
707,708,"Letteplatz, Strassenbahnhof",bus,{'A71'}
708,709,Leuthingerweg,bus,{'A63'}
709,710,Lichtenberg,s-bahn,{'KBS 101'}
710,711,Lichtenberger Strasse,strassenbahn,"{'74', '70', '72', '74E'}"
711,712,Lichtenrade,s-bahn,{'KBS 105'}
712,713,"Lichtenrade, Blohmstrasse Ecke Wünsdorfer Strasse",bus,{'AS2'}
713,714,"Lichtenrade, Goethestrasse",bus,{'AS2'}
714,715,Lichtenrader Damm,bus,{'A52'}
715,716,Lichterfelde Ost,s-bahn,{'KBS 106'}
716,717,Lichterfelde Süd,s-bahn,{'KBS 106'}
717,718,Lichterfelde West,s-bahn,{'KBS 104'}
718,719,Lindauer Strasse,bus,"{'A12', 'A71'}"
719,720,Lindauer Strasse Ecke Residenzstrasse,bus,{'A72'}
720,721,Lindenberg,bus,{'AL'}
721,722,Lindenstrasse,bus,{'A1'}
722,723,Lindenstrasse,strassenbahn,"{'96', '78'}"
723,724,Lindenstrasse Ecke Bahnhofstrasse,strassenbahn,"{'84', '83', '95', '86'}"
724,725,Lindenthaler Allee,s-bahn,{'KBS 104'}
725,726,Lindenweg,bus,"{'A14', 'A12'}"
726,727,Loewenhardtdamm,bus,{'A28'}
727,728,Louise-Schroeder-Platz,bus,{'A16'}
728,729,Ludwigkirchstrasse/Pariser Strasse,bus,{'A60'}
729,730,Luise-Schröder-Platz,bus,{'A72'}
730,731,Luisenplatz,bus,"{'A62', 'A21', 'A65', 'AS1'}"
731,732,Luisenplatz,strassenbahn,"{'54', '3', '55', '53'}"
732,733,Lupsteiner Weg,bus,{'A10'}
733,734,Lutherplatz,bus,"{'S-Bhf. Grünau <> Potsdam, Bassinplatz (VEB Potsdam-Babelsberg)'}"
734,735,Lutherstrasse,bus,{'A29'}
735,736,Luxemburgplatz,u-bahn,{'A'}
736,737,Luzerner Strasse,bus,{'A53'}
737,738,Lynastrasse,bus,{'AS1'}
738,739,Lynastrasse Ecke Neuendorfer Strasse,strassenbahn,"{'54', '53'}"
739,740,"Lübars, Dorfaue",bus,{'A20'}
740,741,Lübarser Strasse,bus,{'A15'}
741,742,Lützowplatz,bus,"{'A16', 'A24', 'A69'}"
742,743,Lützowstrasse,bus,"{'A29', 'A48'}"
743,744,Lützowstrasse,strassenbahn,"{'74', '73'}"
744,745,Machandelweg,bus,"{'A31', 'A5'}"
745,746,Machnower Strasse Ecke Berlepschstrasse,bus,{'A66'}
746,747,Magdalenenstr.,u-bahn,{'E'}
747,748,Magistratsweg,bus,{'A31'}
748,749,Mahlow,s-bahn,{'KBS 105'}
749,750,Mahlsdorf,s-bahn,{'KBS 101'}
750,751,Mahlsdorf-Süd,strassenbahn,{'83'}
751,752,"Mahlsdorf-Süd, Hubertus",strassenbahn,"{'82', '86'}"
752,753,"Malchow, Dorfstrasse",bus,"{'A46', 'AL'}"
753,754,Malchower Weg,bus,{'A46'}
754,755,Marburger Strasse,bus,{'A62'}
755,756,Marchandstrasse,bus,{'A32'}
756,757,Marchlewskistr.,u-bahn,{'E'}
757,758,Margaretenstrasse,bus,{'A48'}
758,759,Mariannenplatz,bus,{'A28'}
759,760,Mariendorf,s-bahn,{'KBS 105'}
760,761,Mariendorfer Damm,bus,"{'AS2', 'A77'}"
761,762,Mariendorfer Damm,strassenbahn,{'15'}
762,763,Mariendorfer Friedhof,strassenbahn,{'15'}
763,764,Mariendorfer Weg Ecke Hermannstrasse,strassenbahn,{'27'}
764,765,Marienfelde,s-bahn,{'KBS 105'}
765,766,Marienfelder Allee,bus,{'A32'}
766,767,Marienfelder Strasse,bus,{'A32'}
767,768,Marienfelder Strasse Ecke Lichtenrader Damm,bus,{'A76'}
768,769,Marienstrasse,bus,{'A11'}
769,770,Markgrafendamm,bus,{'A82P'}
770,771,Markgrafenstrasse Ecke Tempelhofer Damm,bus,{'A77'}
771,772,Marktplatz,strassenbahn,{'84'}
772,773,Martin-Luther-Friedhof,bus,{'A20'}
773,774,Martin-Luther-Strasse,bus,{'A74'}
774,775,Martin-Luther-Strasse Ecke Grunewald-Strasse,strassenbahn,{'3'}
775,776,Marx-Engels-Platz,bus,"{'A57', 'A9'}"
776,777,Marx-Engels-Platz,s-bahn,"{'KBS 101', 'KBS 103', 'KBS 102'}"
777,778,"Marzahn, Berliner Chaussee",bus,{'A43'}
778,779,Marzahner Chaussee,bus,{'O37'}
779,780,Masurenallee,bus,{'A65'}
780,781,Mattenbuder Pfad,bus,{'A14'}
781,782,Mehringdamm,bus,"{'A19', 'A28'}"
782,783,Mehringdamm,u-bahn,"{'C I', 'C II'}"
783,784,Mehringdamm Ecke Yorck Strasse,strassenbahn,{'3'}
784,785,Mehringplatz,strassenbahn,"{'96', '95'}"
785,786,Messedamm,bus,{'A4'}
786,787,Messedamm,strassenbahn,"{'76', '75'}"
787,788,Mimosenweg,bus,{'A52'}
788,789,Mittelstrasse,bus,{'A18'}
789,790,Mohriner Allee Ecke Buckower Damm,strassenbahn,{'27'}
790,791,Molkenmarkt,strassenbahn,"{'74', '72', '74E'}"
791,792,Moltkestrasse,strassenbahn,"{'74', '73'}"
792,793,Morgensternstrasse Ecke Wilhelmstrasse,bus,"{'A11', 'A17'}"
793,794,Moritzplatz,bus,{'A67'}
794,795,Moritzplatz,u-bahn,{'D'}
795,796,Motzstrasse,bus,{'A73'}
796,797,Munsterdamm Ecke Bergstrasse,bus,{'A68'}
797,798,Munsterdamm Ecke Steglitzer Damm,bus,{'A75'}
798,799,Märkisches Museum,u-bahn,{'A'}
799,800,Möckernbrücke,u-bahn,"{'B II', 'A II', 'B I'}"
800,801,Müggelheim,bus,{'A27'}
801,802,Müggelseeperle,bus,{'A27'}
802,803,Mühlenstrasse,bus,{'A20'}
803,804,Nachtigalplatz,bus,{'A64'}
804,805,Nassauische Strasse,bus,{'A50'}
805,806,Nauener Platz,bus,{'A72'}
806,807,Nauener Strasse,bus,{'A31'}
807,808,Nauener Strasse,strassenbahn,{'55'}
808,809,Nettelbeckstrasse,bus,{'A69'}
809,810,Neu-Lindenberg,bus,{'AL'}
810,811,Neu-Westend,u-bahn,{'B I'}
811,812,Neuenhagen (b Bln),s-bahn,{'KBS 101'}
812,813,Neukölln,s-bahn,"{'KBS 100', 'KBS 100a'}"
813,814,Neukölln (Südring),u-bahn,{'C I'}
814,815,Neuköllnische Allee,bus,{'A67'}
815,816,"Niederschönhausen, Schillerstrasse",strassenbahn,{'46'}
816,817,Nikolassee,s-bahn,"{'KBS 102', 'KBS 104'}"
817,818,Nikolskoer Weg,bus,{'A6'}
818,819,Nollendorfplatz,bus,{'A19'}
819,820,Nollendorfplatz,strassenbahn,{'55'}
820,821,Nollendorfplatz,u-bahn,"{'B II', 'A I', 'B I', 'B III', 'A II'}"
821,822,"Nonnendammallee, Siemensstadt",bus,{'A72'}
822,823,Nordend,bus,{'A7'}
823,824,Nordend,strassenbahn,{'46'}
824,825,Nordendstrasse,strassenbahn,{'22'}
825,826,Nordgraben,bus,{'A14'}
826,827,Nöldnerplatz,s-bahn,{'KBS 101'}
827,828,Nürnberger Strasse Ecke Kurfürstenstrasse,bus,{'A69'}
828,829,Oberhofer Platz,bus,{'A17'}
829,830,Oberspree,s-bahn,{'KBS 103a'}
830,831,"Oberspree, Bruno-Bürgel-Weg",strassenbahn,{'92'}
831,832,Oderberger Strasse Ecke Eberswalderstrasse,strassenbahn,{'13'}
832,833,Olivaer Platz,bus,"{'A29', 'A19'}"
833,834,Olympia-Stadion,u-bahn,{'B I'}
834,835,Olympiastadion,s-bahn,{'KBS 101'}
835,836,Onkel Toms Hütte,u-bahn,"{'B II', 'A II'}"
836,837,Onkel-Herse-Strasse,strassenbahn,{'47'}
837,838,Oranienburg,s-bahn,{'KBS 104'}
838,839,Oranienburger Strasse,bus,{'A21'}
839,840,Oranienburger Tor,bus,"{'O40', 'A9'}"
840,841,Oranienburger Tor,strassenbahn,"{'11', '46', '70', '1'}"
841,842,Oraniendamm,bus,{'A20'}
842,843,Oranienplatz,bus,{'A67'}
843,844,Oranienstrasse,bus,"{'A75', 'A28'}"
844,845,Ortsgrenze Gatow,bus,"{'A34', 'A35'}"
845,846,Oskar-Helene-Heim,u-bahn,"{'B II', 'A II'}"
846,847,Osloer Strasse,bus,"{'A61', 'A71', 'A70'}"
847,848,OsnaBrücker Strasse,strassenbahn,{'55'}
848,849,Ossietzkyplatz,strassenbahn,{'46'}
849,850,Ostbahnhof,bus,"{'O40', 'Flughafen Schönefeld <> Strausberger Platz'}"
850,851,Ostbahnhof,s-bahn,"{'KBS 101', 'KBS 103', 'KBS 102'}"
851,852,Ostbahnhof,strassenbahn,"{'82', '1'}"
852,853,Osteweg,bus,{'A53'}
853,854,Ostkreuz,s-bahn,"{'KBS 103a', 'KBS 102', 'KBS 101', 'KBS 103', 'KBS 106'}"
854,855,Ostpreußendamm Ecke Morgenstern Strasse,strassenbahn,{'96'}
855,856,Otto-Surh-Allee,bus,{'A1'}
856,857,P cklerstrasse,bus,{'AS3'}
857,858,Pacelli-/Thielallee,bus,{'A1'}
858,859,Pankow,s-bahn,{'KBS 106'}
859,860,Pankow (Vinetastr.),u-bahn,{'A'}
860,861,"Pankow, Kirche",bus,"{'A55', 'A45'}"
861,862,"Pankow, Kirche",strassenbahn,"{'49', '22'}"
862,863,"Pankow, Rathaus",bus,"{'A55', 'A45', 'A7'}"
863,864,"Pankow, Rathaus",strassenbahn,{'46'}
864,865,Pankow-Heinersdorf,s-bahn,{'KBS 106'}
865,866,Pankower Allee,bus,{'A14'}
866,867,Pankower Allee Ecke Residenzstrasse,bus,{'A72'}
867,868,Pankstrasse,bus,"{'A14', 'A61'}"
868,869,Papestr.,s-bahn,"{'KBS 106', 'KBS 105', 'KBS 100', 'KBS 100a'}"
869,870,Paradestr.,u-bahn,{'C II'}
870,871,Paradestrasse,bus,{'A77'}
871,872,Parchimer Allee,strassenbahn,{'47'}
872,873,Pariser Strasse Ecke Joachimstaler Strasse,bus,{'A25'}
873,874,"Parkfriedhof Neukölln, Buckower Damm",strassenbahn,{'27'}
874,875,Parkstrasse,strassenbahn,"{'82', '87', '95'}"
875,876,Paulsternstrasse,bus,"{'A13', 'A10'}"
876,877,Paulsternstrasse,strassenbahn,{'55'}
877,878,Pfaueninsel-Chaussee,bus,"{'A18', 'A6'}"
878,879,Pfaueninsel-Chaussee Ecke Königstrasse,bus,{'A3'}
879,880,Pichelsberg,s-bahn,{'KBS 101'}
880,881,Pichelsdorfer Strasse,strassenbahn,"{'76', '75'}"
881,882,Pichelsdorfer Strasse Ecke Pichelsdorfer Strasse,bus,{'A13'}
882,883,Pistoriusstrasse Ecke Klement-Gottwald-Allee,bus,{'A45'}
883,884,Platz der Luftbrücke,bus,"{'A77', 'A76'}"
884,885,Platz vor dem Neuen Tor,bus,{'A9'}
885,886,PlÃ¤nterwald,s-bahn,"{'KBS 103', 'KBS 103a'}"
886,887,Plänterwald,s-bahn,{'KBS 106'}
887,888,Podbielskiallee,u-bahn,"{'B II', 'A II'}"
888,889,Post,bus,"{'S-Bhf. Friedrichshagen <> Rüdersdorf, Karl-Marx-Platz (VEB Schöneiche-Rüdersdorf)'}"
889,890,Postamt,bus,{'A60'}
890,891,Potsdam,s-bahn,{'KBS 102'}
891,892,"Potsdam, Bassinplatz",bus,"{'S-Bhf. Grünau <> Potsdam, Bassinplatz (VEB Potsdam-Babelsberg)'}"
892,893,Potsdamer Platz,strassenbahn,"{'74', '73'}"
893,894,Potsdamer Strasse,bus,"{'A29', 'A1', 'A19', 'A18', 'A53', 'A24'}"
894,895,Potsdamer Strasse Ecke Fischerhüttenstrasse,bus,{'A48'}
895,896,Potsdamer Strasse Ecke Pallasstrasse,strassenbahn,{'3'}
896,897,Prager Platz,bus,{'A50'}
897,898,Prenzlauer Allee,s-bahn,{'KBS 106'}
898,899,Prenzlauer Allee,strassenbahn,"{'13', '4'}"
899,900,Prenzlauer Allee Ecke Wisbyer Strasse,strassenbahn,{'71'}
900,901,Prenzlauer Promenade,bus,{'A56'}
901,902,Prenzlauer Promenade,strassenbahn,"{'70', '3', '72'}"
902,903,Prenzlauer Promenade (Spitze),bus,{'A42'}
903,904,Prenzlauer Promenade Ecke Granitzstrasse,bus,{'A55'}
904,905,Prenzlauer Promenade Ecke Kissingenstrasse,bus,{'A45'}
905,906,Prenzlauer Tor,bus,{'O40'}
906,907,Prenzlauer Tor,strassenbahn,{'71'}
907,908,Priesterweg,s-bahn,"{'KBS 106', 'KBS 105'}"
908,909,Prinzenallee Ecke Exerzierstrasse,bus,{'A64'}
909,910,Prinzenallee/Soldiner Strasse,bus,{'A71'}
910,911,Prinzenstr.,u-bahn,"{'B II', 'B I'}"
911,912,Prinzenstrasse,u-bahn,{'A II'}
912,913,Proskauer Ecke Dolziger Strasse,bus,{'O30'}
913,914,Provinzstrasse/Pankower Allee,bus,{'A71'}
914,915,Putlitzstr.,s-bahn,{'KBS 100'}
915,916,PÃ¤wesiner Weg,bus,{'A13'}
916,917,Quantzstrasse,bus,{'A18'}
917,918,Quellweg,strassenbahn,{'55'}
918,919,Quellweg Ecke Nonnendamm Allee,bus,{'A72'}
919,920,Radelandstrasse,bus,{'A63'}
920,921,Rahnsdorf,s-bahn,{'KBS 102'}
921,922,Rahnsdorf,strassenbahn,{'87'}
922,923,Ramlerstrasse,bus,{'A71'}
923,924,Ramlerstrasse Ecke Brunnenstrasse,bus,{'A64'}
924,925,Rangsdorf,s-bahn,{'KBS 105'}
925,926,"Rankeplatz, Bundeshaus",bus,{'AS2'}
926,927,Rankeplatz/Bundeshaus,bus,{'AS3'}
927,928,Rannbahn,bus,{'A76'}
928,929,Rathaus Lcihtenberg,strassenbahn,{'3'}
929,930,Rathaus Mahlsdorf,strassenbahn,{'83'}
930,931,Rathaus Mariendorf,bus,{'A33'}
931,932,Rathaus Neukölln,strassenbahn,"{'26', '47'}"
932,933,Rathaus Neukölln,u-bahn,{'C I'}
933,934,Rathaus Sch neberg,bus,{'A16'}
934,935,Rathaus Schöneberg,bus,"{'A4', 'A73', 'A74'}"
935,936,Rathaus Schöneberg,strassenbahn,"{'2', '60'}"
936,937,Rathaus Schöneberg,u-bahn,{'B III'}
937,938,Rathaus Spandau,bus,"{'A31', 'A35', 'A13', 'A5', 'A63', 'AS1', 'A34'}"
938,939,Rathaus Spandau,strassenbahn,"{'76', '55', '75'}"
939,940,Rathaus Steglitz,bus,"{'A17', 'A68', 'A48', 'A32'}"
940,941,Rathaus Steglitz,strassenbahn,"{'74', '78', '73', '77'}"
941,942,Rathaus Tempelhof,bus,{'A77'}
942,943,Rathaus Tiergarten,bus,{'A70'}
943,944,Rathaus Wannsee,bus,"{'A18', 'A6', 'A3'}"
944,945,Rathaus Zehlendorf,bus,"{'A66', 'A3', 'AS3'}"
945,946,Rathenauplatz,bus,{'A65'}
946,947,Rathenower Strasse,bus,"{'A24', 'A70'}"
947,948,Rathenower Strasse Ecke Perleberger Strasse,bus,{'A72'}
948,949,Rathenower Strasse Ecke Perleberger Strasse,strassenbahn,{'2'}
949,950,Rehberge,u-bahn,{'C I'}
950,951,Reichenberger Strasse,strassenbahn,{'26'}
951,952,Reichskanzlerplatz,bus,{'A4'}
952,953,Reichskanzlerplatz,strassenbahn,"{'76', '75'}"
953,954,Reichskanzlerplatz,u-bahn,"{'A I', 'B I'}"
954,955,Reichssportfeldstrasse,strassenbahn,"{'76', '75'}"
955,956,Reifenwerk,bus,{'Schmöckwitz<>Ziegenhals (VEB Kraftverkehr Schöneiche-Rüdersdorf)'}
956,957,Reinickendorf,s-bahn,{'KBS 105'}
957,958,Reinickendorfer Str.,u-bahn,{'C I'}
958,959,Reinickendorfer Strasse Ecke Schulstrasse,bus,{'A64'}
959,960,Rembrandtstrasse,strassenbahn,{'66'}
960,961,Rennbahnstrasse Ecke Gustav-Adolf-Strasse,bus,{'A56'}
961,962,Reuchlinstrasse,bus,{'A70'}
962,963,Reuterstrasse,bus,{'A67'}
963,964,Richard-Wagner-Platz,bus,{'A62'}
964,965,Richard-Wagner-Platz,strassenbahn,"{'54', '53', '55'}"
965,966,Richard-Wagner-Platz,u-bahn,{'A III'}
966,967,Richardstrasse,strassenbahn,{'15'}
967,968,Richtershorn,strassenbahn,{'86'}
968,969,Ridbacher Strasse,bus,{'A49'}
969,970,Ringstrasse,bus,{'A11'}
970,971,Rittberg-Krankenhaus,strassenbahn,"{'78', '77'}"
971,972,Ritterlandweg,bus,{'A71'}
972,973,Robert-Koch-Platz,bus,"{'O40', 'A57'}"
973,974,Roederplatz,bus,{'O30'}
974,975,Roedrplatz,strassenbahn,{'3'}
975,976,Rohdestrasse Ecke Germaniastrasse,bus,{'A73'}
976,977,Roseneck,bus,"{'A29', 'A19', 'A50', 'AS3'}"
977,978,"Roseneck, Hundekehl",bus,{'A60'}
978,979,Rosenecke,bus,{'A17'}
979,980,Rosenthaler Platz,bus,{'O40'}
980,981,Rosenthaler Platz,strassenbahn,"{'11', '49', '22', '1'}"
981,982,Rosenthaler Strasse,strassenbahn,{'49'}
982,983,Rudower Strasse,bus,{'A52'}
983,984,Ruhleben,u-bahn,{'B I'}
984,985,Ruhrstrasse,bus,{'A50'}
985,986,Rummelsburg,s-bahn,{'KBS 102'}
986,987,Ruppiner Chaussee,bus,{'A13'}
987,988,Röntgental,s-bahn,{'KBS 106'}
988,989,"Rüdersdorf, Karl-Marx-Platz",bus,"{'S-Bhf. Friedrichshagen <> Rüdersdorf, Karl-Marx-Platz (VEB Schöneiche-Rüdersdorf)'}"
989,990,"Rüdersdorf, Thälmannstrasse",bus,"{'S-Bhf. Friedrichshagen <> Rüdersdorf, Karl-Marx-Platz (VEB Schöneiche-Rüdersdorf)'}"
990,991,Rüdesheimer Platz,u-bahn,"{'B II', 'A II'}"
991,992,Rügener Strasse,bus,"{'A14', 'A61', 'A71'}"
992,993,S-Bhf. Adlershof,strassenbahn,{'84'}
993,994,S-Bhf. Alexanderplatz,bus,"{'O30', 'A57', 'A9'}"
994,995,S-Bhf. Baumschulenweg,bus,{'A47'}
995,996,S-Bhf. Baumschulenweg,strassenbahn,"{'95P', '95'}"
996,997,S-Bhf. Biesdorf,bus,{'O37'}
997,998,S-Bhf. Friedrichsfelde-Ost,bus,{'A43'}
998,999,S-Bhf. Friedrichshagen,bus,"{'S-Bhf. Friedrichshagen <> Rüdersdorf, Karl-Marx-Platz (VEB Schöneiche-Rüdersdorf)'}"
999,1000,S-Bhf. Friedrichshagen,strassenbahn,"{'84', '87'}"
1000,1001,S-Bhf. Greifswalder Strasse,strassenbahn,"{'74', '74E'}"
1001,1002,S-Bhf. Grünau,bus,"{'S-Bhf. Grünau <> Potsdam, Bassinplatz (VEB Potsdam-Babelsberg)', 'AZ', 'AD/36', 'A38'}"
1002,1003,S-Bhf. Grünau,strassenbahn,{'86'}
1003,1004,S-Bhf. Jannowitzbrücke,strassenbahn,"{'11', '64', '82'}"
1004,1005,S-Bhf. Karlshorst,strassenbahn,{'69'}
1005,1006,"S-Bhf. Kaulsdorf, Planitzstrasse",bus,{'A27'}
1006,1007,S-Bhf. Köpenick,bus,{'A27'}
1007,1008,S-Bhf. Köpenick,strassenbahn,"{'82', '83', '86'}"
1008,1009,S-Bhf. Mahlsdorf,bus,"{'A44', 'A44E'}"
1009,1010,S-Bhf. Mahlsdorf,strassenbahn,{'83'}
1010,1011,S-Bhf. Ostkreuz,strassenbahn,{'82'}
1011,1012,S-Bhf. Pankow,bus,{'A55'}
1012,1013,S-Bhf. Pankow,strassenbahn,"{'49', '46', '22'}"
1013,1014,S-Bhf. Pankow-Heinersdorf,strassenbahn,{'49'}
1014,1015,S-Bhf. Plänterwald,strassenbahn,"{'87', '92'}"
1015,1016,S-Bhf. Prenzlauer Allee,strassenbahn,"{'71', '72'}"
1016,1017,S-Bhf. Rahnsdorf,bus,"{'A22', 'S-Bhf. Rahnsdorf <> Woltersdorfer Schleuse (VEB Woltersdorf)'}"
1017,1018,S-Bhf. Rummelsburg,bus,{'O30'}
1018,1019,S-Bhf. Schönhauser Allee,strassenbahn,"{'49', '46', '22'}"
1019,1020,S-Bhf. Spindlersfeld,strassenbahn,{'84'}
1020,1021,"S-Bhf. Tremptower Park, Elsenstrasse",strassenbahn,{'92'}
1021,1022,S-Bhf. Treptower Park,bus,{'A47'}
1022,1023,S-Bhf. Wilhelmshagen,bus,{'A22'}
1023,1024,Saaleckplatz,bus,{'A17'}
1024,1025,SaarBrücker Strasse,strassenbahn,"{'71', '72'}"
1025,1026,Saargem nder Strasse,bus,{'A18'}
1026,1027,Saargemünder Strasse,bus,{'A11'}
1027,1028,Saatwinkler Damm,bus,{'A62'}
1028,1029,Sadowastrasse,bus,"{'A8', 'A8E'}"
1029,1030,Samariterstr.,u-bahn,{'E'}
1030,1031,Savignyplatz,s-bahn,"{'KBS 101', 'KBS 102'}"
1031,1032,"Sch fersee, Pankower Allee",bus,{'A71'}
1032,1033,Scharfestrasse,bus,{'A18'}
1033,1034,Scharnhorststrasse,bus,{'A57'}
1034,1035,Scharnhorststrasse Ecke Kieler Strasse,bus,{'A9'}
1035,1036,Scharnweberstr. (Eichborndamm),u-bahn,{'C I'}
1036,1037,Scharnweberstrasse,bus,{'A21'}
1037,1038,"Schildow, Kirche",bus,{'A7'}
1038,1039,Schillingstr.,u-bahn,{'E'}
1039,1040,Schillingstrasse,bus,{'A61'}
1040,1041,Schlachtensee,bus,{'A53'}
1041,1042,Schlachtensee,s-bahn,{'KBS 104'}
1042,1043,Schlesisches Tor,u-bahn,"{'B II', 'B I'}"
1043,1044,Schloss Glienicke,bus,{'A6'}
1044,1045,Schloss Ruhwald,bus,{'AS1'}
1045,1046,Schloss Ruhwald,strassenbahn,"{'54', '53'}"
1046,1047,SchlossBrücke,bus,{'A65'}
1047,1048,SchlossStrasse,bus,{'A32'}
1048,1049,Schlossstrasse,bus,{'A74'}
1049,1050,Schlossstrasse,strassenbahn,"{'74', '78', '73', '77'}"
1050,1051,"Schlossstrasse, Wilhelm-Schreiber-Platz",bus,{'AS2'}
1051,1052,Schloßstrasse Ecke Feuerbachstrasse,bus,{'A2'}
1052,1053,Schmargendorf,s-bahn,{'KBS 100'}
1053,1054,Schopenhauer-Strasse Ecke Spanische Allee,bus,{'A3'}
1054,1055,Schulenburgpark,strassenbahn,"{'95', '15'}"
1055,1056,Schulstrasse Ecke Exerzierstrasse,bus,{'A64'}
1056,1057,Schulzendorf (b Tegel),s-bahn,{'KBS 105'}
1057,1058,Schulzendorfer Strasse,bus,{'A15'}
1058,1059,Schumannstrasse,bus,{'A57'}
1059,1060,Schwarzer Weg Ecke Sonnenallee,strassenbahn,{'95'}
1060,1061,Schwedestrasse Ecke Exerzierstrasse,bus,{'A64'}
1061,1062,Schwelmer Strasse Ecke Ostpreußendamm,strassenbahn,{'96'}
1062,1063,Schwiezerhaus,bus,{'A34'}
1063,1064,Schäferberg,bus,{'A6'}
1064,1065,Schöneberg,s-bahn,"{'KBS 100a', 'KBS 100', 'KBS 104'}"
1065,1066,"Schönefeld, Siedlung",bus,"{'AZ', 'AD/36'}"
1066,1067,"Schöneiche, Goethepark",bus,"{'S-Bhf. Friedrichshagen <> Rüdersdorf, Karl-Marx-Platz (VEB Schöneiche-Rüdersdorf)'}"
1067,1068,Schöneweide,s-bahn,"{'KBS 106', 'KBS 103', 'KBS 103a', 'KBS 100a'}"
1068,1069,Schönhauser Allee,s-bahn,{'KBS 106'}
1069,1070,Schönhauser Allee,strassenbahn,{'3'}
1070,1071,Schönhauser Allee,u-bahn,{'A'}
1071,1072,Schönholz,s-bahn,"{'KBS 106', 'KBS 105'}"
1072,1073,Schützallee Ecke Onkel-Tom-Strasse,bus,{'A66'}
1073,1074,Schüßlerplatz,strassenbahn,{'84'}
1074,1075,Sebastianfriedhof,bus,{'A61'}
1075,1076,SedanStrasse,bus,{'A32'}
1076,1077,Sedanstrasse,bus,{'A33'}
1077,1078,Seeburger Strasse,strassenbahn,"{'76', '75'}"
1078,1079,Seegefelder Weg,bus,{'A63'}
1079,1080,Seelenbinderstrasse,strassenbahn,"{'84', '82', '83', '86'}"
1080,1081,Seelenbinderstrasse Ecke Bahnhofstrasse,strassenbahn,{'87'}
1081,1082,Seestr.,u-bahn,{'C I'}
1082,1083,Seestrasse Ecke Afrikanische Strasse,bus,{'A64'}
1083,1084,Seidelstr. (Flughafen Tegel),u-bahn,{'C I'}
1084,1085,Selchow,bus,"{'AZ', 'S-Bhf. Grünau <> Potsdam, Bassinplatz (VEB Potsdam-Babelsberg)'}"
1085,1086,Senefelderplatz,u-bahn,{'A'}
1086,1087,Siemensstadt,s-bahn,{'KBS 100c'}
1087,1088,Siemensstadt-Fürstenbrunn,s-bahn,{'KBS 103a'}
1088,1089,Silbersteinstrasse,strassenbahn,"{'26', '47'}"
1089,1090,Skalitzer Strasse,bus,{'A75'}
1090,1091,Sonnenallee,s-bahn,{'KBS 100'}
1091,1092,Sonnenallee,strassenbahn,"{'26', '95P'}"
1092,1093,Sonnenallee Ecke Erk-Strasse,bus,{'A4'}
1093,1094,Sophie-Charlotte-Platz,u-bahn,"{'A I', 'B I'}"
1094,1095,Sophie-Charlotten-Platz,strassenbahn,{'60'}
1095,1096,Sophie-Charlotten-Strasse,bus,{'A18'}
1096,1097,Spandau,s-bahn,"{'KBS 101', 'KBS 103a'}"
1097,1098,Spandau West,s-bahn,"{'KBS 101', 'KBS 103a'}"
1098,1099,"Spandau, Friedhof",bus,{'A34'}
1099,1100,"Spandau, Markt",strassenbahn,"{'55', '53', '54', '75', '76'}"
1100,1101,Spandauer Damm,bus,"{'A10', 'A74'}"
1101,1102,Spandauer Strasse,bus,{'A31'}
1102,1103,Spichernstr. (Bundesallee),u-bahn,{'A II'}
1103,1104,Spichernstrasse Ecke Joachimstaler Strasse,bus,{'A2'}
1104,1105,Spindlersfeld,s-bahn,{'KBS 103a'}
1105,1106,Spittelmarkt,strassenbahn,"{'74', '64', '72', '74E'}"
1106,1107,Spittelmarkt,u-bahn,{'A'}
1107,1108,Spreewaldplatz,bus,{'A75'}
1108,1109,Spreewaldplatz,strassenbahn,"{'26', '27'}"
1109,1110,St lpchensee,bus,{'A18'}
1110,1111,Staakener Strasse,bus,{'A63'}
1111,1112,Stadion Buschallee,strassenbahn,{'70'}
1112,1113,Stadion Lichterfelde,bus,{'A17'}
1113,1114,Stadtmitte,u-bahn,{'A'}
1114,1115,Stadtpark,bus,{'A17'}
1115,1116,Stadtrandstrasse,bus,{'A5'}
1116,1117,Stalinallee,bus,{'O40'}
1117,1118,Stalinallee,s-bahn,"{'KBS 106', 'KBS 103a'}"
1118,1119,Stalinallee (Ringbahn),u-bahn,{'E'}
1119,1120,Stegerwaldstrasse,bus,{'A32'}
1120,1121,Steglitz,s-bahn,{'KBS 104'}
1121,1122,Steglitzer Damm Ecke Halske Strasse,bus,{'A2'}
1122,1123,Sterndamm,bus,{'A47'}
1123,1124,Steuerhaus,bus,{'O37'}
1124,1125,Steuerhaus,strassenbahn,"{'64', '63'}"
1125,1126,StindeStrasse,bus,{'A32'}
1126,1127,Stralauer Allee Ecke Markgrafendamm,strassenbahn,{'82'}
1127,1128,Strasse 393,bus,{'A63'}
1128,1129,Strasse 78,bus,{'A42'}
1129,1130,Strasse nach Staatwinkel,bus,{'A13'}
1130,1131,Strasse nach Wartenberg,bus,{'A46'}
1131,1132,Strausberg,s-bahn,"{'KBS 101', 'KBS 101c'}"
1132,1133,Strausberg Nord,s-bahn,{'KBS 101c'}
1133,1134,Strausberg Stadt,s-bahn,{'KBS 101c'}
1134,1135,Strausberger Platz,bus,{'Flughafen Schönefeld <> Strausberger Platz'}
1135,1136,Strausberger Platz,u-bahn,{'E'}
1136,1137,Stresowplatz,bus,"{'A31', 'A5'}"
1137,1138,StromStrasse,bus,{'A24'}
1138,1139,Stromstrasse,bus,{'A70'}
1139,1140,Stromstrasse Ecke Alt-Moabit,strassenbahn,{'2'}
1140,1141,Stubenrauchstrasse,strassenbahn,{'47'}
1141,1142,Stuttgarter Platz,bus,"{'A74', 'A21'}"
1142,1143,Stuttgarter Platz,strassenbahn,{'60'}
1143,1144,Städtische Frauenklinik,strassenbahn,{'26'}
1144,1145,"Stölpchensee, Wilhelmplatz",bus,{'A3'}
1145,1146,StößenseeBrücke,strassenbahn,"{'76', '75'}"
1146,1147,Sundgauer Str.,s-bahn,{'KBS 104'}
1147,1148,Sundgauer Strasse,bus,"{'A48', 'AS3'}"
1148,1149,Sydlitzstrasse Ecke Lankwitzstrasse,strassenbahn,{'96'}
1149,1150,Südende,s-bahn,{'KBS 106'}
1150,1151,Südstern,bus,{'A28'}
1151,1152,Südstern,u-bahn,{'C I'}
1152,1153,Taubenstrasse,strassenbahn,{'72'}
1153,1154,"Tauernallee, Adlermühle",bus,{'AS2'}
1154,1155,Tauroggener Strasse Ecke Osnabrück Strasse,strassenbahn,{'3'}
1155,1156,Tauroggener Strasse Ecke Osnabrücker Strasse,bus,{'A72'}
1156,1157,Tegel,s-bahn,{'KBS 105'}
1157,1158,Tegel,u-bahn,{'C I'}
1158,1159,Tegeler Strasse Ecke Trifstrasse,bus,{'A64'}
1159,1160,Tegelort,bus,{'A20'}
1160,1161,Teichstrasse,bus,{'A61'}
1161,1162,Teltower Damm,bus,"{'A10', 'A48', 'A53'}"
1162,1163,Teltower Strasse,bus,"{'A31', 'A5', 'AS1'}"
1163,1164,Teltower Strasse,strassenbahn,"{'54', '53'}"
1164,1165,Tempehofer Damm Ecke Alt-Temephof,bus,{'A73'}
1165,1166,Tempehofer Damm Ecke Alt-Tempel,bus,{'A65'}
1166,1167,Tempehofer Damm Ecke Friedrich-Karl-Strasse,bus,{'A68'}
1167,1168,Tempelhof,s-bahn,"{'KBS 100', 'KBS 100a'}"
1168,1169,Tempelhof (Südring),u-bahn,{'C II'}
1169,1170,Tempelhofer Damm,bus,"{'A24', 'A25'}"
1170,1171,Tempelhofer Weg Ecke Britzer Damm,strassenbahn,{'27'}
1171,1172,Thielallee/Pacelliallee,bus,{'A68'}
1172,1173,Thielplatz,u-bahn,"{'B II', 'A II'}"
1173,1174,Thorwaldsenstrasse,strassenbahn,{'66'}
1174,1175,Thuner Platz,bus,{'A53'}
1175,1176,Thuyring,bus,"{'A77', 'A76'}"
1176,1177,Thälmannplatz,bus,{'S-Bhf. Rahnsdorf <> Woltersdorfer Schleuse (VEB Woltersdorf)'}
1177,1178,Thälmannplatz,u-bahn,{'A'}
1178,1179,Tiergarten,s-bahn,"{'KBS 101', 'KBS 102'}"
1179,1180,Tiergartenstrasse,bus,"{'A16', 'A24', 'A69'}"
1180,1181,Tierpark Berlin,strassenbahn,{'69'}
1181,1182,Tor 5,bus,{'A15'}
1182,1183,Trabener Strasse,bus,{'A69'}
1183,1184,Traegerstrasse,strassenbahn,{'66'}
1184,1185,Transvaalstrasse Ecke Africkanische Strasse,bus,{'A64'}
1185,1186,"Treptow, Rathaus",bus,{'A47'}
1186,1187,Treptower Park,s-bahn,"{'KBS 106', 'KBS 103', 'KBS 103a'}"
1187,1188,Triftweg,bus,{'A52'}
1188,1189,Trippsteinstrasse,bus,"{'A11', 'A2'}"
1189,1190,TurmStrasse,bus,{'A16'}
1190,1191,Turmstrasse Ecke Stromstrasse,bus,{'A72'}
1191,1192,Turmstrasse/Rathenower Strasse,bus,{'A70'}
1192,1193,U-Bhf Kottbusser Tor,bus,{'A28'}
1193,1194,U-Bhf. Boddinstrasse,bus,{'A4'}
1194,1195,U-Bhf. Boddinstrasse,strassenbahn,{'27'}
1195,1196,U-Bhf. Bülowstrasse,bus,"{'A75', 'A48'}"
1196,1197,U-Bhf. Bülowstrasse,strassenbahn,"{'74', '73'}"
1197,1198,U-Bhf. Dahlem-Dorf,bus,{'A68'}
1198,1199,U-Bhf. Dimitroffstrasse,strassenbahn,"{'13', '70', '22', '46', '4', '49'}"
1199,1200,U-Bhf. Ernst-Reuter-Platz,bus,"{'A62', 'A25', 'AS1'}"
1200,1201,U-Bhf. Ernst-Reuter-Platz,strassenbahn,{'55'}
1201,1202,U-Bhf. Fehrbelliner Platz,bus,"{'A1', 'A4', 'AS3', 'A21'}"
1202,1203,U-Bhf. Flughafen,bus,"{'A4', 'A19'}"
1203,1204,U-Bhf. Flughafen,strassenbahn,{'96'}
1204,1205,U-Bhf. Friedrichsfelde,bus,"{'A43', 'A8', 'A8E'}"
1205,1206,U-Bhf. Gesundbrunnen,bus,"{'A14', 'A64'}"
1206,1207,U-Bhf. Grenzallee,bus,{'A67'}
1207,1208,U-Bhf. Grenzallee,strassenbahn,{'47'}
1208,1209,U-Bhf. Hallesches Tor,bus,{'A24'}
1209,1210,U-Bhf. Heidelberg Platz,bus,{'A65'}
1210,1211,U-Bhf. Heidelberger Platz,bus,{'A60'}
1211,1212,U-Bhf. Kaiserdamm,bus,"{'A10', 'A65'}"
1212,1213,U-Bhf. Kochstrasse,bus,{'A75'}
1213,1214,U-Bhf. Kottbusser Tor,bus,{'A67'}
1214,1215,U-Bhf. Krumme Lanke,bus,"{'A3', 'A53'}"
1215,1216,U-Bhf. Kurt-Schumacher-Platz,bus,"{'A62', 'A61'}"
1216,1217,U-Bhf. Leinestrasse,strassenbahn,{'27'}
1217,1218,U-Bhf. Leopold-Platz,bus,{'A12'}
1218,1219,U-Bhf. Moritzplatz,bus,{'A75'}
1219,1220,U-Bhf. Neukölln,strassenbahn,"{'26', '47', '15'}"
1220,1221,U-Bhf. Onkel-Toms-Hütte,bus,"{'A66', 'A3'}"
1221,1222,U-Bhf. Oskar-Helene-Heim,bus,"{'AS3', 'A1', 'A11', 'A18', 'A3'}"
1222,1223,U-Bhf. Prinzenstrasse,bus,{'A28'}
1223,1224,U-Bhf. Ruhleben,bus,"{'A31', 'A5', 'AS1'}"
1224,1225,U-Bhf. Ruhleben,strassenbahn,"{'54', '53'}"
1225,1226,U-Bhf. Rüdesheimer Platz,bus,{'A17'}
1226,1227,"U-Bhf. Scharnweberstrasse, Sportplatz",bus,{'A61'}
1227,1228,U-Bhf. Schlesisches Tor,bus,{'A28'}
1228,1229,U-Bhf. Seestrasse,bus,"{'A16', 'A12'}"
1229,1230,U-Bhf. Seestrasse,strassenbahn,{'3'}
1230,1231,U-Bhf. Strausberger Platz,strassenbahn,{'1'}
1231,1232,U-Bhf. Südstern,strassenbahn,{'3'}
1232,1233,U-Bhf. Tegel,bus,"{'A14', 'A13', 'A20', 'A15'}"
1233,1234,U-Bhf. Tempelhof,bus,"{'A77', 'A76'}"
1234,1235,U-Bhf. Thielplatz,bus,{'A10'}
1235,1236,U-Bhf. Vinetastrasse,bus,{'A7'}
1236,1237,U-Bhf. Vinetastrasse,strassenbahn,"{'49', '46', '22'}"
1237,1238,Uckermarkstrasse,bus,{'A49'}
1238,1239,Uhlandstrasse,bus,"{'A29', 'A50'}"
1239,1240,Uhlandstrasse Ecke Kurfürstendamm,bus,{'A69'}
1240,1241,Ulmenstrasse,bus,{'A27'}
1241,1242,Under den Eichen Ecke Habeschwendt-Allee,bus,{'A11'}
1242,1243,Unionplatz,bus,{'A25'}
1243,1244,Urban-Krankenhause,bus,{'A28'}
1244,1245,Usedomer Strasse,bus,{'A71'}
1245,1246,VEB Bautransporte,bus,{'A26'}
1246,1247,VEB Schiffswerft,strassenbahn,{'83'}
1247,1248,Velten (Mark),s-bahn,{'KBS 105'}
1248,1249,Verwaltungs-GebÃ¤ude,bus,{'A10'}
1249,1250,Viersener Strasse,bus,"{'A5', 'A63'}"
1250,1251,Viktoria-Luise-Platz,u-bahn,{'B III'}
1251,1252,Virchow-Krankenhaus,bus,{'A16'}
1252,1253,Vogelsang,bus,{'A68'}
1253,1254,Voltastr.,u-bahn,{'D'}
1254,1255,Voltastrasse Ecke Watt Strasse,strassenbahn,{'2'}
1255,1256,Waidmannslust,s-bahn,{'KBS 106'}
1256,1257,Waldemarplatz,bus,{'A53'}
1257,1258,Waldemarstrasse,bus,{'A28'}
1258,1259,Walderseestrasse,bus,{'A20'}
1259,1260,"Waldesruh, Malhlsdorfer Allee",bus,{'A8'}
1260,1261,Waldfriedhof,bus,{'A18'}
1261,1262,Waldkrankenhaus,bus,{'A5'}
1262,1263,WaldschÃ¤nke,bus,{'A22'}
1263,1264,Waldschänke,bus,"{'S-Bhf. Grünau <> Potsdam, Bassinplatz (VEB Potsdam-Babelsberg)'}"
1264,1265,Waldstrasse,bus,"{'A1', 'A20'}"
1265,1266,Waldstrasse/Gotzkowskystrasse,bus,{'A70'}
1266,1267,Walterdorfer Chaussee (Spinne),bus,"{'S-Bhf. Grünau <> Potsdam, Bassinplatz (VEB Potsdam-Babelsberg)'}"
1267,1268,Waltersdorf,bus,{'A38'}
1268,1269,Waltersdorfer Chaussee (Spinne),bus,{'AD/36'}
1269,1270,Waltersforder Chaussee (Spinne),bus,{'AZ'}
1270,1271,Wannsee,Fähre,{'Wannsee<>Kladow (Betrieb durch Stern und Kreisschiffahrt)'}
1271,1272,Wannsee,s-bahn,"{'KBS 102', 'KBS 104'}"
1272,1273,Warnem nder Strasse,bus,{'A17'}
1273,1274,Warnemünder/Berkaer Strasse,bus,{'A60'}
1274,1275,Warschauer Brücke,strassenbahn,"{'3', '4'}"
1275,1276,Warschauer Str.,s-bahn,"{'KBS 101', 'KBS 103', 'KBS 102'}"
1276,1277,Warschauer Strasse,bus,{'O30'}
1277,1278,Warschauer Strasse,strassenbahn,"{'82', '3', '4'}"
1278,1279,"Wartenberg, Dorfstrasse",bus,{'A39'}
1279,1280,"Wartenberg, Siedlung",bus,{'A39'}
1280,1281,Wasserwerk,strassenbahn,{'87'}
1281,1282,"Waßmannsdorf, Warteh.",bus,{'AZ'}
1282,1283,Wedding,s-bahn,{'KBS 100'}
1283,1284,Weddingplatz,bus,"{'A72', 'A70'}"
1284,1285,Weddingplatz,strassenbahn,{'2'}
1285,1286,Weibestrasse Ecke Kaiserin-Auguste-Allee,bus,{'A72'}
1286,1287,Weichselstrasse,strassenbahn,"{'26', '47'}"
1287,1288,Weinmeisterhornweg,bus,"{'A34', 'A13', 'A35'}"
1288,1289,"Weißensee, Liebermannstrasse Ecke Piesporter Strasse",bus,{'A55'}
1289,1290,"Weißensee, Nüßlerstrasse",bus,{'A56'}
1290,1291,"Weißensee, Pasedagplatz",strassenbahn,{'72'}
1291,1292,"Weißensee, Schwarzelfenweg",bus,{'A45'}
1292,1293,Weißenseer Weg,bus,{'O37'}
1293,1294,Weißenseer Weg,strassenbahn,"{'64', '63'}"
1294,1295,Wendenschloß Ecke Ekhofstrasse,strassenbahn,{'83'}
1295,1296,Wentowsteig,bus,{'A21'}
1296,1297,Wernerwerk,s-bahn,{'KBS 100c'}
1297,1298,Westend,s-bahn,{'KBS 100'}
1298,1299,Westkreuz,s-bahn,"{'KBS 101', 'KBS 100', 'KBS 102'}"
1299,1300,"Weverstrasse, Strassenbahnhof",strassenbahn,"{'76', '75'}"
1300,1301,Wicherstrasse Ecke Prenzlauer Allee,bus,{'A56'}
1301,1302,Wiebestrasse,bus,{'A24'}
1302,1303,Wiebestrasse Ecke Kaiserin-Ausgusta-Allee,strassenbahn,{'3'}
1303,1304,"Wiebestrasse, Strassenbahnhof",bus,{'A70'}
1304,1305,Wiener Brücke,bus,{'A75'}
1305,1306,Wiener Brücke,strassenbahn,"{'87', '92'}"
1306,1307,Wiesbadener Strasse,bus,{'A16'}
1307,1308,Wiesenbaude,bus,{'A11'}
1308,1309,Wiesenbaude,strassenbahn,"{'74', '73'}"
1309,1310,Wiesenstrasse,bus,{'A70'}
1310,1311,"Wießensee, Pasedagplatz",strassenbahn,{'74'}
1311,1312,Wildau,s-bahn,{'KBS 103'}
1312,1313,Wilderbruchstrasse Ecke Sonnenallee,strassenbahn,{'3'}
1313,1314,Wildmeisterdamm,bus,{'A52'}
1314,1315,Wildmeisterdamm,strassenbahn,{'47'}
1315,1316,Wilhelminenhof- Ecke Edisonstrasse,strassenbahn,{'82'}
1316,1317,Wilhelminenhofstrasse,strassenbahn,{'69'}
1317,1318,Wilhelminenhofstrasse Ecke Edisonstrasse,strassenbahn,{'87'}
1318,1319,Wilhelmshagen,s-bahn,{'KBS 102'}
1319,1320,Wilhelmsruh,s-bahn,{'KBS 106'}
1320,1321,"Wilhelmsruh, Fontanestrasse",bus,"{'A55', 'A45'}"
1321,1322,Wilhelmstrasse,bus,"{'A17', 'A34', 'A35'}"
1322,1323,Wilmersdorf,s-bahn,"{'KBS 100', 'KBS 100a'}"
1323,1324,Wilmersdorfer Strasse,bus,"{'A29', 'A19'}"
1324,1325,Wilmersdorfer Strasse,strassenbahn,"{'76', '75'}"
1325,1326,Wilmersdorfer Strasse Ecke Kurfürstendamm,bus,{'A69'}
1326,1327,Wilmersdorfer Strasse Ecke Kurfürstendamm,strassenbahn,{'3'}
1327,1328,Wilmersdorfer Strasse Ecke Otto-Suhr-Alle,strassenbahn,{'3'}
1328,1329,Winfriedstrasse,bus,{'AS3'}
1329,1330,Winifriedstrasse Ecke Clayallee,bus,{'A3'}
1330,1331,Wismarer Strasse,bus,{'A1'}
1331,1332,Wismarer Strasse,strassenbahn,{'77'}
1332,1333,Wismarer Strasse Ecke Ostpreußendamm,strassenbahn,{'96'}
1333,1334,Wittenau,bus,{'A62'}
1334,1335,Wittenau (Kremmener Bahn),s-bahn,{'KBS 105'}
1335,1336,Wittenau (Nordbahn),s-bahn,{'KBS 106'}
1336,1337,Wittenbergplatz,bus,"{'A29', 'A73', 'A62', 'A19', 'A60'}"
1337,1338,Wittenbergplatz,strassenbahn,"{'78', '2', '55', '77'}"
1338,1339,Wittenbergplatz,u-bahn,"{'B II', 'A I', 'A II', 'B I'}"
1339,1340,Witzleben,s-bahn,{'KBS 100'}
1340,1341,Wolburgsweg,bus,{'A5'}
1341,1342,Wollankstr.,s-bahn,"{'KBS 106', 'KBS 105'}"
1342,1343,Woltersdorfer Schleuse,bus,{'S-Bhf. Rahnsdorf <> Woltersdorfer Schleuse (VEB Woltersdorf)'}
1343,1344,Wolzogenstrasse,bus,{'A18'}
1344,1345,Wongrowitzer Strasse,bus,{'A27'}
1345,1346,Wuhlheide,s-bahn,{'KBS 102'}
1346,1347,Yorckstr.,s-bahn,"{'KBS 106', 'KBS 105'}"
1347,1348,Yorckstrasse,bus,{'A28'}
1348,1349,Yorckstrasse,strassenbahn,{'96'}
1349,1350,Zabel-Krüger-Damm,bus,{'A12'}
1350,1351,Zappoter/Oeynhauser Strasse,bus,{'A60'}
1351,1352,Zehlendorf,s-bahn,"{'KBS 104a', 'KBS 104'}"
1352,1353,Zentralschule,bus,{'A22'}
1353,1354,Zentralviehhof,s-bahn,"{'KBS 106', 'KBS 103a'}"
1354,1355,Zepernick (b Bernau),s-bahn,{'KBS 106'}
1355,1356,Zeuthen,s-bahn,{'KBS 103'}
1356,1357,"Ziegenhals, VA Dienststelle",bus,{'Schmöckwitz<>Ziegenhals (VEB Kraftverkehr Schöneiche-Rüdersdorf)'}
1357,1358,Ziekowstrasse,bus,{'A14'}
1358,1359,Zitadellenweg,strassenbahn,{'55'}
1359,1360,ZobeltitzStrasse,bus,{'A61'}
1360,1361,Zoologischer Garten,s-bahn,"{'KBS 101', 'KBS 102'}"
1361,1362,Zoologischer Garten,u-bahn,"{'A I', 'B I'}"
1362,1363,Zossener Strasse,bus,{'A28'}
1363,1364,Zossener Strasse Ecke Blücherstrasse,strassenbahn,{'95'}
1364,1365,Zum Heckeshorn,bus,{'A51'}
1365,1366,ZweiBrücker Strasse,bus,{'A63'}
1366,1367,waldstrasse Ecke Turmstrasse,bus,{'A72'}
