,stop_id,stop_name,type,in_lines,location,identifier
0,19610,4. Ring,bus,A53,"52.42250630689789, 13.2869490566549",
1,19611,Adamstrasse,bus,"A34,A35","52.521029117218866, 13.19780699419913",
2,19612,Adlershof,s-bahn,"KBS 103,KBS 100a,KBS 106","52.434722222222,13.541388888889",Q323551
3,19613,Adolf-Scheidt-Platz,strassenbahn,96,"52.478194856980814, 13.37836902238447",
4,19614,Afrikanische Str.,u-bahn,C I,"52.560027777778,13.334633333333",Q559239
5,19615,Afrikanische Strasse,bus,A16,"52.54630154020319, 13.343855247543928",
6,19616,"Ahrensfeld, Kirche",bus,A46,"52.57532170199278, 13.576515606968998",
7,19617,Albertstrasse,strassenbahn,"73,74","52.48441764584102, 13.352842591071507",
8,19618,Alboinstrasse Ecke Arnulfstrasse,bus,A68,"52.455767812500675, 13.36990459867346",
9,19619,Albrechtshof,s-bahn,KBS 103,"52.5494,13.1283",Q800470
10,196110,Alexanderplatz,s-bahn,"KBS 101,KBS 103,KBS 102","52.521388888889,13.411944444444",Q111324700
11,196111,Alexanderplatz,u-bahn,"A,E","52.5214,13.4119",Q17173458
12,196112,"Alexanderplatz, Elisabethstrasse",strassenbahn,82,"52.5214867270211, 13.41819396874171",
13,196113,"Alexanderplatz, Grunerstrasse",strassenbahn,71,"52.52008326268696, 13.41408418961877",
14,196114,"Alexanderplatz, Leninallee",strassenbahn,64,"52.522103158947594, 13.416511130432587",
15,196115,"Alexanderplatz, Memhardstr.",strassenbahn,1,"52.5233439,13.4110773",Q65227406
16,196116,"Alexanderplatz, Memhardstr.",strassenbahn,"63,11,72,74E,22,74","52.5233439,13.4110773",Q65227406
17,196117,"Alt-Biesdorf, Oberfeldstrasse",bus,O37,"52.50918606891929, 13.553347058493491",
18,196118,"Alt-Biesdorf, Oberfeldstrasse",bus,"A8,A8E","52.50918606891929, 13.553347058493491",
19,196119,Alt-Buckow Ecke Buckower Damm,strassenbahn,27,"52.42365120067525, 13.436635949176258",
20,196120,Alt-Friedrichsfelde Ecke Am Tierpark,strassenbahn,69,"52.50914093654053, 13.518129930582422",
21,196121,Alt-Friedrichsfelde Ecke Am Tierpark,bus,"A43,O37,A8,A8E","52.5097025850849, 13.518832511815527",
22,196122,Alt-Heiligensee,bus,"A14,A13","52.60616921042186, 13.210646859320935",
23,196123,Alt-Kladow,bus,"A34,A35","52.454591413254434, 13.144488043956764",
24,196124,Alt-Mariendorf,bus,AS2,"52.44015553185248, 13.387328254903215",
25,196125,Alt-Mariendorf Ecke Tempelhofer Damm,bus,A76,"52.44016235770067, 13.387229967555644",
26,196126,Alt-Marienfelde,bus,A52,"52.413385082183694, 13.36338063003787",
27,196127,"Alt-Marzahn, Kirche",bus,O37,"52.542423454435976, 13.564061751343658",
28,196128,Alt-Moabit,bus,A24,"52.524078460891005, 13.357069143313803",
29,196129,Alt-Moabit Ecke Rathenower Strasse,strassenbahn,2,"52.52356,13.35779",Q121863902
30,196130,Alt-Reinickendorf Ecke Rödern Allee,bus,A72,"52.57586051212987, 13.347765981901512",
31,196131,Alt-Schmöckwitz,bus,"Schmöckwitz<>Ziegenhals (VEB Kraftverkehr Schöneiche-Rüdersdorf),Schmöckwitz<>Eichwalde (VEB Kraftverkehr Schöneiche-Rüdersdorf)","52.37536708814027, 13.649399886968025",
32,196132,Alt-Schmöckwitz,strassenbahn,86,"52.3752767,13.649549",Q66459540
33,196133,Alt-Tempelhof Ecke Tempelhofer Damm,bus,"A77,A68,A76","52.465964306830664, 13.38558297633417",
34,196134,Alt-Wittenau,bus,"A62 ; A15,A21","52.58972877186178, 13.334169215342472 ;  52.59166508975595, 13.326326895395114",
35,196135,"Altglienicke, Am Falkenberg",strassenbahn,84,"52.41079970042163, 13.570452931545786",
36,196136,"Altglienicke, Kirche",bus,A23,"52.421845729296805, 13.539407702079252",
37,196137,Am Beelitzhof,bus,A3,"52.432202091928794, 13.186661564435827",
38,196138,Am Dachsbau,bus,A13,"52.60655284387061, 13.22984370797522",
39,196139,Am Fließ,bus,A15,"52.6034575714732, 13.289613652822638",
40,196140,Am Grossen Wannsee,bus,"A6,A51,A18","52.420496581432594, 13.167192967572669",
41,196141,Am Großen Wannsee Ecke Königstrasse,bus,A3,"52.420496581432594, 13.167192967572669",
42,196142,Am Karlsbad,bus,A75,"52.505510534075455, 13.36801582264215",
43,196143,Am Kupfergraben,strassenbahn,"46,70,1","52.5194208,13.3953839",Q65055027
44,196144,Am Nordhafen,bus,A70,"52.53868315849872, 13.363248409190426",
45,196145,Am Oberhafen,bus,A67,"52.465017297775326, 13.450594183790596",
46,196146,Am Rosenhag,bus,"A44,A44E","52.52474356253909, 13.621775828105108",
47,196147,Am Steinberg,bus,"A55,A42,A45","52.55648144940878, 13.429306764151775",
48,196148,Am Steinberg,strassenbahn,71,"52.5585796,13.4333751",Q65103320
49,196149,Am Treptower Park Ecke Elsenstrasse,strassenbahn,87,"52.4917648672198, 13.457703881892664",
50,196150,Am Vierrutenbert,bus,A20,"52.613698620824124, 13.344231823340426",
51,196151,Am Volkspark,bus,A60,"52.483222065143515, 13.32036833862448",
52,196152,Amtsgerichsplatz,bus,A10,"52.50685665976427, 13.295057483522156",
53,196153,Amtsgericht,strassenbahn,"75,76","52.50682617853116, 13.297391449613752",
54,196154,Amtsgericht Charlottenburg,bus,A21,"52.50571853839105, 13.295347400894903",
55,196155,Andreasstrasse,bus,O30,"52.51797306914227, 13.432895480772247",
56,196156,Andreezeile,bus,A66,"52.41046140348477, 13.267143098688617",
57,196157,Anhalter Bahnhof,s-bahn,"KBS 104,KBS 105,KBS 106","52.503055555556,13.381944444444",Q111324573
58,196158,Antonplatz,strassenbahn,"3,70,72,74E,74","52.5484803,13.4517416",Q65548849
59,196159,Apoldaer Strasse Ecke Sonderhauser Strasse,bus,A11,"52.41944943945407, 13.342640667996188",
60,196160,Arnimallee,bus,A68,"52.45789378609326, 13.299570204130864",
61,196161,Aroser Allee,bus,"A61,A14","52.57376245122369, 13.351970705456408",
62,196162,Askanierring,bus,"A34 ; A35,A63","52.54891706140618, 13.193495587303872 ;   52.545679974269035, 13.194267325495874",
63,196163,Askanischer Platz,bus,"A29,A75,A24","52.50447897041404, 13.382295467838158",
64,196164,Attilaplatz,bus,"A25,AS2,A68","52.45590179888225, 13.376512495751076",
65,196165,Attilaplatz,strassenbahn,96,"52.455498340147045, 13.375619638525905",
66,196166,Augsburger Str.,u-bahn,"A II,B II","52.500556,13.336389",Q667035
67,196167,Auguste-Viktoria-Allee,bus,A62,"52.569268504658915, 13.329801350092811",
68,196168,Augustenburger Platz,bus,A64,"52.542186362228115, 13.34942313975666",
69,196169,BSC-Sportplatz,bus,A29,"52.48590335523557, 13.284366733504768",
70,196170,Babelsberg,s-bahn,KBS 102,"52.3914,13.0928",Q801326
71,196171,Badstrasse,bus,A70,"52.55228040855936, 13.381394276023574",
72,196172,Badstrasse/Prinzenallee,bus,A71,"52.55231378388406, 13.381413167559051",
73,196173,Baerwaldstrasse Ecke Urbanstrasse,strassenbahn,95,"52.493899843231475, 13.403460093532933",
74,196174,Bahnhof Friedrichstr. (Stadtbahn),u-bahn,C I,"52.520111111111,13.388305555556",Q3753274
75,196175,Bahnhof Lichtenberg (Zentralfriedhof),u-bahn,E,"52.510556,13.496389",Q3831986
76,196176,Bahnhof Wedding,u-bahn,C I,"52.5425,13.366111",Q4018733
77,196177,Bahnhofstrasse,strassenbahn,47,"52.40244986860125, 13.512704137216817",
78,196178,Bahnhofstrasse Ecke Lindenstrasse,bus,A27,"52.45096281111, 13.572146868709519",
79,196179,Bahnhofstrasse Ecke Lindenstrasse,strassenbahn,"82,87","52.4505094,13.572684",Q66095701
80,196180,Baumschulenstrasse,strassenbahn,"95,92","52.469081846595664, 13.491329912138305",
81,196181,Baumschulenstrasse Ecke Südostallee,bus,A47,"52.46095841731415, 13.481191835004426",
82,196182,Baumschulenweg,s-bahn,"KBS 103,KBS 103a,KBS 100a,KBS 106","52.4675,13.489722",Q324336
83,196183,Bayerischer Platz,u-bahn,B III,"52.488333333333,13.340277777778",Q668574
84,196184,Beeskowdamm,bus,A1,"52.40965850195346, 13.267308742502374",
85,196185,Behring-Krankenhaus,bus,A10,"52.42410894567823, 13.251764544509987",
86,196186,Bellevue,s-bahn,"KBS 101,KBS 102","52.52,13.348055555556",Q374018
87,196187,Belziger Strasse,strassenbahn,66,"52.48469759121592, 13.34547616644445",
88,196188,Benschallee,bus,A18,"52.42959261918116, 13.22400013419735",
89,196189,Benschallee Ecke Potsdamer Chaussee,bus,A3,"52.429638035873005, 13.22393270091056",
90,196190,Benzolwerk,strassenbahn,84,"52.426414690299055, 13.546444409734137",
91,196191,Bergstrasse,bus,A68,"52.458183734651705, 13.329753854060407",
92,196192,Bergstrasse,strassenbahn,66,"52.45916314067555, 13.34768142911793",
93,196193,Bergstrasse Ecke Bismarckstrasse,bus,A2,"52.45863817204511, 13.33931462421719",
94,196194,Berkaer Strasse,bus,A29,"52.48209270683341, 13.281182952838728",
95,196195,"Berkaer Strasse, Elsterplatz",bus,AS3,"52.479592141367654, 13.285296936169493",
96,196196,Berliner Strasse,bus,A60 ; AS2,"52.48647817230135, 13.32051384057218 ; 52.48732335019939, 13.330965094326162",
97,196197,Berliner Strasse Ecke Bundesallee,bus,"A2,A25","52.48735367071187, 13.33100210517226",
98,196198,Unter den Eichen Ecke Drakestrasse,bus,A11,"52.445733691746746, 13.293722374035292",
99,196199,Berlinickeplatz,bus,A73,"52.46607292094852, 13.378516406213421",
100,1961100,Berlinickeplatz,strassenbahn,96,"52.466329675590764, 13.378144688199017",
101,1961101,Bernau (b Bln),s-bahn,KBS 106,"52.6763,13.5931",Q479789
102,1961102,Bernauer Strasse,bus,A13 ; A61,"52.57629905299874, 13.294692761311245 ; 52.538252555466876, 13.396009073652834",
103,1961103,Bernauer Strasse Ecke Wolliner Strasse,bus,"A71,A64","52.539825749774046, 13.4015229935377",
104,1961104,Bernauer Strasse Ecke Wolliner Strasse,strassenbahn,2,"52.5399996,13.4020564",Q65719652
105,1961105,Bernauer Strasse/Brunnenstrasse,bus,A71,"52.53829556916397, 13.396023771544826",
106,1961106,Bersarinplatz,strassenbahn,"13,4","52.519215,13.4525257",Q65706258
107,1961107,Betriebsbahnhof Rummelsburg,s-bahn,KBS 102,"52.4939,13.4978",Q829009
108,1961108,Betriebsbahnhof Schöneweide,s-bahn,"KBS 103,KBS 100a,KBS 106","52.44676,13.52391",Q4526101
109,1961109,Beusselstr.,s-bahn,KBS 100,"52.534444444444,13.329166666667",Q323219
110,1961110,Bezirksamt,bus,A63,"52.54146443211212, 13.200850156157355",
111,1961111,Bf. Siegfriedstrasse,bus,O30,"52.52004640241046, 13.499373630980266",
112,1961112,Bhf. Beusselstrasse,strassenbahn,3,"52.53430684410127, 13.32833762655072",
113,1961113,Bhf. Botanischer Garten,strassenbahn,"77,78","52.44730098506532, 13.3083006582632",
114,1961114,Bhf. Buckower Chaussee,bus,A52,"52.41109589500145, 13.382466497921738",
115,1961115,Bhf. Drewitz,bus,"S-Bhf. Grünau <> Potsdam, Bassinplatz (VEB Potsdam-Babelsberg)","52.383210942095026, 13.122280120317033",
116,1961116,Bhf. Eichbornstrasse,bus,"A15,A21","52.57760143817809, 13.31554154716",
117,1961117,Bhf. Eichwalde,bus,Schmöckwitz<>Eichwalde (VEB Kraftverkehr Schöneiche-Rüdersdorf),"52.371950560017005, 13.614447144096058",
118,1961118,Bhf. Friedrichstrasse,bus,"A57,A9","52.5205606637086, 13.388231915342985",
119,1961119,Bhf. Friedrichstrasse,strassenbahn,"46,70,1","52.5192805,13.3884107",Q65095382
120,1961120,Bhf. Frohnau,bus,"A15,A12","52.63311782571585, 13.28947655939645",
121,1961121,Bhf. Gesundbrunnen,bus,"A61,A71","52.548738600413905, 13.387745851632966",
122,1961122,Bhf. Groß Ziethen,bus,AZ,"52.39427199849872, 13.442667394442617",
123,1961123,Bhf. Grunewald,bus,A17,"52.488010147803465, 13.26315524644143",
124,1961124,Bhf. Halensee,bus,"A10,A29,A4,A19,A69","52.496865585452014, 13.289557340809273",
125,1961125,Bhf. Heerstrasse,strassenbahn,"75,76","52.50857975740797, 13.258353900023156",
126,1961126,Bhf. Heiligensee,bus,A14,"52.625151238346696, 13.229659068045944",
127,1961127,Bhf. Hermannstrasse,strassenbahn,27,"52.4676866643192, 13.431210901516543",
128,1961128,Bhf. Hermsdorf,bus,A15,"52.61953939324446, 13.30416069232153",
129,1961129,Bhf. Hohenzollerndamm,bus,"A65,A21,A50,AS3","52.48832716566947, 13.301436926268025",
130,1961130,Bhf. Jungfernheide,bus,"A65,A21,A62","52.530138785889896, 13.296018817180764",
131,1961131,Bhf. Jungfernheide,strassenbahn,55,"52.53103413649224, 13.300559481238167",
132,1961132,Bhf. Köpenick,strassenbahn,83,"52.4582153,13.5790435",Q66370784
133,1961133,Bhf. Lichtenberg,bus,"O30,O37","52.5112875601879, 13.499591119128855",
134,1961134,Bhf. Lichtenberg,strassenbahn,69,"52.5123603,13.4977547",Q66013733
135,1961135,Bhf. Lichtenrade,bus,"AS2,A76","52.386683297852706, 13.395506929836833",
136,1961136,Bhf. Lichterfelde-Ost,bus,A11,"52.42911680950547, 13.329847267881705",
137,1961137,Bhf. Lichterfelde-Ost,strassenbahn,"73,96","52.4289149405705, 13.329002919186095",
138,1961138,Bhf. Lichterfelde-West,bus,A11,"52.44397675869793, 13.295628699942629",
139,1961139,Bhf. Lichterfelde-West,strassenbahn,"77,78","52.442695165817675, 13.297046489476738",
140,1961140,Bhf. Lindenthaler Allee,bus,"A3,A53","52.43102570943782, 13.229881678326638",
141,1961141,Bhf. Mahlow,bus,"S-Bhf. Grünau <> Potsdam, Bassinplatz (VEB Potsdam-Babelsberg)","52.36020392986998, 13.408712381285893",
142,1961142,Bhf. Mariendorf,bus,A33,"52.446757741789085, 13.360550212856184",
143,1961143,Bhf. Mariendorf,strassenbahn,96,"52.447078310256, 13.361439800164863",
144,1961144,Bhf. Marienfelde,bus,"A32,A77","52.42342246533686, 13.374664175181172",
145,1961145,Bhf. Marienfelde,strassenbahn,15,"52.42613307832105, 13.375057660174704",
146,1961146,Bhf. Neukölln,bus,A65,"52.46969499227434, 13.44169179465082",
147,1961147,Bhf. Nikolassee,bus,A3,"52.43378197004219, 13.193152057415048",
148,1961148,Bhf. Papestrasse,bus,"A74,A73","52.473987789402614, 13.36343102988242",
149,1961149,Bhf. Papestrasse,strassenbahn,60,"52.474088737380455, 13.363804736501839",
150,1961150,Bhf. PutlitzStrasse,bus,A16,"52.53620612444645, 13.34371268088147",
151,1961151,Bhf. Rosenthal,strassenbahn,22,"52.598664,13.3726652",Q65364041
152,1961152,Bhf. Schulzendorf,bus,A14,"52.61386001623567, 13.245879660333635",
153,1961153,Bhf. Schöneberg,bus,"A65,A73","52.47997403855305, 13.352576760698511",
154,1961154,Bhf. Schöneweide,bus,"A47,Flughafen Schönefeld <> Strausberger Platz,A26","52.45374952013775, 13.510200397684477",
155,1961155,Bhf. Schöneweide,strassenbahn,"95,69,92","52.45640818289644, 13.509916574756422",
156,1961156,"Bhf. Schöneweide, Brückenstrasse",strassenbahn,87,"52.45648404130997, 13.509984392000785",
157,1961157,Bhf. Siegfriedstrasse,strassenbahn,69,"52.5123603,13.4977547",Q66013733
158,1961158,Bhf. Sonnenallee,bus,"A65,A67","52.473861610807525, 13.455874121666916",
159,1961159,Bhf. Sonnenallee,strassenbahn,"15,95","52.47414312526527, 13.455499525035636",
160,1961160,Bhf. Spandau,strassenbahn,"53,54","52.53469533777715, 13.199489615484376",
161,1961161,Bhf. Spandau-West,bus,"A63,A5","52.53497194201396, 13.198460334945361",
162,1961162,Bhf. Stalinallee,strassenbahn,3,"52.5153903,13.4540172",Q65706246
163,1961163,Bhf. Steglitz,bus,A33,"52.4567389564548, 13.32114701824465",
164,1961164,Bhf. Südende,bus,A33,"52.44906892859584, 13.354097834514832",
165,1961165,Bhf. Teltow,bus,"S-Bhf. Grünau <> Potsdam, Bassinplatz (VEB Potsdam-Babelsberg)","52.38887329700411, 13.300037338373293",
166,1961166,Bhf. Teltowkanal,strassenbahn,26,"52.45739188437929, 13.412438576146661",
167,1961167,Bhf. Tempelhof,bus,A68,"52.47084694496318, 13.385638120230526",
168,1961168,Bhf. Waidmannslust,bus,A20,"52.60711750606285, 13.32022370793147",
169,1961169,Bhf. Wannsee,bus,"A3,A51,A6","52.42151302311533, 13.17810256503659",
170,1961170,Bhf. Wedding,bus,A70,"52.544296601785504, 13.369913083294957",
171,1961171,Bhf. Westend,bus,A65,"52.51866044969405, 13.28427669582671",
172,1961172,Bhf. Wilhelmsruh,bus,A71,"52.58102921945559, 13.363635067647111",
173,1961173,Bhf. Wittenau,bus,A15,"52.59721246906266, 13.332631469768408",
174,1961174,Bhf. Wollankstrasse,bus,A70,"52.56453849178735, 13.393420272477442",
175,1961175,Bhf. Yorckstrasse,bus,A19,"52.49297747613118, 13.369530914840707",
176,1961176,Bhf. Zehlendorf,bus,"A1,A53","52.43121177777893, 13.259164408129196",
177,1961177,Bhf. Zoo,bus,"A73,AS2,AS3,A25,A62,AS1,A2","52.507029532025605, 13.333220118900503",
178,1961178,Bhf. Zoo,strassenbahn,"2,55,77,78","52.50719345524868, 13.332629878993917",
179,1961179,"Bhf. Zoo, Kantstrasse",strassenbahn,"75,76","52.50540350310839, 13.330367559360592",
180,1961180,Biesdorf,s-bahn,KBS 101,"52.5131,13.5554",Q4892357
181,1961181,Birkenwerder,s-bahn,KBS 104,"52.6885,13.2888",Q2343634
182,1961182,Bismarckplatz,bus,A29,"52.492064537089135, 13.28493897027407",
183,1961183,Bismarckstrasse,bus,A33,"52.45105788558934, 13.337947293504078",
184,1961184,Bergstrasse Ecke Bismarckstrasse,bus,"A75,A68","52.45863817204511, 13.33931462421719",
185,1961185,Björnsonstrasse,strassenbahn,3,"52.5544232,13.4030585",Q65920495
186,1961186,Blankenburg,s-bahn,KBS 106,"52.5915,13.4435",Q800469
187,1961187,"Blankenburg, Bahnhofstrasse",bus,A42,"52.591380472079955, 13.453512267562314",
188,1961188,Blankenburger Strasse Ecke Pasewalker Strasse,strassenbahn,49,"52.58856586829923, 13.430216508474143",
189,1961189,Blankenfelde,s-bahn,KBS 105,"52.3376,13.4158",Q111311372
190,1961190,"Blankenfelde, Hauptstrasse",bus,A7,"52.63002534735451, 13.38262328371393",
191,1961191,Bleibtreustrasse Ecke Kurfürstendamm,bus,A69,"52.50160347596025, 13.319464110729676",
192,1961192,Blohmstrasse Ecke Wünsdorfer Strasse,bus,A76,"52.388693095651256, 13.394328971164002",
193,1961193,Blumenstrasse,bus,S-Bhf. Rahnsdorf <> Woltersdorfer Schleuse (VEB Woltersdorf),"52.44932599725309, 13.759715132008731",
194,1961194,Boddinstr.,u-bahn,D,"52.48,13.425277777778",Q819495
195,1961195,"Bohnsdorf, Kirche",bus,AD/36,"52.39948771402893, 13.555574431978044",
196,1961196,"Bohnsdorf, Waldstrasse",bus,A38,"52.389397192754984, 13.570666562153916",
197,1961197,Bonhoeffer-Heim,bus,A62,"52.57940412664757, 13.33327468081513",
198,1961198,Borgsdorf,s-bahn,KBS 104,"52.7155,13.2764",Q4093486
199,1961199,Bornholmer Strasse Ecke Schönhauser Allee,strassenbahn,49,"52.5537705,13.4138898",Q65076842
200,1961200,Borsigwalder Weg,bus,A15,"52.58482847787268, 13.29793542584195",
201,1961201,Borsigwerke,u-bahn,C I,"52.5819,13.2907",Q525185
202,1961202,Bosestrasse,bus,A74,"52.46315599068398, 13.369986279678812",
203,1961203,Botanischer Garten,bus,"A1,A68","52.458598799471524, 13.303436055459807",
204,1961204,Botanischer Garten,s-bahn,KBS 104,"52.44806,13.30722",Q800498
205,1961205,Boxhagenerstrasse Ecke Holteistrasse,bus,O30,"52.508613193309614, 13.466277189422302",
206,1961206,Brabanter Platz,bus,A60,"52.48200661448961, 13.316219175470072",
207,1961207,Brauerei,strassenbahn,84,"52.44699265840037, 13.624251999339991",
208,1961208,Breite Strasse,bus,"A5,A31 ; A68,A33","52.53613613360638, 13.20450629947795 ; 52.45435057367761, 13.328307509759025",
209,1961209,Breitenbachplatz,bus,"A1,A32,A16","52.467219717443385, 13.309473490660878",
210,1961210,Breitenbachplatz,u-bahn,"A II,B II","52.466388888889,13.308055555556",Q571339
211,1961211,Breitscheidplatz,bus,"A19,A60,A29","52.504438063129996, 13.33564615707506",
212,1961212,Breslauer Strasse Ecke Andreasstrasse,strassenbahn,1,"52.51112572772843, 13.430544216648766",
213,1961213,Bristolstrasse,bus,A12,"52.558311542070335, 13.351189355013176",
214,1961214,Britzer Damm Ecke Gradestrasse,bus,A73,"52.45262467877224, 13.438590226068557",
215,1961215,Brixplatz,bus,A4,"52.51907944117457, 13.25699370576959",
216,1961216,Brunnenstrasse,strassenbahn,"46,70","52.5324542,13.3974236",Q65691740
217,1961217,Brunnenstrasse Ecke Invalidenstrasse,strassenbahn,11,"52.5324542,13.3974236",Q65691740
218,1961218,Brunsb tteler Damm,bus,A31,"52.53297092580436, 13.19828647148509",
219,1961219,Buch,s-bahn,KBS 106,"52.6359,13.4917",Q4892359
220,1961220,"Buch, Kiesgruben",bus,A42,"52.641758052786535, 13.515964627443202",
221,1961221,"Buchholz, Hauptstrasse",strassenbahn,49,"52.619072064369824, 13.393383358408967",
222,1961222,Buckower Ch.,s-bahn,KBS 105,"52.4103,13.3829",Q800499
223,1961223,Buckower Chaussee,bus,AS2,"52.414558044256225, 13.401161035852658",
224,1961224,Buckower Chaussee Ecke Lichtenrader Damm,bus,A76,"52.41457113222887, 13.401203951196644",
225,1961225,Buckower Damm,bus,A52,"52.42368329841466, 13.436638725763267",
226,1961226,Buckower Friedhof,bus,A52,"52.42151537347778, 13.43036950960343",
227,1961227,Bundesallee ; Bundesallee Ecke Badensche Strasse,bus,"A74,A48,A17 ; A4","52.46493052962428, 13.32853185257923 ; 52.48613795045858, 13.33110029774997",
228,1961228,Bundesallee,strassenbahn,"60,77,78 ; 74","52.48733630342845, 13.331014163134173 ;   52.46492119902574, 13.32837406654589",
229,1961229,Berliner Strasse Ecke Bundesallee,strassenbahn,3,"52.48734559170921, 13.330985557716325",
230,1961230,Bundesallee Ecke Rheinstrasse,strassenbahn,73,"52.46491462600472, 13.328502880037894",
231,1961231,Bundesplatz,bus,"AS2,A25,A65,A16,A2","52.478678991134835, 13.32860278411238",
232,1961232,Bundesplatz,strassenbahn,"77,78","52.4777799057296, 13.328566193541166",
233,1961233,Burgemeister Strasse Ecke Tempelhofer Damm,bus,"A77,A76","52.4570129343595, 13.383915410725029",
234,1961234,Buschallee Ecke Berliner Allee,strassenbahn,72,"52.55388247845091, 13.467523731713502",
235,1961235,Buschallee Ecke Klement-Gottwald-Alle,bus,A46,"52.55387831866095, 13.467451226079117",
236,1961236,Buschallee Ecke Klement-Gottwald-Allee,strassenbahn,70,"52.5537598,13.4691966",Q65546661
237,1961237,Buschkrug,strassenbahn,47,"52.452470895695484, 13.450748195174354",
238,1961238,Buschkrug Alle Ecke Blaschko-Allee,bus,A73,"52.452543995347135, 13.452160354904555",
239,1961239,"Bölschestrasse, Brauerei",strassenbahn,87,"52.44699265840037, 13.624251999339991",
240,1961240,Bötzowbahn,bus,A63,"52.560942294746425, 13.171763262130519",
241,1961241,Bühler Weg,bus,A52,"52.41724643282917, 13.412638052235238",
242,1961242,Bülowstr.,u-bahn,A I,"52.497552777778,13.363419444444",Q374881
243,1961243,Bürgerwäldchen,strassenbahn,83,"52.4893741,13.6064139",Q66364551
244,1961244,Bürknersfelde,bus,"A43,O37","52.538889807153126, 13.534159376784622",
245,1961245,Canovastrasse,bus,AS2,"52.46306323889937, 13.342852729949465",
246,1961246,Canovastrasse (Krankenhaus),strassenbahn,66,"52.4631967931949, 13.344688692199414",
247,1961247,Carl-Schurz-Strasse Ecke Am Juliusturm,bus,A13,"52.539564379064075, 13.205586144912843",
248,1961248,Carl-von-Ossietzky-Werk,bus,"S-Bhf. Grünau <> Potsdam, Bassinplatz (VEB Potsdam-Babelsberg)","52.39701454468935, 13.243358010546082",
249,1961249,Cauerstrasse,bus,AS1,"52.51470519737728, 13.315222708879112",
250,1961250,Cauerstrasse,strassenbahn,55,"52.514690629578695, 13.315200881022642",
251,1961251,Ceciliengärten,strassenbahn,66,"52.475079473741275, 13.343064768876424",
252,1961252,Charlottenburg,s-bahn,"KBS 101,KBS 102","52.504722222222,13.303333333333",Q111326217
253,1961253,Charlottenstrasse Ecke Leipziger Strasse,strassenbahn,72,"52.51050786460274, 13.391831492474326",
254,1961254,Chemische Fabrik,strassenbahn,86,"52.42696432509712, 13.573540465650169",
255,1961255,Chemnitzer Ecke Ulmenstrasse,bus,"A8,A8E","52.48730504728054, 13.5749460378103",
256,1961256,Chemnitzer Strasse Ecke Alt-Kaulsdorf,bus,A27,"52.505156423214295, 13.58155740370254",
257,1961257,Clayallee,bus,A1,"52.46042333572993, 13.274946148765821",
258,1961258,Clayallee Ecke Berliner Strasse,bus,A66,"52.435061281531794, 13.260469051198768",
259,1961259,Clayallee Ecke Königin-Luise-Strasse,bus,A68,"52.46044681153186, 13.274898269312029",
260,1961260,Clayallee/Teltower Damm,bus,AS3,"52.4350547405869, 13.260361762838802",
261,1961261,Colomierstrasse,bus,A51,"52.42928675585897, 13.164090298875724",
262,1961262,Columbiadamm,bus,A24,"52.48398171737193, 13.394418749054523",
263,1961263,Corrensplatz,bus,A11,"52.446014012041694, 13.284264679815902",
264,1961264,Cunostrasse,bus,A50,"52.485632143913, 13.296298367587678",
265,1961265,Cyclopstrasse,bus,A12,"52.60208376924525, 13.32483857919441",
266,1961266,Dachdeckerweg Ecke Buckower Damm,strassenbahn,27,"52.43211471342048, 13.435208066542456",
267,1961267,Dahlem-Dorf,u-bahn,"A II,B II","52.456944444444,13.289444444444",Q668585
268,1961268,Dahlemer Weg,bus,"A10,A48,A53","52.44179805042347, 13.282699371472702",
269,1961269,Dahlewitz,s-bahn,KBS 105,"52.326389,13.419722",Q5208886
270,1961270,Daimlerstrasse,bus,A77,"52.42310029473227, 13.382719145401357",
271,1961271,Daimlerstrasse,strassenbahn,15,"52.423949959899865, 13.380145054879522",
272,1961272,Dammweg,bus,A67,"52.47029082500845, 13.464688258814357",
273,1961273,Dammweg,strassenbahn,15,"52.47070358256429, 13.46392233215299",
274,1961274,Dammweg Ecke Sonnenallee,strassenbahn,95,"52.4702891791955, 13.464619670250386",
275,1961275,Dankmarsteig,bus,A23,"52.412460454887416, 13.528705230313825",
276,1961276,Daumstrasse,bus,A13,"52.540609965802126, 13.232264733228831",
277,1961277,Degnerstrasse,strassenbahn,"64,63","52.54488036635163, 13.493949954029993",
278,1961278,Demminer Strasse Ecke Brunnenstrasse,bus,A64,"52.54113697481197, 13.393805198148023",
279,1961279,Detmolder Strasse,bus,A1,"52.478864734081434, 13.320330304177688",
280,1961280,Deutsche Oper (Bismarckstr.),u-bahn,"A III,A I","52.511944444444,13.310555555556",Q869501
281,1961281,Deutsche Oper (Bismarckstr.),u-bahn,B I,"52.511944444444,13.310555555556",Q869501
282,1961282,"Diepensee, Flughafen",bus,AD/36,"52.362110314401846, 13.548585893916993",
283,1961283,Dimitroffstr.,u-bahn,A,"52.541666666667,13.412222222222",Q571382
284,1961284,Dimitroffstrasse,bus,A9,"52.52644944679887, 13.447574773361476",
285,1961285,Dimitroffstrasse,strassenbahn,"64,63 ; 72,71 ; 74E,74","52.5264303512303, 13.447596791543624 ;   52.53918901477695, 13.42424530247013 ;  52.53617065447549, 13.433035147691381",
286,1961286,Dimitroffstrasse Ecke Leninallee,bus,O37,"52.52644398829154, 13.447645022319072",
287,1961287,Dingelstädter Strasse,bus,O37,"52.53587676296107, 13.522058626010088",
288,1961288,Dominicusstrasse,bus,"A4,A48","52.481845594274056, 13.348295976204904",
289,1961289,Dominicusstrasse,strassenbahn,"73,74","52.48182811502358, 13.348369024265194",
290,1961290,Hauptstrasse Ecke Dominicusstrasse,bus,A75,"52.48178377611229, 13.348418210727631",
291,1961291,Dominikus-Krankenhaus,bus,A15,"52.626196524368744, 13.294495665499268",
292,1961292,Donnersmarckplatz,bus,"A15,A12","52.62982465046043, 13.28047497184123",
293,1961293,"Doppel-Süd, Berlepschstrasse",bus,A66,"52.42115284920077, 13.226688767210124",
294,1961294,Dorfaue,bus,"S-Bhf. Friedrichshagen <> Rüdersdorf, Karl-Marx-Platz (VEB Schöneiche-Rüdersdorf)","52.47886105131975, 13.70053232372426",
295,1961295,Drakestrasse,bus,A48,"52.445733691746746, 13.293722374035292",
296,1961296,Dudenstrasse,bus,A28,"52.485078406979376, 13.376567552300232",
297,1961297,Dyotzer Strasse,bus,A63,"52.541513574478394, 13.168806761501132",
298,1961298,Dönhoffplatz,strassenbahn,64,"52.509950568117645, 13.398144081918815",
299,1961299,Düppel-Kleinmachnow,s-bahn,KBS 104a,"52.421388888889,13.226666666667",Q44763529
300,1961300,Eberswalderstrasse Ecke Oderberger Strasse,strassenbahn,4,"52.54061076763243, 13.404559930731686",
301,1961301,Ebertystrasse Ecke Leninallee,bus,O30,"52.52722237261361, 13.450799684654514",
302,1961302,Edisonstrasse,strassenbahn,95,"52.4619496,13.5139049",Q65951882
303,1961303,Efeuweg,bus,A52,"52.42961975739112, 13.47788675809725",
304,1961304,Egelpfuhlstrasse,bus,A31,"52.53353984351533, 13.169416926784528",
305,1961305,Ehrenmal,bus,"A55,A45","52.57958419912971, 13.375974716701414",
306,1961306,Eichbornstr.,s-bahn,KBS 105,"52.5776,13.3169",Q800500
307,1961307,Eichbuschallee,bus,A47,"52.47574296676633, 13.487312571777435",
308,1961308,Eichbuschplatz,bus,A38,"52.39366126137233, 13.582046308470128",
309,1961309,Eichendamm,bus,S-Bhf. Rahnsdorf <> Woltersdorfer Schleuse (VEB Woltersdorf),"52.45563928691219, 13.730601143973864",
310,1961310,Eichkamp,bus,A69,"52.48991827349885, 13.259541279740162",
311,1961311,Eichkamp,s-bahn,KBS 101,"52.4987,13.2702",Q800504
312,1961312,Eichwalde,s-bahn,KBS 103,"52.3715,13.6152",Q19274479
313,1961313,"Eichwalde, Uhlandstrasse",bus,Schmöckwitz<>Eichwalde (VEB Kraftverkehr Schöneiche-Rüdersdorf),"52.372634587228696, 13.62680242919348",
314,1961314,EinemStrasse,bus,A16,"52.500023072644105, 13.35409116646997",
315,1961315,Elisabethstrasse,bus,O37,"52.53409533705918, 13.55949915809485",
316,1961316,Elisabethstrasse,strassenbahn,22,"52.51764985236767, 13.418046139104245",Q65364041
317,1961317,Elsenstraße Ecke Heidelberger Strasse,strassenbahn,3,"52.48686073879974, 13.451206024220186",
318,1961318,Elsterplatz,bus,"A10,A50","52.47977982878401, 13.285507613099716",
319,1961319,Elsässer Strasse,bus,A7,"52.63337294510061, 13.345103420124245",
320,1961320,Emmentaler Strasse,bus,A12 ; A71,"52.5675354709663, 13.351240165364471 ; 52.570420696850896, 13.360956869321077",
321,1961321,Emser Platz,bus,A50,"52.492072890007414, 13.319251387534207",
322,1961322,Endestrasse,bus,A6,"52.41965961978957, 13.160396994674473",
323,1961323,Englerallee,bus,A16,"52.46177802552459, 13.304473295414123",
324,1961324,Erdener Strasse,bus,A19,"52.490558314289494, 13.276360031005654",
325,1961325,Erkner,s-bahn,KBS 102,"52.4296,13.7513",Q14434071
326,1961326,Erkstrasse,bus,A67,"52.48167227551806, 13.440052048368255",
327,1961327,Erkstrasse Ecke Sonnenallee,strassenbahn,95,"52.48169987618706, 13.440143697235596",
328,1961328,Ernst-Reuter-Platz,bus,A2,"52.511591823135106, 13.322571528312595",
329,1961329,Ernst-Reuter-Platz,strassenbahn,2,"52.51161823664999, 13.32251039233923",
330,1961330,Ernst-Reuter-Platz,u-bahn,"A I,B I","52.511944444444,13.322222222222",Q658361
331,1961331,"Ernst-Reuter-Platz, Straße des 17. Juni",bus,A2,"52.51415248820911, 13.349264931257151",
332,1961332,Exerzierstrasse,bus,A61,"52.553756646174705, 13.37716619556309",
333,1961333,Eythstrasse,bus,A74,"52.45972284347706, 13.366428299506616",
334,1961334,Eythstrasse,strassenbahn,60,"52.45988973432991, 13.36224461313015",
335,1961335,Fahlenbergstrasse Ecke Fürstenwalder Allee,bus,A22,"52.431470149043314, 13.718708856639706",
336,1961336,Falkenberger Chaussee,bus,A39,"52.565816857333125, 13.511913714753",
337,1961337,Falkenbergerstrasse Ecke Wartenberger Strasse,strassenbahn,63,"52.55036672097044, 13.509915032138812",
338,1961338,Falkenplatz,bus,A20,"52.58490937545724, 13.227619925618022",
339,1961339,Falkensee,s-bahn,KBS 103,"52.559722,13.088889",Q5431918
340,1961340,Falkenseer Chaussee,bus,A5,"52.54750354783305, 13.184668062763297",
341,1961341,Fasanenstrasse,bus,S-Bhf. Rahnsdorf <> Woltersdorfer Schleuse (VEB Woltersdorf),"52.452960838046685, 13.744604216761394",
342,1961342,Fehrbelliner Platz,bus,"A74,A50","52.49040638965375, 13.314204217177087",
343,1961343,Fehrbelliner Platz,strassenbahn,"60,3","52.49032472677901, 13.314317300484289",
344,1961344,Fehrbelliner Platz,u-bahn,"A II,B II","52.490277777778,13.314444444444",Q663245
345,1961345,Feldtmannstrasse,bus,A46,"52.56401588379611, 13.46980857664685",
346,1961346,Feuerbachstr.,s-bahn,KBS 104,"52.463611111111,13.332777777778",Q800501
347,1961347,"Fichtenau, Stadtgrenze",bus,A22,"52.45479242349705, 13.701499962608066",
348,1961348,Fichtestrasse Ecke Schopenhauerstrasse,bus,A8,"52.47979924975105, 13.617292306977053",
349,1961349,Finckensteinallee,strassenbahn,74,"52.43264816323959, 13.294626828766564",
350,1961350,Flinsberger Platz,bus,A50,"52.483689942018465, 13.29268111645926",
351,1961351,Flughafen,bus,"A19,A24","52.470965141866394, 13.385641462324475",
352,1961352,Flughafen,u-bahn,C II,"52.485556, 13.385833",Q557582
353,1961353,Flughafen Schönefeld,bus,Flughafen Schönefeld <> Strausberger Platz,"52.388890492596076, 13.518696635005039",
354,1961354,Flughafen Tempelhof,bus,"A77,A76","52.48504444099743, 13.386014416287884",
355,1961355,Forckenbeckstrasse,bus,A50,"52.482221394934605, 13.290044081376928",
356,1961356,Frankfurter Tor,u-bahn,E,"52.515833333333,13.454166666667",Q568627
357,1961357,Frankfurter Tor/Stalinallee,strassenbahn,"13,4","52.5153903,13.4540172",Q65706246
358,1961358,Frauenklinik,strassenbahn,15,"52.463949908172545, 13.427509548910932",
359,1961359,Fredersdorf (b Bln),s-bahn,KBS 101,"52.5265,13.7625",Q15197387
360,1961360,Freibad Grünau,strassenbahn,86,"52.4086224,13.604455",Q66489598
361,1961361,Freie Scholle,bus,A20,"52.599851537868666, 13.301736158422598",
362,1961362,Friedenau,s-bahn,KBS 104,"52.47,13.341",Q800471
363,1961363,Friedenstrasse,bus,A6,"52.417223782342035, 13.138950169993388",
364,1961364,Friedhof Rudow,bus,A52,"52.42113122136662, 13.503199151482875",
365,1961365,Friedhof Ruhleben,bus,"A5,A31","52.527735865422024, 13.231788317801291",
366,1961366,Friedrich-Junge-Strasse,bus,A82P,"52.49382897072681, 13.471572865851856",
367,1961367,Franz-Körner-Strasse Ecke Britzer Damm,strassenbahn,27,"52.45588399633974, 13.437301610724912",
368,1961368,Friedrich-Wilhelm-Platz,bus,A2,"52.47128806242274, 13.328362126543809",
369,1961369,Friedrich-Wilhelm-Platz,strassenbahn,"77,78","52.47132415928576, 13.328417218543715",
370,1961370,Friedriche-Wilhelm-Platz,bus,A17,"52.471408713269064, 13.327952650518178",
371,1961371,Friedrichsfelde (Tierpark),u-bahn,E,"52.506111111111,13.512777777778",Q429781
372,1961372,Friedrichsfelde Ost,s-bahn,KBS 101,"52.5141,13.5198",Q800473
373,1961373,Friedrichshagen,s-bahn,KBS 102,"52.4574,13.6233",Q800474
374,1961374,"Friedrichshagen, Wasserwerk",strassenbahn,84,"52.4560563,13.6419956",Q66362601
375,1961375,Friedrichstr.,s-bahn,"KBS 106,KBS 104,KBS 101,KBS 105,KBS 103,KBS 102","52.52027777777778,13.386944444444444",Q111219456
376,1961376,Friedrichstrasse Ecke Unter den Linden,bus,"A57,A9","52.51718498081941, 13.388821428784585",
377,1961377,Friedrichstrasse Ecke Leipzigerstrasse,strassenbahn,74,"52.5103602362092, 13.38989950699694",
378,1961378,Friesenstrasse,bus,A4,"52.483950604682775, 13.394359749805426",
379,1961379,Frohnau,s-bahn,KBS 106,"52.6325,13.2902",Q800472
380,1961380,Fuldastrasse,bus,A67,"52.483802510465225, 13.435884392882318",
381,1961381,Fürstenbrunner Weg,bus,AS1,"52.518378845111386, 13.280184750778325",
382,1961382,Fürstenwalder Damm,strassenbahn,84,"52.4498638,13.661534",Q66361484
383,1961383,Gabelung,bus,A13,"52.59988612656876, 13.25204128545515",
384,1961384,"Galenusstrasse, Krankenhaus Pankow",strassenbahn,49,"52.5818183,13.4287678",Q66195410
385,1961385,Gartenfeld,s-bahn,KBS 100c,"52.54695,13.24882",Q96080469
386,1961386,"Gartenplatz, Feldstrasse",bus,A61,"52.538565896675905, 13.384005277447793",
387,1961387,Gartenstadtweg,bus,AD/36,"52.412313913821045, 13.56660267841369",
388,1961388,Gartenstrasse Ecke Bernauer Strasse,bus,A12,"52.53347451941179, 13.387474124225042",
389,1961389,"Gatow, Kirche",bus,"A34,A35","52.48684680676539, 13.18215147844503",
390,1961390,Gatower Strasse,bus,A35,"52.489436255649245, 13.180387588417426",
391,1961391,Genslerstrasse Ecke Siegfriedstrasse,bus,O37,"52.53419051284018, 13.497014225567375",
392,1961392,Germaniapromenade Ecke Britzer Damm,strassenbahn,27,"52.4608966930734, 13.435060145023824",
393,1961393,Germaniastrasse,strassenbahn,"15,26","52.46053782557012, 13.418009045149528",
394,1961394,Germersheimer Platz,bus,A35,"52.54433253766927, 13.187336363919895",
395,1961395,Gerosteig,bus,A23,"52.40977095398672, 13.52694351354655",
396,1961396,Gesundbrunnen,s-bahn,"KBS 100,KBS 104,KBS 105,KBS 106","52.548611111111,13.389444444444",Q111239092
397,1961397,Gesundbrunnen,u-bahn,D,"52.548611,13.389444",Q3761416
398,1961398,Giebelsee,s-bahn,KBS 101,"52.5291,13.791",Q7178217
399,1961399,Giesendorferstrasse Ecke Ostpreußendamm,strassenbahn,96,"52.42404034141401, 13.314380054820173",
400,1961400,Glasow,bus,"S-Bhf. Grünau <> Potsdam, Bassinplatz (VEB Potsdam-Babelsberg)","52.34362622314638, 13.436212574873101",
401,1961401,Gleisdreieck,u-bahn,"A II,A I,B II,B I","52.49952,13.37409",Q678372
402,1961402,"Glienicke, Kirche",bus,A7,"52.63062737184449, 13.312861916755343",
403,1961403,Glienicker Brücke,bus,A6,"52.413474089031965, 13.091235881924467",
404,1961404,Glogauer Strasse,strassenbahn,26,"52.493437003779434, 13.43739124697587",
405,1961405,Gneisenaustr.,u-bahn,C I,"52.491388888889,13.395555555556",Q668618
406,1961406,Gneisenaustrasse,bus,A24,"52.491573255885584, 13.394331623371611",
407,1961407,Goebelplatz,bus,A65,"52.53812718171093, 13.27991414794248",
408,1961408,Goeben-/Pallasstrasse,bus,A48,"52.49428616497335, 13.361054367554111",
409,1961409,Goerzallee,strassenbahn,78,"52.421943941201924, 13.298506647186814",
410,1961410,Goerzallee,strassenbahn,77,"52.421239396012226, 13.297229913434496",
411,1961411,Goethestrasse,bus,S-Bhf. Rahnsdorf <> Woltersdorfer Schleuse (VEB Woltersdorf),"52.455522709275314, 13.725374316281378",
412,1961412,Goethestrasse Ecke Lichtenrader Damm,bus,A76,"52.40441062653864, 13.406187362835603",
413,1961413,Goltzstrasse,bus,AS2,"52.38667572084441, 13.407934498494095",
414,1961414,Gorkistrasse,bus,A15,"52.59059426195262, 13.292011153010927",
415,1961415,GotenStrasse,strassenbahn,2,"52.47980106472719, 13.360246185256694",
416,1961416,Gottlieb-Dunkel-Strasse Ecke Tempelhofer Weg,bus,"A25,A73","52.460486783559624, 13.417983924217406",
417,1961417,GotzkowskyStrasse,bus,A24,"52.52718356053599, 13.330470683683586",
418,1961418,Gotzkowskybrücke,bus,A25,"52.52381238362036, 13.329729120795239",
419,1961419,Gotzkowskybrücke,strassenbahn,2,"52.52256202362077, 13.328976276425243",
420,1961420,Gotzkowskystrasse Ecke Turmstrasse,strassenbahn,3,"52.52723347192614, 13.330503468404352",
421,1961421,Britzer Damm Ecke Gradestrasse,strassenbahn,27,"52.45263570371839, 13.438520381888571",
422,1961422,Grazer Platz,bus,A25,"52.467636991817486, 13.347565807885369",
423,1961423,Greifswalder Str.,s-bahn,"KBS 103a,KBS 106","52.539722222222,13.439444444444",Q439246
424,1961424,Greifswalder Strasse,bus,"A44,A44E","52.53002871375482, 13.62681794411932",
425,1961425,Greifswalder Strasse,strassenbahn,"13,4","52.5364975,13.4334045",Q65548960
426,1961426,Greifswalderstrasse Ecke Dimitroffstrasse,bus,O30,"52.5362177572407, 13.433017500945247",
427,1961427,Grenadierstrasse,bus,"A5,A31","52.530981925368565, 13.205371761701368",
428,1961428,Grenzallee,u-bahn,C I,"52.463333333333,13.443888888889",Q571836
429,1961429,Grenzstrasse,bus,A12,"52.541822798579034, 13.378147647725354",
430,1961430,Griebnitzsee,s-bahn,KBS 102,"52.3944,13.1272",Q315133
431,1961431,GritznerStrasse,bus,A32,"52.464372021076116, 13.31646473581109",
432,1961432,Grottkauer Strasse,bus,A49,"52.52796238368814, 13.600805280630896",
433,1961433,Groß Ziethen,bus,AZ,"52.41404104155547, 13.438879163306126",
434,1961434,Große Seestrasse Ecke Berliner Allee,bus,A55,"52.55706359604488, 13.46682217730197",
435,1961435,Großer Stern,bus,A69,"52.514524715463295, 13.349933192922938",
436,1961436,Großglienicker Weg,bus,"A34,A35","52.483148805729485, 13.182630557348212",
437,1961437,Großgörschenstr.,s-bahn,KBS 104,"52.4922745,13.3678588",Q21776726
438,1961438,Grunewald,s-bahn,KBS 102,"52.4892,13.2614",Q457266
439,1961439,Grunewaldstrasse,bus,A73,"52.48907804007202, 13.345000249198607",
440,1961440,Grunewaldstrasse,strassenbahn,"77,78","52.489099571674906, 13.344928521367574",
441,1961441,Grunewaldstrasse Ecke Martin-Luther-Strasse,strassenbahn,2,"52.489114608736564, 13.344981706170403",
442,1961442,Grünau,s-bahn,"KBS 103,KBS 100a,KBS 106","52.4122,13.5746",Q111307258
443,1961443,Grünberger Strasse,strassenbahn,4,"52.5122359,13.452609",Q65706239
444,1961444,Grüner Weg,bus,"A25,A52","52.42955863550208, 13.453590733350595",
445,1961445,Grüntaler Straße Ecke Osloer Strasse,strassenbahn,3,"52.555331,13.3909979",Q65807452
446,1961446,Gustav-Adolf-Strasse Ecke Rennbahnstrasse,bus,A55,"52.562178269666816, 13.454275093038184",
447,1961447,Gutschmidtstrasse,bus,A25,"52.437076827846255, 13.444129425003135",
448,1961448,Gutschmidtstrasse Ecke Buckower Damm,strassenbahn,27,"52.44036543188374, 13.434740081887323",
449,1961449,Gutshof,bus,A34,"52.47510904064348, 13.120710540203262",
450,1961450,Gutshof Marienfelde,bus,A52,"52.41088450558385, 13.373192649319066",
451,1961451,Görlitzer Bahnhof (Oranienstr.),u-bahn,"B II,B I","52.4992,13.428",Q597759
452,1961452,Güntzelstrasse,bus,A60,"52.49154575346882, 13.323206588873013",
453,1961453,Güteraußenring,bus,A42,"52.599887239389226, 13.469297130431492",
454,1961454,Güterbahnhof Springpfuhl,bus,A43,"52.52561231977731, 13.533687321893124",
455,1961455,Hackbuschstrasse,bus,A31,"52.53959956967987, 13.150244533066292",
456,1961456,"Hackescher Markt, Große Präsidentenstrasse",strassenbahn,"49,63","52.523392495650945, 13.40144677696498",
457,1961457,Hafenplatz,bus,"A24 ; AS1,A34","52.50392083524772, 13.375479875476426 ; 52.54215888169655, 13.206044861619935",
458,1961458,Hafenplatz,strassenbahn,"53,75,54,76","52.542292547760184, 13.206201126048732",
459,1961459,Hagenplatz,bus,"A19,A17","52.483382973651, 13.265818700272884",
460,1961460,Hainbuchenstrasse,bus,A12,"52.63427133418521, 13.274824021447571",
461,1961461,Hakenfelde,strassenbahn,"53,75","52.57886009874865, 13.210057800310379",
462,1961462,Halensee,s-bahn,KBS 100,"52.4961,13.2906",Q800476
463,1961463,Hallesches Tor,u-bahn,"B I,A II,B II,C I","52.497777777778,13.391111111111",Q658302
464,1961464,Halskestrasse,bus,A33,"52.449975911659585, 13.34671540590703",
465,1961465,Hamburger Platz,bus,"A56,A55,A45","52.555394187589414, 13.438973139463632",
466,1961466,"Hamburger Strasse, Rudolf-Mosse-Platz",bus,A60,"52.475375170002664, 13.303566446005037",
467,1961467,Hannoversche Strasse,strassenbahn,11,"52.52716496126181, 13.387046759579254",
468,1961468,Hansaplatz,bus,"A25,A16","52.5179343319099, 13.342038193257153",
469,1961469,HardenbergStrasse,bus,"AS2,AS3","52.506181479310335, 13.332318460113605",
470,1961470,Hartmannsweiler Weg,bus,A53,"52.43871188132932, 13.248833836243495",
471,1961471,Harzer Strasse,bus,A4,"52.48636830082275, 13.446318376662678",
472,1961472,"Haselhorst, Kirche",bus,A10,"52.5468281751583, 13.237065889883622",
473,1961473,Hatzfeldallee,bus,A20,"52.592072752436835, 13.28604590141529",
474,1961474,Hauptkinderheim,bus,A5,"52.52819346807093, 13.228649269163302",
475,1961475,Hauptstrasse (Schöneberg),bus,A74,"52.48187232227649, 13.348270377910302",
476,1961476,Hauptstrasse (Schöneberg),strassenbahn,"60,66","52.47785084296006, 13.34322373343706",
477,1961477,"Hohenschönhausen, Hauptstrasse",strassenbahn,"64,63","52.548884396434666, 13.504600838756778",
478,1961478,Hauptstrasse Ecke Dominicusstrasse,bus,A73,"52.48178377611229, 13.348418210727631",
479,1961479,Hauptstrasse Ecke Dominicusstrasse,strassenbahn,2,"52.48179322469747, 13.348385662518401",
480,1961480,Hauptstrasse Ecke Edelweißstrasse,bus,"A55,A45","52.586379262142074, 13.36752938856218",
481,1961481,Hauptstrasse Ecke Karlshorster Strasse,strassenbahn,82,"52.50151144462545, 13.475233514493265",
482,1961482,Hauptstrasse Ecke Suermondtstrasse,strassenbahn,70,"52.549007155940316, 13.5016967242267",
483,1961483,Hausvogteiplatz,u-bahn,A,"52.513055555556,13.396666666667",Q656523
484,1961484,Havensteinstrasse Ecke Gallwitzallee,bus,A2,"52.431932745971366, 13.346359890563553",
485,1961485,Heckerdamm,bus,"A21,A62","52.53962816572025, 13.295048454368684",
486,1961486,Heckmannufer,bus,A28,"52.49706082077895, 13.44923941809119",
487,1961487,Heerstr.,s-bahn,KBS 101,"52.5086,13.2586",Q800502
488,1961488,Heerstrasse,bus,"A13 ; A34,A35","52.51662457723462, 13.179022303033726 ;  52.51550447615084, 13.18456806294143",
489,1961489,Heidebergplan,bus,A31,"52.541074133887626, 13.147338727333166",
490,1961490,Heidelberger Platz,u-bahn,"A II,B II","52.479808333333,13.313236111111",Q21777872
491,1961491,Heiligensee,s-bahn,KBS 105,"52.6247,13.2292",Q800475
492,1961492,Heiligenseestrasse,bus,"A20,A14","52.59796193636089, 13.275098894138587",
493,1961493,"Heinersdorf, Kirche",bus,A42,"52.56826376476754, 13.440601903603064",
494,1961494,"Heinersdorf, Kirche",strassenbahn,71,"52.5686908,13.4389053",Q65096107
495,1961495,"Heinersdorf, Romain-Rolland-Str.",strassenbahn,71,"52.5725511,13.4371063",Q65096052
496,1961496,Heinrich-Duncker-Strasse Ecke Ehrlichstrasse,strassenbahn,82,"52.4789566,13.5234316",Q65951921
497,1961497,Heinrich-Heine-Strasse,strassenbahn,"64,11","52.51099529411967, 13.416420239383946",
498,1961498,Heinrich-Mann-Platz,bus,"A55,A45","52.57297246262195, 13.392146133350426",
499,1961499,Hennigsdorf (b Bln),s-bahn,KBS 105,"52.638,13.2057",Q800909
500,1961500,Hennigsdorf Nord,s-bahn,KBS 105,"52.66,13.2033",Q685717
501,1961501,Hermannplatz,bus,A67,"52.48778872855567, 13.425393480017616",
502,1961502,Hermannplatz,strassenbahn,"3,95,47,27,26","52.487085572732276, 13.424752445258537",
503,1961503,Hermannplatz,u-bahn,"D,C I","52.48629,13.42455",Q658929
504,1961504,Hermannstr.,s-bahn,"KBS 100a,KBS 100","52.4675,13.431111111111",Q111263802
505,1961505,Hermannstrasse,strassenbahn,"15,26","52.46476232618638, 13.432818109719008",
506,1961506,Hermannstrasse Ecke Silbersteinstrasse,bus,A65,"52.46644333425963, 13.43195484694859",
507,1961507,Hermsdorf,s-bahn,KBS 106,"52.6178,13.3069",Q263189
508,1961508,Hermsdorfer Damm,bus,A12 ; A15,"52.62242143698805, 13.31287835380073 ;   52.600011860666825, 13.281303213246002",
509,1961509,Hertzbergplatz,bus,A67,"52.477487105395774, 13.448598156816837",
510,1961510,Hertzbergplatz,strassenbahn,95,"52.4773735457893, 13.448843811492495",
511,1961511,"Hessenwinkel, Lindenstrasse",bus,A22,"52.42653518647879, 13.728458969026482",
512,1961512,Hildburghauser Strasse,bus,A11,"52.416650746748985, 13.338144038711128",
513,1961513,Hindenburgdamm,bus,A48,"52.45352507850236, 13.315671490206539",
514,1961514,Hindenburgdamm,strassenbahn,"77,78","52.45271700038014, 13.319567835182761",
515,1961515,Hirschgarten,s-bahn,KBS 102,"52.4579,13.6032",Q4892435
516,1961516,Hirschgarten,strassenbahn,"84,87","52.4518533,13.6006245",Q66360740
517,1961517,Hirtestrasse,strassenbahn,86,"52.46228517510202, 13.582989445330378",
518,1961518,Hochgerichtstrasse,bus,"A63,A5","52.53838037062423, 13.183009198076522",
519,1961519,Hochmeisterplatz,bus,A4,"52.49468637986547, 13.301254684721862",
520,1961520,Hochschule für Ökonomie,strassenbahn,69,"52.4927681,13.5266059",Q65952866
521,1961521,Hohen-Neuendorf (b Bln),s-bahn,KBS 104,"52.6684,13.287",Q4500489
522,1961522,"Hohenschönhausen, Falkenberger Strasse",bus,A39,"52.550229554941964, 13.509585042301534",
523,1961523,"Hohenschönhausen, Falkenberger Strasse",strassenbahn,"64,70","52.5508672,13.5094994",Q65555882
524,1961524,"Hohenschönhausen, Gartenstadt",strassenbahn,63,"52.5508672,13.5094994",Q65555882
525,1961525,Hohenschönhauser Strasse,strassenbahn,3,"52.5359329,13.4729468",Q65553684
526,1961526,Hohenschöpping,s-bahn,KBS 105,"52.67,13.1945",Q19274489
527,1961527,Hohenstaufenplatz,bus,A67,"52.49085480753271, 13.423419999335453",
528,1961528,Hohenzollerndamm,bus,A50,"52.476835205459196, 13.28097752710442",
529,1961529,Hohenzollerndamm,s-bahn,KBS 100,"52.4885,13.3004",Q800503
530,1961530,Hohenzollernplatz,u-bahn,"A II,B II","52.493888888889,13.325",Q571570
531,1961531,Hohenzollernring,bus,AS1,"52.55569430282622, 13.207589665448262",
532,1961532,Hohenzollernring,strassenbahn,"53,75 ; 54,76","52.55569292602298, 13.20744492422738 ; 52.55534806923232, 13.198657615343986",
533,1961533,Boxhagenerstrasse Ecke Holteistrasse,strassenbahn,3,"52.5088235,13.465969",Q65675805
534,1961534,Boxhagenerstrasse Ecke Holteistrasse,strassenbahn,13,"52.5088235,13.465969",Q65675805
535,1961535,Holzhauser Str.,u-bahn,C I,"52.575833333333,13.296111111111",Q557566
536,1961536,Holzhauser Strasse,bus,"A12,A14 ; A15","52.59178549505881, 13.326377240287412 ;  52.581973276504755, 13.305409380050108",
537,1961537,Hoppegarten (Mark),s-bahn,KBS 101,"52.5183,13.6734",Q15197357
538,1961538,Hottengrund,bus,A35,"52.44597765000425, 13.126251393745859",
539,1961539,Hultschiner Damm,bus,A8,"52.47711373957008, 13.600598140620137",
540,1961540,Humannplatz,strassenbahn,70,"52.5493627,13.4213646",Q65962652
541,1961541,Humboldthain,s-bahn,"KBS 104,KBS 105,KBS 106","52.5451,13.3796",Q481276
542,1961542,Humboldtstrasse,bus,A61,"52.56929443788896, 13.32995611157798",
543,1961543,Hundekehlestrasse,bus,A10,"52.47548162130776, 13.290308772196097",
544,1961544,Händelplatz,strassenbahn,"73,77,78,74","52.450279094879285, 13.315466784727654",
545,1961545,"Hönow, Dorfstrasse",bus,A44,"52.54884927869554, 13.63648687804691",
546,1961546,Ihnestrasse,bus,A11,"52.44831039409289, 13.276355065531465",
547,1961547,Imbrosweg,strassenbahn,15,"52.443541863050356, 13.398564688322455",
548,1961548,Industriestrasse,strassenbahn,"15,26","52.455350229930445, 13.409794385645863",
549,1961549,Innsbrucker Platz,bus,"A75,A65,A4,A16,A48","52.478545508234895, 13.34405868604117",
550,1961550,Innsbrucker Platz,s-bahn,"KBS 100a,KBS 100","52.4786,13.3439",Q111263876
551,1961551,Innsbrucker Platz,strassenbahn,"66,73,74","52.47804266204959, 13.343446877940893",
552,1961552,Innsbrucker Platz (Hauptstr.),u-bahn,B III,"52.4786,13.3439",Q10275871
553,1961553,Invalidenstrasse Ecke Chausseestrasse,strassenbahn,1,"52.5304158,13.3827302",Q65552697
554,1961554,"J denstrasse, Molkenmarkt",strassenbahn,71,"52.516142213164905, 13.410591792750504",
555,1961555,Jakob-Kaiser-Platz,bus,A72,"52.536739701449115, 13.293604878938678",
556,1961556,Jakob-Kaiser-Platz,strassenbahn,55,"52.53674527783534, 13.293570890395548",
557,1961557,Jannowitzbrücke,s-bahn,"KBS 101,KBS 103,KBS 102","52.514822222222,13.41795",Q27955427
558,1961558,"Jerusalems-Kirche, Lindenstrasse",bus,A67,"52.507080658279015, 13.398349137947935",
559,1961559,Joachim-Friedrich-Strasse,bus,A29,"52.49796465694724, 13.296270941417216",
560,1961560,Joachim-Friedrich-Strasse Ecke Kurfürsten Damm,bus,A69,"52.497990910880795, 13.296176084656011",
561,1961561,Joachimstaler Strasse,bus,"A19,A60,A29","52.50380704791941, 13.331281572821457",
562,1961562,Joachimstaler Strasse Ecke Kurfürstendamm,bus,A69,"52.503848526250394, 13.331282191682005",
563,1961563,Joachimstrasse,bus,A38,"52.40316589631168, 13.57664158970399",
564,1961564,Johannesstift,strassenbahn,"54,76","52.56762416524039, 13.191782610265674",
565,1961565,"Johannisthal, Haeckelstrasse",strassenbahn,69,"52.4402944,13.5052638",Q66225573
566,1961566,Johannisthaler Chaussee,bus,A47,"52.45136033294721, 13.488299619950027",
567,1961567,Johannisthaler Chaussee,strassenbahn,47,"52.43434580082342, 13.469025837805159",
568,1961568,John-Foster-Dulles-Allee,bus,A24,"52.517085214536316, 13.354609198247653",
569,1961569,Jungfernheide,s-bahn,"KBS 103a,KBS 100c,KBS 100","52.53035,13.299433333333",Q110977325
570,1961570,Jänickestrasse,bus,A53,"52.427213941734294, 13.271659447787256",
571,1961571,Kaiser-Friedrich-Strasse,bus,A74,"52.50678666128108, 13.302343266081147",
572,1961572,Kaiser-Wilhelm-Platz,bus,"A4,A48,A75","52.486329247981715, 13.35655627172785",
573,1961573,Kaiser-Wilhelm-Platz,strassenbahn,"2,73,74","52.486331659025346, 13.356584679052645",
574,1961574,Kaiserdamm (Messedamm),u-bahn,"A I,B I","52.51,13.2822",Q656409
575,1961575,Kaisereiche,bus,"A25,A48,A75","52.46896806014468, 13.332614886077709",
576,1961576,Kaisereiche,strassenbahn,"73,74","52.468942127334586, 13.332672961457298",
577,1961577,Kaiserin-Augusta-Strasse Ecke Tempelhofer Damm,bus,A68,"52.45934920938466, 13.384516351201325",
578,1961578,Kaiserstrasse,bus,A33,"52.445569639174806, 13.385736727448023",
579,1961579,Kaiserstrasse Ecke Mariendorfer Damm,bus,A76,"52.44556072681654, 13.38580316499979",
580,1961580,Kaiserstrasse Ecke Mariendorfer Damm,bus,A77,"52.445571772041696, 13.38576290701988",
581,1961581,Kaiserstrasse/Ringstrasse,bus,A33,"52.44449600134536, 13.372233806361567",
582,1961582,Kali-Chemie,strassenbahn,95,"52.46329854840191, 13.499789773217568",
583,1961583,Kali-Chemie,strassenbahn,92,"52.46329854840191, 13.499789773217568",
584,1961584,Kanalstrasse,bus,A52,"52.42383870085989, 13.514466425990765",
585,1961585,Kantstrasse,bus,A21,"52.50678794910284, 13.302320269833038",
586,1961586,Karl-Marx-Platz,strassenbahn,"47,26","52.47358382682129, 13.44070604138443",
587,1961587,Karl-Marx-Str.,u-bahn,C I,"52.476111111111,13.439166666667",Q519494
588,1961588,Karlshorst,s-bahn,KBS 102,"52.4808,13.5258",Q111327045
589,1961589,Karlshorster Strasse,strassenbahn,13,"52.502334098187674, 13.475466875195085",
590,1961590,Karolinenhof Mitte,strassenbahn,86,"52.39176095915858, 13.634654256792825",
591,1961591,Karolinenstrasse,bus,A20,"52.59678679258494, 13.276661373436578",
592,1961592,Karow,s-bahn,KBS 106,"52.615,13.4692",Q111324168
593,1961593,"Karow, Bahnhofstrasse",bus,A42,"52.60931228539711, 13.481265848599735",
594,1961594,Karower Strasse Ecke Alt-Buch,bus,A42,"52.6353147366511, 13.49919747411447",
595,1961595,Kaserne Südtor,bus,A21,"52.55685969560147, 13.3084342409763",
596,1961596,Katzbachstrasse,bus,A19,"52.491584280543336, 13.376725460315825",
597,1961597,Kaulsdorf,s-bahn,KBS 101,"52.5121,13.5904",Q800478
598,1961598,"Kaulsdorf, Bausdorfstrasse",bus,A49,"52.51256368150751, 13.601906818686038",
599,1961599,Kinderheim,bus,A82P,"52.4898153097415, 13.481404230737937",
600,1961600,Kinderheim Ruhleben,bus,A31,"52.52796709321304, 13.230713275419049",
601,1961601,Kirchstrasse,bus,A12,"52.61485248170046, 13.317034418727145",
602,1961602,Kirschenallee,strassenbahn,"53,54","52.52037354122697, 13.267241546337495",
603,1961603,Kisselnallee Ecke Radelandstrasse,bus,A63,"52.556501057441956, 13.188670871494672",
604,1961604,Kladow,Fähre,Wannsee<>Kladow (Betrieb durch Stern und Kreisschiffahrt),"52.45151498638808, 13.147961938847912",
605,1961605,Klausenerplatz,bus,A74,"52.51924427298945, 13.291948741419509",
606,1961606,Klausenerplatz,strassenbahn,"53,54","52.519202008553854, 13.291867366490655",
607,1961607,Klein Ziethen,bus,AZ,"52.379580499215606, 13.44656986522325",
608,1961608,"Kleinbahn, Buckower Damm",strassenbahn,27,"52.438022748003675, 13.434975544021462",
609,1961609,Klement-Gottwald-Allee Ecke Rennbahnstrasse,bus,A45,"52.55694652931542, 13.466966083751453",
610,1961610,Klement-Gottwald-Allee Ecke Rennbahnstrasse,bus,A46,"52.55694652931542, 13.466966083751453",
611,1961611,Klement-Gottwald-Allee Ecke Rennbahnstrasse,strassenbahn,"72,74E,74","52.5573986,13.4656872",Q65954749
612,1961612,Klement-Gottwald-Allee Ecke Indira-Ghandi-Strasse,strassenbahn,3,"52.55207481375682, 13.465630856253787",
613,1961613,"Klingenberg, Blockdammweg",strassenbahn,"13,82","52.4842462,13.5104609",Q66085182
614,1961614,Klingsorstrasse,bus,A33,"52.45309021884074, 13.33121103955973",
615,1961615,Klinkeplatz,bus,AS1,"52.555551464661846, 13.198549783852652",
616,1961616,Klosterstr.,u-bahn,A,"52.516111111111,13.412222222222",Q657893
617,1961617,Klosterstrasse,bus,O30,"52.51798604342281, 13.412126746747086",
618,1961618,Knesebeckstrasse,bus,A53,"52.428912094809505, 13.267664971836647",
619,1961619,Kniprodestrasse,strassenbahn,"13,4","52.5325286,13.4406868",Q65707391
620,1961620,Kniprodestrasse Ecke Ermländische Strasse,bus,A57,"52.53214047166688, 13.441498411095067",
621,1961621,KoblanckStrasse,bus,A51,"52.426175417562064, 13.161460962278303",
622,1961622,Kochstr.,u-bahn,C I,"52.505897222222,13.390611111111",Q201849
623,1961623,Kohlhasenbr ck,bus,A18,"52.397602179732665, 13.143663292364124",
624,1961624,"Kolonie ""Land in Sonne""",bus,A39,"52.55462883361286, 13.511870302373488",
625,1961625,Kongreßhalle,bus,A69,"52.51763253396976, 13.363196975404886",
626,1961626,Konstanzer Strasse,bus,A50,"52.48857876641685, 13.308077083720315",
627,1961627,Konsum Wernsdorf,bus,Schmöckwitz<>Ziegenhals (VEB Kraftverkehr Schöneiche-Rüdersdorf),"52.36448396303661, 13.698441127852544",
628,1961628,Konsum Ziegenhals,bus,Schmöckwitz<>Ziegenhals (VEB Kraftverkehr Schöneiche-Rüdersdorf),"52.353014165379946, 13.671672670712805",
629,1961629,Kopenhagener Strasse,bus,A14,"52.574260461143574, 13.359154742049908",
630,1961630,Kopernikusstrasse Ecke Warschauer Strasse,strassenbahn,"3,4","52.5105842,13.4526258",Q65950088
631,1961631,Kosterstrasse,bus,O30,"52.51798604342281, 13.412126746747086",
632,1961632,Kottbusser Brücke,bus,A67,"52.496030844936435, 13.420070402767054",
633,1961633,Kottbusser Damm (Schönleinstr.),u-bahn,D,"52.493055555556,13.421944444444",Q666868
634,1961634,Kottbusser Tor,u-bahn,"A II,D,B II,B I","52.499166666667,13.418055555556",Q819768
635,1961635,Kraftwerk Klingenberg,strassenbahn,13,"52.4881374,13.4958685",Q66079524
636,1961636,Kraftwerk Klingenberg,strassenbahn,82,"52.4881374,13.4958685",Q66079524
637,1961637,Krampnitzer Weg,bus,A35,"52.45227343259078, 13.13842230425098",
638,1961638,Krankenhaus Havelh he,bus,A35,"52.462919334280684, 13.15899083159388",
639,1961639,Krankenhaus Havelhöhe,bus,A34,"52.462919334280684, 13.15899083159388",
640,1961640,Krankenhaus Heckeshorn,bus,A51,"52.43498872792054, 13.161716693825408",
641,1961641,Krankenhaus Hohengatow,bus,"A34,A35","52.470449875602235, 13.169391604448148",
642,1961642,Krankenhaus Köpenick,strassenbahn,95,"52.43861200573594, 13.592411258792163",
643,1961643,Krankenhaus Moabit,bus,A70,"52.52631363859675, 13.347762408358612",
644,1961644,Krankenhaus Tegel-Süd,bus,A13,"52.57573397877684, 13.278749331662",
645,1961645,Krankenhaus Wannsee,bus,A51,"52.43102764694952, 13.164964517227903",
646,1961646,Krankenhause Neukölln,strassenbahn,47,"52.43977054074335, 13.459359057866306",
647,1961647,Kreuzbergstrasse,bus,A28,"52.48940663862394, 13.376689964763667",
648,1961648,Kronprinzessinen Weg,bus,A18,"52.41994047416807, 13.17530094854083",
649,1961649,Krumme Lanke,u-bahn,"A II,B II","52.443333333333,13.241388888889",Q663945
650,1961650,Kurfürstendamm ; Kurfürstendamm Ecke Konstanzer Strasse,bus,"A60,AS2,AS3,A10,A21 ; A74,A1","52.498023305214666, 13.296217571157966 ; 52.500599097108285, 13.31304940813286",
651,1961651,Kurfürstenstr.,u-bahn,"B II,B I","52.5,13.361944444444",Q690203
652,1961652,Kurfürstenstrasse,bus,A33,"52.445643034300396, 13.36805209564975",
653,1961653,Kurfürstenstrasse,u-bahn,A II,"52.5,13.361944",Q690203
654,1961654,Kurische Strasse,bus,A9,"52.53541468899389, 13.439085794623837",
655,1961655,Kurt-Fischer-Platz,bus,A7,"52.57973292845757, 13.398330728468228",
656,1961656,Kurt-Fischer-Platz,strassenbahn,"46,22","52.578668,13.3983016",Q65032974
657,1961657,Kurt-Schumacher-Damme,bus,A65,"52.53691363313431, 13.29370181789795",
658,1961658,Kurt-Schumacher-Platz,bus,A21,"52.563438249109005, 13.32713028618972",
659,1961659,Kurt-Schumacher-Platz,u-bahn,C I,"52.563555555556,13.326572222222",Q555916
660,1961660,Köllnische Heide,s-bahn,KBS 100a,"52.4694,13.4675",Q800505
661,1961661,Köllnischer Platz,strassenbahn,"84,86","52.4447189,13.5686225",Q66363379
662,1961662,Königin-Elisabeth-Strasse,bus,"A65,A74","52.5100262651791, 13.281782266209204",
663,1961663,Königin-Elisabeth-Strasse,strassenbahn,"60,53,54","52.51841661774004, 13.280185271122395",
664,1961664,Königin-Luise-Strasse,bus,AS3 ; A10,"52.46046250414625, 13.274837141314253 ;  52.45831794711095, 13.287027476333241",
665,1961665,Königs Wusterhausen,s-bahn,KBS 103,"52.2966,13.6311",Q178002
666,1961666,Königstor,bus,"O40,A57,A9","52.52520269485428, 13.419834994127731",
667,1961667,Königstor,strassenbahn,"74E,74","52.52821600265539, 13.423869016265495",
668,1961668,Königstrasse,bus,A6,"52.41987226002477, 13.175332944592043",
669,1961669,Königstrasse/Kronprinzessinnenweg,bus,A51,"52.41989533124603, 13.17532169204708",
670,1961670,Köpenick,s-bahn,KBS 102,"52.4586,13.5808",Q800479
671,1961671,"Köpenick, Krankenhaus",bus,A27,"52.43861200573594, 13.592411258792163",
672,1961672,Köpenicker Landstrasse Ecke Baumschulenstrasse,strassenbahn,87,"52.46913201072182, 13.491340045687773",
673,1961673,Köpenicker Strasse,bus,A52,"52.417188859212956, 13.493835883883817",
674,1961674,Köpenicker Strasse,strassenbahn,"47,84","52.420483475304536, 13.538745338445915",
675,1961675,Körtingstrasse,bus,A77,"52.43481849058747, 13.378266822562516
",
676,1961676,Körtingstrasse Ecke Großbeerenstrasse,strassenbahn,15,"52.434802727145076, 13.378295684287906",
677,1961677,Küstriner Platz,bus,"O30,O40","52.51324778107561, 13.439333192026231
",
678,1961678,LPG Falkenberg,bus,A46,"52.57043275562403, 13.536024836217607",
679,1961679,Landgericht,bus,"A65,A72","52.52698925988807, 13.297167647658592",
680,1961680,Landsberger Chaussee Ecke Weißenseer Weg,strassenbahn,3,"52.532258,13.476705",Q65942700
681,1961681,Lange Strasse,bus,A11,"52.42401188883506, 13.333131159875414",
682,1961682,Langhans Strasse Ecke Gustav-Adolf-Strasse,bus,A45,"52.55362785776103, 13.434716400018274",
683,1961683,Langhansstrasse Ecke Gustav-Adolf-Strasse,bus,A55,"52.55363454206649, 13.43469073771919",
684,1961684,Lankwitz,s-bahn,KBS 106,"52.4386,13.3417",Q800481
685,1961685,"Lankwitz, Kirche",bus,"A32,A2","52.43629186979271, 13.345745387354132",
686,1961686,"Lankwitz, Kirche",strassenbahn,96,"52.43629411008752, 13.34577793920493",
687,1961687,Lauenburger Platz,bus,A75,"52.461985842386426, 13.33927388252173",
688,1961688,Lauterplatz,strassenbahn,"73,74","52.475528954378376, 13.340160154844037",
689,1961689,Lehnitz,s-bahn,KBS 104,"52.7411,13.2635",Q4258498
690,1961690,Lehrter Stadtbahnhof,s-bahn,"KBS 101,KBS 102","52.5253,13.3694",Q821299
691,1961691,Leibnizstrasse Ecke Kurfürstendamm,bus,A69,"52.500647891248605, 13.313040549353639",
692,1961692,Leibnizstrasse Ecke Otto-Suhr-Allee,bus,A62,"52.51466735877481, 13.31516095265439",
693,1961693,Leinestr.,u-bahn,D,"52.472777777778,13.428333333333",Q668563
694,1961694,Leipziger Strasse Ecke Wilhelmstrasse,strassenbahn,74,"52.51000007018473, 13.384208357671987",
695,1961695,Leninallee,s-bahn,"KBS 103a,KBS 106","52.5295,13.4548",Q800507
696,1961696,Leninallee,strassenbahn,"13,4","52.5259343,13.4462368",Q65553230
697,1961697,Leninplatz,bus,O40,"52.523238998562235, 13.433594583798834",
698,1961698,Leninplatz,strassenbahn,"64,63,1","52.5232658,13.4326457",Q65553105
699,1961699,LeonorenStrasse,bus,"A32,A17","52.444386837647556, 13.338876103590831",
700,1961700,Leonorenstrasse Ecke Siemensstrasse,bus,A2,"52.44438057977062, 13.338875271971135",
701,1961701,Leopoldplatz,bus,A64,"52.54647397037027, 13.359233475022176",
702,1961702,Leopoldplatz,u-bahn,C I,"52.5465,13.3591",Q1960809
703,1961703,Lepsiusstrasse,bus,A68,"52.45883023513571, 13.315599065479873",
704,1961704,Lerbacher Weg Ecke Gallwitzallee,bus,A2,"52.425706884201745, 13.347621555992067",
705,1961705,Lerchenstrasse,bus,S-Bhf. Rahnsdorf <> Woltersdorfer Schleuse (VEB Woltersdorf),"52.45518873071384, 13.734268401558374",
706,1961706,"Letteplatz, Strassenbahnhof",bus,A71,"52.56410522486749, 13.371107480641978",
707,1961707,Leuthingerweg,bus,A63,"52.54180680726089, 13.163727103711182",
708,1961708,Lichtenberg,s-bahn,KBS 101,"52.5106,13.4964",Q634247
709,1961709,Lichtenberger Strasse Ecke Berliner Allee,strassenbahn,"72,74E,70,74","52.552032612200605, 13.465689924366766",
710,1961710,Lichtenrade,s-bahn,KBS 105,"52.3876,13.3963",Q6543354
711,1961711,"Lichtenrade, Blohmstrasse Ecke Wünsdorfer Strasse",bus,AS2,"52.38867704828861, 13.394344156462488",
712,1961712,"Lichtenrade, Goethestrasse",bus,AS2,"52.40437993547595, 13.406198387437845",
713,1961713,Lichtenrader Damm,bus,A52,"52.41457407591286, 13.401100479114065",
714,1961714,Lichterfelde Ost,s-bahn,KBS 106,"52.43,13.3289",Q111311299
715,1961715,Lichterfelde Süd,s-bahn,KBS 106,"52.41,13.3086",Q800482
716,1961716,Lichterfelde West,s-bahn,KBS 104,"52.4433,13.2947",Q111327103
717,1961717,Lindauer Strasse,bus,"A71,A12","52.573378512244474, 13.359026284637647",
718,1961718,Lindauer Strasse Ecke Residenzstrasse,bus,A72,"52.57332805900587, 13.35899004155058",
719,1961719,Lindenberg,bus,AL,"52.602597712625055, 13.5250306401055",
720,1961720,Lindenstrasse,bus,A1,"52.41754704184675, 13.306637505969373",
721,1961721,Lindenstrasse,strassenbahn,96,"52.50703628824205, 13.398245194666595",
722,1961722,Bahnhofstrasse Ecke Lindenstrasse,strassenbahn,"83,95,84,86","52.4505094,13.572684",Q66095701
723,1961723,Lindenthaler Allee,s-bahn,KBS 104,"52.4375,13.2325",Q315891
724,1961724,Lindenweg,bus,"A12,A14","52.58320838924275, 13.343677581838621",
725,1961725,Loewenhardtdamm,bus,A28,"52.48165790097863, 13.374453287679744",
726,1961726,Louise-Schroeder-Platz,bus,A16,"52.55713317342601, 13.365513694540711",
727,1961727,Ludwigkirchstrasse/Pariser Strasse,bus,A60,"52.497535465268555, 13.324328066962357",
728,1961728,Luise-Schröder-Platz,bus,A72,"52.55757019957571, 13.365470778195588",
729,1961729,Luisenplatz,bus,"A65,A21,A62,AS1","52.52005408723936, 13.2995133852506",
730,1961730,Luisenplatz,strassenbahn,"53,3,54,55","52.51951940474329, 13.300024347605849",
731,1961731,Lupsteiner Weg,bus,A10,"52.40950895120702, 13.251647735398342",
732,1961732,Lutherplatz,bus,"S-Bhf. Grünau <> Potsdam, Bassinplatz (VEB Potsdam-Babelsberg)","52.39011694014624, 13.089836574530883",
733,1961733,Lutherstrasse,bus,A29,"52.50104544166847, 13.34692193817342",
734,1961734,Luxemburgplatz,u-bahn,A,"52.528333333333,13.410277777778",Q658790
735,1961735,Luzerner Strasse,bus,A53,"52.42399460780493, 13.293333572320618",
736,1961736,Lynastrasse,bus,AS1,"52.54898935768741, 13.210225795636823",
737,1961737,Lynastrasse Ecke Neuendorfer Strasse,strassenbahn,"53,54","52.54898037206874, 13.210198880046686",
738,1961738,"Lübars, Dorfaue",bus,A20,"52.62095733281459, 13.358934481999336",
739,1961739,Lübarser Strasse,bus,A15,"52.602792196244636, 13.335729351721078",
740,1961740,Lützowplatz,bus,"A69,A16,A24","52.505029017314186, 13.351822867208506",
741,1961741,Lützowstrasse,bus,A29 ; A48,"52.50531004879477, 13.35374234810531 ; 52.5030789103706, 13.36561126569968",
742,1961742,Lützowstrasse,strassenbahn,"73,74","52.503071437757164, 13.365720679612895",
743,1961743,Machandelweg,bus,"A5,A31","52.52483519555124, 13.24567177943413",
744,1961744,Machnower Strasse Ecke Berlepschstrasse,bus,A66,"52.42978244172841, 13.257044671164005",
745,1961745,Magdalenenstr.,u-bahn,E,"52.5125,13.486388888889",Q473901
746,1961746,Magistratsweg,bus,A31,"52.5331201414446, 13.158067208455051",
747,1961747,Mahlow,s-bahn,KBS 105,"52.3602,13.4085",Q2641431
748,1961748,Mahlsdorf,s-bahn,KBS 101,"52.5121,13.6106",Q800484
749,1961749,Mahlsdorf-Süd,strassenbahn,83,"52.4741663,13.5991443",Q66368466
750,1961750,"Mahlsdorf-Süd, Hubertus",strassenbahn,"86,82","52.4741663,13.5991443",Q66368466
751,1961751,"Malchow, Dorfstrasse",bus,"AL,A46","52.580462270708544, 13.482797576255583",
752,1961752,Malchower Weg,bus,A46,"52.56152031238405, 13.500485897507804",
753,1961753,Marburger Strasse,bus,A62,"52.50371964602222, 13.337728344178407",
754,1961754,Marchandstrasse,bus,A32,"52.423049326436605, 13.357354547531147",
755,1961755,Marchlewskistr.,u-bahn,E,"52.516794444444,13.444991666667",Q551768
756,1961756,Margaretenstrasse,bus,A48,"52.50894074108115, 13.36866960388795",
757,1961757,Mariannenplatz,bus,A28,"52.50228674193422, 13.42408622658593",
758,1961758,Mariendorf,s-bahn,KBS 105,"52.4478,13.3609",Q800497
759,1961759,Mariendorfer Damm,bus,"A77,AS2","52.445604468950826, 13.385816551199863",
760,1961760,Mariendorfer Damm,strassenbahn,15,"52.44016299080784, 13.387234623097394",
761,1961761,Mariendorfer Friedhof,strassenbahn,15,"52.44953069256824, 13.404755931664896",
762,1961762,Mariendorfer Weg Ecke Hermannstrasse,strassenbahn,27,"52.46469083550148, 13.432907024217851",
763,1961763,Marienfelde,s-bahn,KBS 105,"52.4242,13.3747",Q800485
764,1961764,Marienfelder Allee,bus,A32,"52.413790430379194, 13.362098895780415",
765,1961765,Marienfelder Strasse,bus,A32,"52.43338754214616, 13.353023554563793",
766,1961766,Marienfelder Strasse Ecke Lichtenrader Damm,bus,A76,"52.392477747609426, 13.40668482049751",
767,1961767,Marienstrasse,bus,A11,"52.42960010456386, 13.321303543636025",
768,1961768,Markgrafendamm,bus,A82P,"52.49919969372071, 13.465742293248686",
769,1961769,Markgrafenstrasse Ecke Mariendorfer Damm,bus,A77,"52.445553184518396, 13.385808538094254",
770,1961770,Marktplatz Adlershof,strassenbahn,84,"52.43822, 13.548937",Q66363717
771,1961771,Martin-Luther-Friedhof,bus,A20,"52.598400543805816, 13.298350500981082",
772,1961772,Martin-Luther-Strasse Ecke Grunewaldstrasse,bus,A74,"52.4891017368616, 13.34492200742072",
773,1961773,Grunewaldstrasse Ecke Martin-Luther-Strasse,strassenbahn,3,"52.489114608736564, 13.344981706170403",
774,1961774,Marx-Engels-Platz,bus,"A57,A9","52.51617617310524, 13.400937413635054",
775,1961775,Marx-Engels-Platz,s-bahn,"KBS 101,KBS 103,KBS 102","52.5226,13.4022",Q689312
776,1961776,"Marzahn, Berliner Chaussee",bus,A43,"52.54469782123951, 13.564560329042491",
777,1961777,Marzahner Chaussee,bus,O37,"52.53978688562053, 13.53943029431785",
778,1961778,Masurenallee,bus,A65,"52.50642938866968, 13.280405207863838",
779,1961779,Mattenbuder Pfad,bus,A14,"52.61696067657215, 13.220550425237422",
780,1961780,Mehringdamm,bus,"A19,A28","52.49293917608851, 13.38772030059097",
781,1961781,Mehringdamm,u-bahn,"C II,C I","52.493888888889,13.388333333333",Q657905
782,1961782,Mehringdamm Ecke Yorck Strasse,strassenbahn,3,"52.492954886841254, 13.387694356760754",
783,1961783,Mehringplatz,strassenbahn,"95,96","52.4979249057416, 13.39108106831653",
784,1961784,Messedamm,bus,A4,"52.50446814877144, 13.279412101845791",
785,1961785,Messedamm,strassenbahn,"75,76","52.50641938570246, 13.280392436943686",
786,1961786,Mimosenweg,bus,A52,"52.42675928719203, 13.506179808906213",
787,1961787,Mittelstrasse,bus,A18,"52.43475141442549, 13.249262104251452",
788,1961788,Mohriner Allee Ecke Buckower Damm,strassenbahn,27,"52.444210434540814, 13.433541378183778",
789,1961789,Molkenmarkt,strassenbahn,"72,74E,74","52.51679321421663, 13.409330619020574",
790,1961790,Moltkestrasse,strassenbahn,"73,74","52.440407040891834, 13.316309800686549",
791,1961791,Morgensternstrasse Ecke Wilhelmstrasse,bus,"A11,A17","52.42808959398118, 13.325491157001045",
792,1961792,Moritzplatz,bus,A67,"52.50387355112676, 13.409983330065609",
793,1961793,Moritzplatz,u-bahn,D,"52.503611111111,13.410833333333",Q374225
794,1961794,Motzstrasse,bus,A73,"52.49717707606062, 13.346075923573181",
795,1961795,Munsterdamm Ecke Grazer Damm,bus,A68,"52.45901976387901, 13.34874691531987",
796,1961796,Munsterdamm Ecke Steglitzer Damm,bus,A75,"52.45003044948948, 13.346702868396282",
797,1961797,Märkisches Museum,u-bahn,A,"52.511944444444,13.408888888889",Q657871
798,1961798,Möckernbrücke,u-bahn,"A II,B II,B I","52.499166666667,13.382777777778",Q704716
799,1961799,Müggelheim,bus,A27,"52.41018331064196, 13.665897531850348",
800,1961800,Müggelseeperle,bus,A27,"52.42170168937569, 13.640893083169368",
801,1961801,Mühlenstrasse,bus,A20,"52.59350028783369, 13.248862690560857",
802,1961802,Nachtigalplatz,bus,A64,"52.55708816298035, 13.333841766869467",
803,1961803,Nassauische Strasse,bus,A50,"52.4911618772095, 13.326528822264246",
804,1961804,Nauener Platz,bus,A72,"52.551552618214714, 13.36737072883247",
805,1961805,Nauener Strasse,bus,A31,"52.5340443007014, 13.18167584141312",
806,1961806,Nauener Strasse,strassenbahn,55,"52.5384290651878, 13.182388284496431",
807,1961807,Nettelbeckstrasse,bus,A69,"52.501073025698915, 13.346723829543516",
808,1961808,Neu-Lindenberg,bus,AL,"52.600885625411856, 13.554794085696633",
809,1961809,Neu-Westend,u-bahn,B I,"52.515555555556,13.261111111111",Q656431
810,1961810,Neuenhagen (b Bln),s-bahn,KBS 101,"52.5208,13.7003",Q7001614
811,1961811,Neukölln,s-bahn,"KBS 100a,KBS 100","52.469166666667,13.441666666667",Q111325412
812,1961812,Neukölln (Südring),u-bahn,C I,"52.469444,13.442222",Q21272767
813,1961813,Neuköllnische Allee,bus,A67,"52.468152065072715, 13.460620591028498",
814,1961814,"Niederschönhausen, Schillerstrasse",strassenbahn,46,"52.5923051,13.41088",Q65032581
815,1961815,Nikolassee,s-bahn,"KBS 104,KBS 102","52.4317,13.1933",Q637052
816,1961816,Nikolskoer Weg,bus,A6,"52.41405938531216, 13.109270752484141",
817,1961817,Nollendorfplatz,bus,A19,"52.49968843634292, 13.353086438468269",
818,1961818,Nollendorfplatz,strassenbahn,55,"52.49974136660471, 13.352878927585127",
819,1961819,Nollendorfplatz,u-bahn,"A I,B I,A II,B II,B III","52.499166666667,13.353888888889",Q571039
820,1961820,"Nonnendammallee, Siemensstadt",bus,A72,"52.537063326963775, 13.262285169635492",
821,1961821,Nordend,bus,A7,"52.59006569360479, 13.401740566033476",
822,1961822,Nordend,strassenbahn,46,"52.5902104,13.4027524",Q65032696
823,1961823,Nordendstrasse,strassenbahn,22,"52.588534,13.3882952",Q65428345
824,1961824,Nöldnerplatz,s-bahn,KBS 101,"52.5038,13.4853",Q4892447
825,1961825,Nürnberger Strasse Ecke Kurfürstenstrasse,bus,A69,"52.50513952189661, 13.34119156469812",
826,1961826,Oberhofer Platz,bus,A17,"52.42410259117963, 13.328170432694991",
827,1961827,Oberspree,s-bahn,KBS 103a,"52.4525,13.5382",Q15192700
828,1961828,"Oberspree, Bruno-Bürgel-Weg",strassenbahn,92,"52.452777014581045, 13.537124836409932",
829,1961829,Eberswalderstrasse Ecke Oderberger Strasse,strassenbahn,13,"52.54061076763243, 13.404559930731686",
830,1961830,Olivaer Platz,bus,"A19,A29","52.50060275704949, 13.313110622018645",
831,1961831,Olympia-Stadion,u-bahn,B I,"52.517222222222,13.25",Q656441
832,1961832,Olympiastadion,s-bahn,KBS 101,"52.511,13.2416",Q800506
833,1961833,Onkel Toms Hütte,u-bahn,"A II,B II","52.450277777778,13.253333333333",Q389214
834,1961834,Onkel-Herse-Strasse,strassenbahn,47,"52.44827036160263, 13.453893782713148",
835,1961835,Oranienburg,s-bahn,KBS 104,"52.7536,13.2496",Q2341669
836,1961836,Oranienburger Strasse,bus,A21,"52.59544415987805, 13.333037366087483",
837,1961837,Oranienburger Tor,bus,"O40,A9","52.52716314203455, 13.38710905184874",
838,1961838,Oranienburger Tor,strassenbahn,"46,70,11,1","52.5256031,13.3872745",Q65095375
839,1961839,Oraniendamm,bus,A20,"52.607835611203505, 13.323834478403686",
840,1961840,Oranienplatz,bus,A67,"52.50232370505019, 13.415510129463975",
841,1961841,Oranienstrasse,bus,"A28,A75","52.501310708954215, 13.419224612073883",
842,1961842,Ortsgrenze Gatow,bus,"A34,A35","52.4981601705565, 13.180014416479423",
843,1961843,Oskar-Helene-Heim,u-bahn,"A II,B II","52.450277777778,13.269722222222",Q681336
844,1961844,Osloer Strasse,bus,"A70,A71 ; A61","52.55587669510938, 13.38424421097371 ; 52.55671381712504, 13.373732523202998",
845,1961845,OsnaBrücker Strasse,strassenbahn,55,"52.52655659018374, 13.297414453709727",
846,1961846,Ossietzkyplatz,strassenbahn,46,"52.58100580136794, 13.404014807678767",
847,1961847,Ostbahnhof,bus,"Flughafen Schönefeld <> Strausberger Platz,O40","52.50976670730252, 13.43372198235041",
848,1961848,Ostbahnhof,s-bahn,"KBS 101,KBS 103,KBS 102","52.51,13.4347",Q111325075
849,1961849,Ostbahnhof,strassenbahn,"82,1","52.509107635417394, 13.43550619008533",
850,1961850,Osteweg,bus,A53,"52.42102198114528, 13.281135801011326",
851,1961851,Ostkreuz,s-bahn,"KBS 103a,KBS 106,KBS 101,KBS 103,KBS 102","52.5031,13.4689",Q111251530
852,1961852,Ostpreußendamm Ecke Morgenstern Strasse,strassenbahn,96,"52.42585546925107, 13.316822725126194",
853,1961853,Otto-Suhr-Allee,bus,A1,"52.51469791251031, 13.315136925389936",
854,1961854,Pücklerstrasse,bus,AS3,"52.468566643885005, 13.27835662512682",
855,1961855,Pacelli-/Thielallee,bus,A1,"52.45819383818934, 13.287096949272522",
856,1961856,Pankow,s-bahn,KBS 106,"52.5667,13.4111",Q111273850
857,1961857,Pankow (Vinetastr.),u-bahn,A,"52.559166666667,13.413333333333",Q570906
858,1961858,"Pankow, Kirche",bus,"A55,A45","52.57124680898358, 13.410670715665145",
859,1961859,"Pankow, Kirche",strassenbahn,"49,22","52.5706452,13.4103115",Q65055066
860,1961860,"Pankow, Rathaus",bus,"A55,A45,A7","52.56953908840178, 13.404186437171612",
861,1961861,"Pankow, Rathaus",strassenbahn,46,"52.5694816,13.4038045",Q65055060
862,1961862,Pankow-Heinersdorf,s-bahn,KBS 106,"52.5780653,13.4295093",Q4892366
863,1961863,Pankower Allee,bus,A14,"52.564667911185886, 13.378087639243981",
864,1961864,Pankower Allee Ecke Residenzstrasse,bus,A72,"52.56383591570264, 13.364287664704229",
865,1961865,Pankstrasse,bus,"A61,A14","52.55229407958284, 13.38145934777098",
866,1961866,Papestr.,s-bahn,"KBS 100,KBS 100a,KBS 105,KBS 106","52.4756,13.3644",Q111323139
867,1961867,Paradestr.,u-bahn,C II,"52.478055555556,13.386111111111",Q557543
868,1961868,Paradestrasse,bus,A77,"52.478185540036016, 13.385794074394854",
869,1961869,Parchimer Allee,strassenbahn,47,"52.44544295914785, 13.455088787662136",
870,1961870,Pariser Strasse Ecke Bundesallee,bus,A25,"52.496055111394334, 13.33060372058005",
871,1961871,"Parkfriedhof Neukölln, Buckower Damm",strassenbahn,27,"52.428374721547385, 13.435001496921483",
872,1961872,Parkstrasse,strassenbahn,"95,82,87","52.45876522318908, 13.53993545855609",
873,1961873,Paulsternstrasse,bus,"A10,A13","52.54415774195884, 13.247126131065503",
874,1961874,Paulsternstrasse,strassenbahn,55,"52.538114851173546, 13.248435943349298",
875,1961875,Pfaueninsel-Chaussee,bus,"A6,A18","52.41883762088876, 13.153039190703318",
876,1961876,Pfaueninsel-Chaussee Ecke Königstrasse,bus,A3,"52.41888024334639, 13.152988428835997",
877,1961877,Pichelsberg,s-bahn,KBS 101,"52.5103,13.2271",Q800488
878,1961878,Pichelsdorfer Strasse,strassenbahn,"75,76","52.51307046642958, 13.196871153391022",
879,1961879,Klosterstraße Ecke Seeburger Straße,bus,A13,"52.529157516749336, 13.19558509974695",
880,1961880,Pistoriusstrasse Ecke Klement-Gottwald-Allee,bus,A45,"52.55009435565474, 13.45900710843341",
881,1961881,Platz der Luftbrücke,bus,"A77,A76","52.48500811314645, 13.385984513056924",
882,1961882,Platz vor dem Neuen Tor,bus,A9,"52.52921245715711, 13.378513556812177",
883,1961883,Plänterwald,s-bahn,"KBS 103,KBS 103a","52.4786,13.4733",Q7205917
884,1961884,Plänterwald,s-bahn,KBS 106,"52.4786,13.4733",Q7205917
885,1961885,Podbielskiallee,u-bahn,"A II,B II","52.464444444444,13.296388888889",Q571324
886,1961886,Post,bus,"S-Bhf. Friedrichshagen <> Rüdersdorf, Karl-Marx-Platz (VEB Schöneiche-Rüdersdorf)","52.47029587176764, 13.786537970773646",
887,1961887,Postamt,bus,A60,"52.48905066177084, 13.322770368720937",
888,1961888,Potsdam,s-bahn,KBS 102,"52.3917,13.0667",Q647973
889,1961889,"Potsdam, Bassinplatz",bus,"S-Bhf. Grünau <> Potsdam, Bassinplatz (VEB Potsdam-Babelsberg)","52.40184658729142, 13.05866306072075",
890,1961890,Potsdamer Platz,strassenbahn,"73,74","52.50948236131137, 13.375988156399634",
891,1961891,Potsdamer Strasse ; Potsdamer Strasse Ecke Clayallee ; Potsdamer Strasse Ecke Fischerhüttenstrasse ; Potsdamer Strasse Ecke Bülowstrasse,bus,"A29,A24 ; A1,A18 ; A53 ; A19","52.50310985391171, 13.365680511254423 ; 52.43504800046437, 13.260425575475969 ; 52.43581242860363, 13.256098874509126 ; 52.497900834061184, 13.362004472211375  ",
892,1961892,Potsdamer Strasse Ecke Fischerhüttenstrasse,bus,A48,"52.4357751453625, 13.256027995378796",
893,1961893,Potsdamer Strasse Ecke Pallasstrasse,strassenbahn,3,"52.49437098285493, 13.361060066548905",
894,1961894,Prager Platz,bus,A50,"52.49294694854429, 13.332964219632272",
895,1961895,Prenzlauer Allee,s-bahn,KBS 106,"52.544775,13.426116",Q32661483
896,1961896,Prenzlauer Allee,strassenbahn,"13,4","52.5396522,13.4244789",Q65222180
897,1961897,Prenzlauer Allee Ecke Wisbyer Strasse,strassenbahn,71,"52.551183836372815, 13.43013561837268",
898,1961898,Prenzlauer Promenade (Spitze),bus,A56,"52.5516751737526, 13.430326005865055",
899,1961899,Prenzlauer Promenade,strassenbahn,"72,3,70","52.55155536618067, 13.43032253030515",
900,1961900,Prenzlauer Promenade (Spitze),bus,A42,"52.55169017006126, 13.430288457592285",
901,1961901,Prenzlauer Promenade Ecke Granitzstrasse,bus,A55,"52.572092016203484, 13.42875772052513",
902,1961902,Prenzlauer Promenade Ecke Kissingenstrasse,bus,A45,"52.56795804833996, 13.427734373319213",
903,1961903,Prenzlauer Tor,bus,O40,"52.52709114016772, 13.415809370320808",
904,1961904,Prenzlauer Tor,strassenbahn,71,"52.52709114016772, 13.415809370320808",
905,1961905,Priesterweg,s-bahn,"KBS 105,KBS 106","52.4601,13.3563",Q800508
906,1961906,Prinzenallee Ecke Badstrasse,bus,A64,"52.552305008833024, 13.381468211411605",
907,1961907,Prinzenallee/Soldiner Strasse,bus,A71,"52.55871759464676, 13.386248511741826",
908,1961908,Prinzenstr.,u-bahn,"B II,B I","52.498333333333,13.406111111111",Q689797
909,1961909,Prinzenstrasse,u-bahn,A II,"52.498333333333,13.406111111111",Q689797
910,1961910,Proskauer Ecke Dolziger Strasse,bus,O30,"52.519874079766325, 13.463289228834057",
911,1961911,Provinzstrasse/Pankower Allee,bus,A71,"52.56468777207285, 13.378063096396454",
912,1961912,Putlitzstr.,s-bahn,KBS 100,"52.536,13.344",Q465972
913,1961913,Päwesiner Weg Ecke Seeburgerstrasse,bus,A13,"52.526347644869524, 13.181851254649866",
914,1961914,Quantzstrasse,bus,A18,"52.423135671729796, 13.202253537880683",
915,1961915,Quellweg,strassenbahn,55,"52.53666578461771, 13.268432707290442",
916,1961916,Quellweg Ecke Nonnendamm Allee,bus,A72,"52.53669973748767, 13.268424095389383",
917,1961917,Radelandstrasse,bus,A63,"52.55650975276803, 13.188691756681173",
918,1961918,Rahnsdorf,s-bahn,KBS 102,"52.4516372,13.6899776",Q800489
919,1961919,Rahnsdorf,strassenbahn,87,"52.443531694444445,13.685038",Q66361311
920,1961920,Ramlerstrasse,bus,A71,"52.547125761071456, 13.389174502621508",
921,1961921,Ramlerstrasse Ecke Brunnenstrasse,bus,A64,"52.54710869917004, 13.38914653586651",
922,1961922,Rangsdorf,s-bahn,KBS 105,"52.294444,13.430278",Q801345
923,1961923,"Rankeplatz, Bundeshaus",bus,AS2,"52.4977881279831, 13.330731790169496",
924,1961924,Rankeplatz/Bundeshaus,bus,AS3,"52.497826190133736, 13.330710978777121",
925,1961925,Rennbahn,bus,A76,"52.431519887104706, 13.391508229384012",
926,1961926,Rathaus Lichtenberg,strassenbahn,3,"52.5156658,13.4788562",Q65948511
927,1961927,Rathaus Mahlsdorf,strassenbahn,83,"52.498612959213915, 13.613308788396854",
928,1961928,Rathaus Mariendorf,bus,A33,"52.44527453682428, 13.379492384246559",
929,1961929,Rathaus Neukölln,strassenbahn,"47,26","52.48159489526684, 13.434274903483136",
930,1961930,Rathaus Neukölln,u-bahn,C I,"52.481666666667,13.434166666667",Q628770
931,1961931,Rathaus Sch neberg,bus,A16,"52.48515473887597, 13.345086596743203",
932,1961932,Rathaus Schöneberg,bus,"A4,A73,A74","52.48515473887597, 13.345086596743203",
933,1961933,Rathaus Schöneberg,strassenbahn,"60,2","52.48509787554474, 13.345072009289709",
934,1961934,Rathaus Schöneberg,u-bahn,B III,"52.483116666667,13.341930555556",Q570926
935,1961935,Rathaus Spandau,bus,"A35,A5,AS1,A34,A13,A31,A63","52.534578361518356, 13.199490942441287",
936,1961936,Rathaus Spandau,strassenbahn,"55,75,76","52.53488081670858, 13.199058849732252",
937,1961937,Rathaus Steglitz,bus,"A32,A48,A17,A68","52.45563377647203, 13.321050784344678",
938,1961938,Rathaus Steglitz,strassenbahn,"73,77,78,74","52.45691682931275, 13.320745348424166",
939,1961939,Rathaus Tempelhof,bus,A77,"52.46300094221747, 13.385342238118488",
940,1961940,Rathaus Tiergarten,bus,A70,"52.52649085974541, 13.338358982634196",
941,1961941,Rathaus Wannsee,bus,"A3,A6,A18","52.418440129670444, 13.148872492834737",
942,1961942,Rathaus Zehlendorf,bus,"A3,A66,AS3","52.433207520111885, 13.259531923613192",
943,1961943,Rathenauplatz,bus,A65,"52.49561134930413, 13.286573746568635",
944,1961944,Rathenower Strasse,bus,A70 ; A24,"52.52677998083022, 13.355183467556872 ; 52.52673250798154, 13.355275614926985",
945,1961945,Rathenower Strasse Ecke Perleberger Strasse,bus,A72,"52.53252487206442, 13.350617083748922",
946,1961946,Rathenower Strasse Ecke Perleberger Strasse,strassenbahn,2,"52.53249876618244, 13.35053125306095",
947,1961947,Rehberge,u-bahn,C I,"52.5567,13.3412",Q253850
948,1961948,Reichenberger Strasse,strassenbahn,26,"52.495535248263636, 13.430362951622532",
949,1961949,Reichskanzlerplatz,bus,A4,"52.50929184084697, 13.27265693784035",
950,1961950,Reichskanzlerplatz,strassenbahn,"75,76","52.5089140766086, 13.272251406623242",
951,1961951,Reichskanzlerplatz,u-bahn,"A I,B I","52.509722222222,13.273055555556",Q657857
952,1961952,Reichssportfeldstrasse,strassenbahn,"75,76","52.507514731015824, 13.242086696344282",
953,1961953,Reifenwerk,bus,Schmöckwitz<>Ziegenhals (VEB Kraftverkehr Schöneiche-Rüdersdorf),"52.37807918338377, 13.64006281458021",
954,1961954,Reinickendorf,s-bahn,KBS 105,"52.5779,13.3506",Q800496
955,1961955,Reinickendorfer Str.,u-bahn,C I,"52.539911111111,13.370377777778",Q559249
956,1961956,Reinickendorfer Strasse Ecke Schulstrasse,bus,A64,"52.55154134842798, 13.367385622374945",
957,1961957,Rembrandtstrasse,strassenbahn,66,"52.47116466720471, 13.343688369656276",
958,1961958,Rennbahnstrasse Ecke Gustav-Adolf-Strasse,bus,A56,"52.56218648050474, 13.454267038723398",
959,1961959,Reuchlinstrasse,bus,A70,"52.5278079827492, 13.324842775070394",
960,1961960,Reuterstrasse,bus,A67,"52.48654240757135, 13.428977740572138",
961,1961961,Richard-Wagner-Platz,bus,A62,"52.517490990443804, 13.306397097578404",
962,1961962,Richard-Wagner-Platz,strassenbahn,"53,55,54","52.517570616857, 13.306248118529135",
963,1961963,Richard-Wagner-Platz,u-bahn,A III,"52.5175,13.306388888889",Q662201
964,1961964,Richardstrasse,strassenbahn,15,"52.47097391592754, 13.446301038467002",
965,1961965,Richtershorn,strassenbahn,86,"52.40105,13.6248473",Q66481215
966,1961966,Ridbacher Strasse,bus,A49,"52.527457204488485, 13.606447755554132",
967,1961967,Ringstrasse,bus,A11,"52.439772810020266, 13.300175076283422",
968,1961968,Rittberg-Krankenhaus,strassenbahn,"77,78","52.42987951650218, 13.288961460110901",
969,1961969,Ritterlandweg,bus,A71,"52.56036399935592, 13.36907949823327",
970,1961970,Robert-Koch-Platz,bus,"O40,A57","52.527570508835595, 13.37877230286134",
971,1961971,Roederplatz,bus,O30,"52.52671388514014, 13.479662353432392",
972,1961972,Roederplatz,strassenbahn,3,"52.5266001,13.479068",Q65685373
973,1961973,Rohdestrasse Ecke Germaniastrasse,bus,A73,"52.4620458336563, 13.404444184357315",
974,1961974,Roseneck,bus,"A19,A50,A29,AS3","52.47580089902253, 13.282411270445099",
975,1961975,"Roseneck, Hundekehl",bus,A60,"52.47640250997692, 13.281611267179592",
976,1961976,Rosenecke,bus,A17,"52.47578489322442, 13.282306517997712",
977,1961977,Rosenthaler Platz,bus,O40,"52.5296729549826, 13.401428926082492",
978,1961978,Rosenthaler Platz,strassenbahn,"22,11,1","52.5301769,13.4016121",Q65093945
979,1961979,Rosenthaler Platz,strassenbahn,49,"52.5301769,13.4016121",Q65093945
980,1961980,Rudower Strasse,bus,A52,"52.43428237477314, 13.469124205215895",
981,1961981,Ruhleben,u-bahn,B I,"52.525555555556,13.241388888889",Q656401
982,1961982,Ruhrstrasse,bus,A50,"52.48988277984805, 13.312456459919812",
983,1961983,Rummelsburg,s-bahn,KBS 102,"52.501244,13.478545",Q15107132
984,1961984,Ruppiner Chaussee,bus,A13,"52.59792202028554, 13.275075196373528",
985,1961985,Röntgental,s-bahn,KBS 106,"52.6487,13.5136",Q801386
986,1961986,"Rüdersdorf, Karl-Marx-Platz",bus,"S-Bhf. Friedrichshagen <> Rüdersdorf, Karl-Marx-Platz (VEB Schöneiche-Rüdersdorf)","52.468598623083736, 13.791633300477105",
987,1961987,"Rüdersdorf, Thälmannstrasse",bus,"S-Bhf. Friedrichshagen <> Rüdersdorf, Karl-Marx-Platz (VEB Schöneiche-Rüdersdorf)","52.474663106849825, 13.77362632033625",
988,1961988,Rüdesheimer Platz,u-bahn,"A II,B II","52.473333333333,13.314444444444",Q167147
989,1961989,Rügener Strasse,bus,"A61,A71,A14","52.544791277773946, 13.391067616355128",
990,1961990,S-Bhf. Adlershof,strassenbahn,84,"52.435251,13.5408489",Q66363728
991,1961991,S-Bhf. Alexanderplatz,bus,"O30,A57,A9","52.52074877770386, 13.412147230655155",
992,1961992,S-Bhf. Baumschulenweg,bus,A47,"52.4674967534767, 13.489379882069517",
993,1961993,S-Bhf. Baumschulenweg,strassenbahn,"95,95P","52.467425320387854, 13.489303343986984",
994,1961994,S-Bhf. Biesdorf,bus,O37,"52.513432593832405, 13.555387279249894",
995,1961995,S-Bhf. Friedrichsfelde-Ost,bus,A43,"52.51324537165634, 13.524030584354616",
996,1961996,S-Bhf. Friedrichshagen,bus,"S-Bhf. Friedrichshagen <> Rüdersdorf, Karl-Marx-Platz (VEB Schöneiche-Rüdersdorf)","52.45731046148184, 13.625536519339297",
997,1961997,S-Bhf. Friedrichshagen,strassenbahn,"84,87","52.4564126,13.6253656",Q66360784
998,1961998,S-Bhf. Greifswalder Strasse,strassenbahn,"74E,74","52.5407234,13.4382904",Q65548932
999,1961999,S-Bhf. Grünau,bus,"AD/36,A38,AZ,S-Bhf. Grünau <> Potsdam, Bassinplatz (VEB Potsdam-Babelsberg)","52.41361515857581, 13.573796290663196",
1000,19611000,S-Bhf. Grünau,strassenbahn,86,"52.413493,13.5746802",Q62470512
1001,19611001,S-Bhf. Jannowitzbrücke,strassenbahn,"64,11,82","52.51478599600389, 13.418056238742702",
1002,19611002,S-Bhf. Karlshorst,strassenbahn,69,"52.481331,13.5254433",Q65952829
1003,19611003,"S-Bhf. Kaulsdorf, Planitzstrasse",bus,A27,"52.51113864301491, 13.58755467300039",
1004,19611004,S-Bhf. Köpenick,bus,A27,"52.45882190200453, 13.579564677172508",
1005,19611005,S-Bhf. Köpenick,strassenbahn,"83,86,82","52.4582153,13.5790435",Q66370784
1006,19611006,S-Bhf. Mahlsdorf,bus,"A44,A44E","52.51234908870327, 13.61221793610957",
1007,19611007,S-Bhf. Mahlsdorf,strassenbahn,83,"52.51221826761895, 13.612190748726157",
1008,19611008,S-Bhf. Ostkreuz,strassenbahn,82,"52.50243021718411, 13.469020052690205",
1009,19611009,S-Bhf. Pankow,bus,A55,"52.56742037379333, 13.412250129587665",
1010,19611010,S-Bhf. Pankow,strassenbahn,"46,49,22","52.5675692,13.4121641",Q65055075
1011,19611011,S-Bhf. Pankow-Heinersdorf,strassenbahn,49,"52.577507820515834, 13.427853061920917",
1012,19611012,S-Bhf. Plänterwald,strassenbahn,"92,87","52.479645467025435, 13.47567729609248",
1013,19611013,S-Bhf. Prenzlauer Allee,strassenbahn,"72,71","52.5448075,13.427408",Q65219791
1014,19611014,S-Bhf. Rahnsdorf,bus,"A22,S-Bhf. Rahnsdorf <> Woltersdorfer Schleuse (VEB Woltersdorf)","52.451628368326396, 13.691579101298974",
1015,19611015,S-Bhf. Rummelsburg,bus,O30,"52.50179539105723, 13.478028581044718",
1016,19611016,S-Bhf. Schönhauser Allee,strassenbahn,"46,49,22","52.5493619,13.4135734",Q65088013
1017,19611017,S-Bhf. Spindlersfeld,strassenbahn,84,"52.4457311,13.5624298",Q66363397
1018,19611018,"S-Bhf. Tremptower Park, Elsenstrasse",strassenbahn,92,"52.492615970665746, 13.458843309612345",
1019,19611019,S-Bhf. Treptower Park,bus,A47,"52.49403640886682, 13.460762565516704",
1020,19611020,S-Bhf. Wilhelmshagen,bus,A22,"52.43886122089184, 13.721060252199655",
1021,19611021,Saaleckplatz,bus,A17,"52.41629158246214, 13.323941962356194",
1022,19611022,SaarBrücker Strasse,strassenbahn,"72,71","52.5285309565747, 13.417113687314579",
1023,19611023,Saargemünder Strasse,bus,A18,"52.450918082089416, 13.270922488527036",
1024,19611024,Saargemünder Strasse,bus,A11,"52.450918082089416, 13.270922488527036",
1025,19611025,Saatwinkler Damm,bus,A62,"52.54802938567344, 13.300569461587116",
1026,19611026,Sadowastrasse,bus,"A8,A8E","52.482675472271694, 13.584833068425244",
1027,19611027,Samariterstr.,u-bahn,E,"52.514722222222,13.464444444444",Q552891
1028,19611028,Savignyplatz,s-bahn,"KBS 101,KBS 102","52.5051746,13.3190659",Q554382
1029,19611029,"Schäfersee, Pankower Allee",bus,A71,"52.56403098912502, 13.36417150367161",
1030,19611030,Scharfestrasse,bus,A18,"52.43828828643976, 13.262213345971533",
1031,19611031,Scharnhorststrasse,bus,A57,"52.530048717863, 13.374421833191816",
1032,19611032,Scharnhorststrasse Ecke Kieler Strasse,bus,A9,"52.534358722624745, 13.370310836134667",
1033,19611033,Scharnweberstr. (Eichborndamm),u-bahn,C I,"52.566944444444,13.312777777778",Q557586
1034,19611034,Scharnweberstrasse,bus,A21,"52.567891242257375, 13.31193029694028",
1035,19611035,"Schildow, Kirche",bus,A7,"52.63581867397586, 13.377719168374458",
1036,19611036,Schillingstr.,u-bahn,E,"52.520278,13.421667",Q552899
1037,19611037,Schillingstrasse,bus,A61,"52.56595360108564, 13.320255053064429",
1038,19611038,Schlachtensee,bus,A53,"52.440164224898425, 13.214629432022623",
1039,19611039,Schlachtensee,s-bahn,KBS 104,"52.4401,13.2153",Q800509
1040,19611040,Schlesisches Tor,u-bahn,"B II,B I","52.500833333333,13.441666666667",Q602282
1041,19611041,Schloss Glienicke,bus,A6,"52.41321315212787, 13.096214143840962",
1042,19611042,Schloss Ruhwald,bus,AS1,"52.521567840298836, 13.260569641184494",
1043,19611043,Schloss Ruhwald,strassenbahn,"53,54","52.52160139428261, 13.260396465216335",
1044,19611044,SchlossBrücke,bus,A65,"52.52277864874118, 13.300093422040403",
1045,19611045,SchlossStrasse,bus,A32,"52.456909123066914, 13.320715400125325",
1046,19611046,Schlossstrasse,bus,A74,"52.46502319139203, 13.328512641123645",
1047,19611047,Schlossstrasse,strassenbahn,"73,,74,77,78","52.4649279288063, 13.328420834164818",
1048,19611048,"Schlossstrasse, Wilhelm-Schreiber-Platz",bus,AS2,"52.46497175478016, 13.328534991548652",
1049,19611049,Schloßstrasse Ecke Feuerbachstrasse,bus,A2,"52.4631173264433, 13.326724826984016",
1050,19611050,Schmargendorf,s-bahn,KBS 100,"52.479672222222,13.312441666667",Q302810
1051,19611051,Schopenhauer-Strasse Ecke Spanische Allee,bus,A3,"52.433960489825, 13.212025866542618",
1052,19611052,Schulenburgpark,strassenbahn,"15,95","52.466660612786704, 13.470292593214328",
1053,19611053,Schulstrasse Ecke Exerzierstrasse,bus,A64,"52.55396008849384, 13.371500780047201",
1054,19611054,Schulzendorf (b Tegel),s-bahn,KBS 105,"52.6128,13.2462",Q800487
1055,19611055,Schulzendorfer Strasse,bus,A15,"52.61057476279662, 13.295480649416259",
1056,19611056,Schumannstrasse Ecke Luisenstrasse,bus,A57,"52.52350700053633, 13.379478600060418",
1057,19611057,Schwarzer Weg Ecke Sonnenallee,strassenbahn,95,"52.46218348846541, 13.477104416215733",
1058,19611058,Schwedenstrasse Ecke Exerzierstrasse,bus,A64,"52.55376624875929, 13.377160797243135",
1059,19611059,Schwelmer Strasse Ecke Ostpreußendamm,strassenbahn,96,"52.41219656071037, 13.29903796654036",
1060,19611060,Schwiezerhaus,bus,A34,"52.46177834654878, 13.133492629933269",
1061,19611061,Schäferberg,bus,A6,"52.41562661861071, 13.12630868100336",
1062,19611062,Schöneberg,s-bahn,"KBS 104,KBS 100a,KBS 100","52.4794,13.3517",Q543855
1063,19611063,"Schönefeld, Siedlung",bus,"AD/36,AZ","52.38835097546488, 13.564205018328355",
1064,19611064,"Schöneiche, Goethepark",bus,"S-Bhf. Friedrichshagen <> Rüdersdorf, Karl-Marx-Platz (VEB Schöneiche-Rüdersdorf)","52.470798548586494, 13.68835638892532",
1065,19611065,Schöneweide,s-bahn,"KBS 103,KBS 103a,KBS 100a,KBS 106","52.455,13.509444444444",Q111323931
1066,19611066,Schönhauser Allee,s-bahn,KBS 106,"52.549329,13.413706",Q111264493
1067,19611067,Schönhauser Allee Ecke Bornholmer Strasse,strassenbahn,3,"52.5537705,13.4138898",Q65076842
1068,19611068,Schönhauser Allee,u-bahn,A,"52.549328888889,13.413706111111",Q47014936
1069,19611069,Schönholz,s-bahn,"KBS 105,KBS 106","52.5714,13.3814",Q800490
1070,19611070,Schützallee Ecke Onkel-Tom-Strasse,bus,A66,"52.4406263121593, 13.255177908871318",
1071,19611071,Schüßlerplatz,strassenbahn,84,"52.44553303566032, 13.576935078888754",
1072,19611072,Sebastianfriedhof,bus,A61,"52.571002500013684, 13.336360943589446",
1073,19611073,SedanStrasse,bus,A32,"52.451462388098534, 13.33534176193218",
1074,19611074,Sedanstrasse,bus,A33,"52.45143021733514, 13.335289250392284",
1075,19611075,Seeburger Strasse,strassenbahn,"75,76","52.52919074855153, 13.195613280527734",
1076,19611076,Seegefelder Weg,bus,A63,"52.549813200063646, 13.128679816115987",
1077,19611077,Seelenbinderstrasse,strassenbahn,"83,84,86,82","52.4554632,13.5769303",Q66324934
1078,19611078,Seelenbinderstrasse Ecke Bahnhofstrasse,strassenbahn,87,"52.4554632,13.5769303",Q66324934
1079,19611079,Seestr.,u-bahn,C I,"52.55056,13.35194",Q554391
1080,19611080,Seestrasse Ecke Afrikanische Strasse,bus,A64,"52.54621084537532, 13.34400593216248",
1081,19611081,Seidelstr. (Flughafen Tegel),u-bahn,C I,"52.571111,13.302778",Q557582
1082,19611082,Selchow,bus,"AZ,S-Bhf. Grünau <> Potsdam, Bassinplatz (VEB Potsdam-Babelsberg)","52.35758122167604, 13.471955883887944",
1083,19611083,Senefelderplatz,u-bahn,A,"52.53242,13.412743",Q32661454
1084,19611084,Siemensstadt,s-bahn,KBS 100c,"52.53923,13.26365",Q96080453
1085,19611085,Siemensstadt-Fürstenbrunn,s-bahn,KBS 103a,"52.528,13.2695",Q18747940
1086,19611086,Silbersteinstrasse,strassenbahn,"47,26","52.46723844998069, 13.438467144199928",
1087,19611087,Skalitzer Strasse,bus,A75,"52.49920062327321, 13.426780617093764",
1088,19611088,Sonnenallee,s-bahn,KBS 100,"52.473,13.4558",Q481364
1089,19611089,Sonnenallee,strassenbahn,"95P,26","52.46218348846541, 13.477104416215733",
1090,19611090,Erkstrasse Ecke Sonnenallee,bus,A4,"52.481673740100334, 13.440111510727606",
1091,19611091,Sophie-Charlotte-Platz,u-bahn,"A I,B I","52.510833333333,13.296666666667",Q657879
1092,19611092,Sophie-Charlotten-Platz,strassenbahn,60,"52.51092145563256, 13.296262773242288",
1093,19611093,Sophie-Charlotten-Strasse,bus,A18,"52.44594955353092, 13.267788405970709",
1094,19611094,Spandau,s-bahn,"KBS 101,KBS 103a","52.532, 13.2089",Q800491
1095,19611095,Spandau West,s-bahn,"KBS 101,KBS 103a","52.5347,13.1958",Q111325678
1096,19611096,"Spandau, Friedhof",bus,A34,"52.553136286584845, 13.179674445908985",
1097,19611097,"Spandau, Markt",strassenbahn,"53,55,54,76,75","52.53784349532438, 13.204135429364628",
1098,19611098,Spandauer Damm,bus,"A10,A74","52.51838420899177, 13.280076964056246",
1099,19611099,Spandauer Strasse,bus,A31,"52.535940922541684, 13.156793426342295",
1100,19611100,Spichernstr. (Bundesallee),u-bahn,A II,"52.496388888889,13.330555555556",Q667046
1101,19611101,Spichernstrasse Ecke Bundesallee,bus,A2,"52.49638829618181, 13.330865963780257",
1102,19611102,Spindlersfeld,s-bahn,KBS 103a,"52.4472,13.5613",Q4892371
1103,19611103,Spittelmarkt,strassenbahn,"64,72,74E,74","52.511243321361405, 13.40494539543245",
1104,19611104,Spittelmarkt,u-bahn,A,"52.511111111111,13.403611111111",Q569489
1105,19611105,Spreewaldplatz,bus,A75,"52.49746662927152, 13.43173832995115",
1106,19611106,Spreewaldplatz,strassenbahn,"27,26","52.49792227545992, 13.430617008810609",
1107,19611107,St lpchensee,bus,A18,"52.409430239790396, 13.14381794619846",
1108,19611108,Staakener Strasse,bus,A63,"52.536487084911975, 13.190823566060091",
1109,19611109,Stadion Buschallee,strassenbahn,70,"52.5566718,13.4869834",Q65504715
1110,19611110,Stadion Lichterfelde,bus,A17,"52.43867922703144, 13.325050443019501",
1111,19611111,Stadtmitte,u-bahn,A,"52.5122,13.3894",Q660066
1112,19611112,Stadtpark,bus,A17,"52.44890555557147, 13.338827669086982",
1113,19611113,Stadtrandstrasse,bus,A5,"52.553426999619965, 13.153585430700852",
1114,19611114,Stalinallee,bus,O40,"52.51715128685504, 13.440640767102789",
1115,19611115,Stalinallee,s-bahn,"KBS 103a,KBS 106","52.514166666667,13.474722222222",Q111250033
1116,19611116,Stalinallee (Ringbahn),u-bahn,E,"52.514166666667,13.474722222222",Q552872
1117,19611117,Stegerwaldstrasse,bus,A32,"52.42073935358918, 13.369265336797783",
1118,19611118,Steglitz,s-bahn,KBS 104,"52.4562,13.3216",Q111264179
1119,19611119,Steglitzer Damm Ecke Halske Strasse,bus,A2,"52.45003047744661, 13.346670686507988",
1120,19611120,Sterndamm,bus,A47,"52.44658674940087, 13.506534865142585",
1121,19611121,Steuerhaus,bus,O37,"52.530493,13.4614989",
1122,19611122,Steuerhaus,strassenbahn,"64,63","52.530493,13.4614989",Q65553632
1123,19611123,StindeStrasse,bus,A32,"52.44812122178611, 13.340103869265922",
1124,19611124,Stralauer Allee Ecke Markgrafendamm,strassenbahn,82,"52.49740745019046, 13.46463650693144",
1125,19611125,Strasse 393,bus,A63,"52.54346134229288, 13.156333109553433",
1126,19611126,Strasse 78,bus,A42,"52.614646041574915, 13.484873269723556",
1127,19611127,Strasse nach Staatwinkel,bus,A13,"52.561964827739885, 13.254588036270711",
1128,19611128,Strasse nach Wartenberg,bus,A46,"52.56866269126953, 13.520582099858125",
1129,19611129,Strausberg,s-bahn,"KBS 101,KBS 101c","52.531933,13.836933",Q7622326
1130,19611130,Strausberg Nord,s-bahn,KBS 101c,"52.5902,13.9084",Q7622324
1131,19611131,Strausberg Stadt,s-bahn,KBS 101c,"52.5766,13.8878",Q7622325
1132,19611132,Strausberger Platz,bus,Flughafen Schönefeld <> Strausberger Platz,"52.51805139047903, 13.431938093018077",
1133,19611133,Strausberger Platz,u-bahn,E,"52.518055555556,13.430833333333",Q570999
1134,19611134,Stresowplatz,bus,"A5,A31","52.53362877636616, 13.206781830760963",
1135,19611135,StromStrasse,bus,A24,"52.52632226250912, 13.34326443872038",
1136,19611136,Stromstrasse,bus,A70,"52.52631690374401, 13.343146315837002",
1137,19611137,Stromstrasse Ecke Alt-Moabit,strassenbahn,2,"52.525423127112404, 13.34283986840417",
1138,19611138,Stubenrauchstrasse,strassenbahn,47,"52.42422390261997, 13.485461375958135",
1139,19611139,Stuttgarter Platz,bus,"A74,A21","52.50551610729052, 13.302923303561508",
1140,19611140,Stuttgarter Platz,strassenbahn,60,"52.50566810519856, 13.306864497506904",
1141,19611141,Städtische Frauenklinik,strassenbahn,26,"52.463656969889136, 13.424616755091188",
1142,19611142,"Stölpchensee, Wilhelmplatz",bus,A3,"52.41240583089011, 13.141644518533106",
1143,19611143,StößenseeBrücke,strassenbahn,"75,76","52.508894368243524, 13.217475972829826",
1144,19611144,Sundgauer Str.,s-bahn,KBS 104,"52.436291,13.273772",Q800513
1145,19611145,Sundgauer Strasse,bus,AS3 ; A48,"52.4455796617832, 13.267631906214019 ; 52.43838201264951, 13.271447959003352",
1146,19611146,Sydlitzstrasse Ecke Kaiser-Wilhelm-Strasse,strassenbahn,96,"52.43195972077168, 13.338109786819931",
1147,19611147,Südende,s-bahn,KBS 106,"52.4481,13.3536",Q800511
1148,19611148,Südstern,bus,A28,"52.488958649509335, 13.40781379557614",
1149,19611149,Südstern,u-bahn,C I,"52.489444444444,13.407777777778",Q656081
1150,19611150,Taubenstrasse,strassenbahn,72,"52.51306493755938, 13.391398735901545",
1151,19611151,"Tauernallee, Adlermühle",bus,AS2,"52.42337464834511, 13.396185392179197",
1152,19611152,Tauroggener Strasse Ecke Osnabrücker Strasse,strassenbahn,3,"52.525838744600904, 13.301970081896242",
1153,19611153,Tauroggener Strasse Ecke Osnabrücker Strasse,bus,A72,"52.525838744600904, 13.301852064700281",
1154,19611154,Tegel,s-bahn,KBS 105,"52.5886,13.2894",Q800493
1155,19611155,Tegel,u-bahn,C I,"52.58944,13.28389",Q656090
1156,19611156,Tegeler Strasse Ecke Trifstrasse,bus,A64,"52.543256497451154, 13.356263568406057",
1157,19611157,Tegelort,bus,A20,"52.5705390073051, 13.231220862666484",
1158,19611158,Teichstrasse,bus,A61,"52.57435884050963, 13.34777330742025",
1159,19611159,Teltower Damm,bus,"A10,A48,A53","52.43504474561002, 13.2604425311939",
1160,19611160,Teltower Strasse,bus,"AS1,A5,A31","52.52691807826059, 13.215807069988056",
1161,19611161,Teltower Strasse,strassenbahn,"53,54","52.52691412538678, 13.215987693499372",
1162,19611162,Alt-Tempelhof Ecke Tempelhofer Damm,bus,A73,"52.465964306830664, 13.38558297633417",
1163,19611163,Alt-Tempelhof Ecke Tempelhofer Damm,bus,A65,"52.465964306830664, 13.38558297633417",
1164,19611164,Tempehofer Damm Ecke Friedrich-Karl-Strasse,bus,A68,"52.45581544855384, 13.383950601851975",
1165,19611165,Tempelhof,s-bahn,"KBS 100a,KBS 100","52.4708,13.3854",Q111264368
1166,19611166,Tempelhof (Südring),u-bahn,C II,"52.47075,13.385361111111",Q3983109
1167,19611167,Tempelhofer Damm,bus,A24,"52.48422430539437, 13.385891408286207",
1168,19611168,Tempelhofer Weg Ecke Britzer Damm,strassenbahn,27,"52.448934594274505, 13.43628485305219",
1169,19611169,Thielallee/Pacelliallee,bus,A68,"52.458161495962216, 13.28707254649315",
1170,19611170,Thielplatz,u-bahn,"A II,B II","52.451111111111,13.282222222222",Q571331
1171,19611171,Thorwaldsenstrasse,strassenbahn,66,"52.46136534165126, 13.345121264246712",
1172,19611172,Thuner Platz,bus,A53,"52.42375896990032, 13.296184869051308",
1173,19611173,Thuyring,bus,"A77,A76","52.47483046693383, 13.385744435858946",
1174,19611174,Thälmannplatz,bus,S-Bhf. Rahnsdorf <> Woltersdorfer Schleuse (VEB Woltersdorf),"52.45066904252597, 13.752260000383929",
1175,19611175,Thälmannplatz,u-bahn,A,"52.51167,13.38472",Q658391
1176,19611176,Tiergarten,s-bahn,"KBS 101,KBS 102","52.5144,13.3365",Q572112
1177,19611177,Tiergartenstrasse,bus,"A69,A16,A24","52.50960312444174, 13.351320889801638",
1178,19611178,Tierpark Berlin,strassenbahn,69,"52.50297204519277, 13.520916474066839",
1179,19611179,Tor 5,bus,A15,"52.58357682284558, 13.320522582904216",
1180,19611180,Trabener Strasse,bus,A69,"52.49310178577124, 13.275431330442801",
1181,19611181,Traegerstrasse,strassenbahn,66,"52.476296219875636, 13.341188525686016",
1182,19611182,Transvaalstrasse Ecke Africkanische Strasse,bus,A64,"52.55033805772127, 13.339109780046835",
1183,19611183,"Treptow, Rathaus",bus,A47,"52.48358899866382, 13.480324760498638",
1184,19611184,Treptower Park,s-bahn,"KBS 103,KBS 103a,KBS 106","52.4938,13.4618",Q559274
1185,19611185,Triftweg,bus,A52,"52.431024618021745, 13.45739670616807",
1186,19611186,Trippsteinstrasse,bus,"A11,A2","52.41893958981137, 13.346149658204126",
1187,19611187,TurmStrasse,bus,A16,"52.52628495236362, 13.343149398961996",
1188,19611188,Turmstrasse Ecke Stromstrasse,bus,A72,"52.52631573511827, 13.34320006470035",
1189,19611189,Turmstrasse/Rathenower Strasse,bus,A70,"52.52677998083022, 13.355183467556872",
1190,19611190,U-Bhf Kottbusser Tor,bus,A28,"52.499051258453434, 13.418359009880978",
1191,19611191,U-Bhf. Boddinstrasse,bus,A4,"52.48028651973042, 13.425279574612379",
1192,19611192,U-Bhf. Boddinstrasse,strassenbahn,27,"52.48027865367161, 13.4251690465859",
1193,19611193,U-Bhf. Bülowstrasse,bus,"A48,A75","52.49787469517453, 13.362124599310649",
1194,19611194,U-Bhf. Bülowstrasse,strassenbahn,"73,74","52.4977947071403, 13.362041491653272",
1195,19611195,U-Bhf. Dahlem-Dorf,bus,A68,"52.45807069736877, 13.289706947871178",
1196,19611196,U-Bhf. Dimitroffstrasse,strassenbahn,"70,49,22,4,46,13","52.5401928,13.4113979",Q65088313
1197,19611197,U-Bhf. Ernst-Reuter-Platz,bus,"A25,A62,AS1","52.51164603099566, 13.322290858670174",
1198,19611198,U-Bhf. Ernst-Reuter-Platz,strassenbahn,55,"52.511726576083134, 13.32260139821175",
1199,19611199,U-Bhf. Fehrbelliner Platz,bus,"A1,A4,A21,AS3","52.490390927187676, 13.31417745809863",
1200,19611200,U-Bhf. Flughafen,bus,"A19,A4","52.48488595983176, 13.38599654703171",
1201,19611201,U-Bhf. Flughafen,strassenbahn,96,"52.484779980367215, 13.385962227231367",
1202,19611202,U-Bhf. Friedrichsfelde,bus,"A43,A8,A8E","52.50624112361932, 13.512853060220209",
1203,19611203,U-Bhf. Gesundbrunnen,bus,"A14,A64","52.548660755358114, 13.387873629581087",
1204,19611204,U-Bhf. Grenzallee,bus,A67,"52.46369510254238, 13.444231731166557",
1205,19611205,U-Bhf. Grenzallee,strassenbahn,47,"52.46348178875844, 13.444377273631815",
1206,19611206,U-Bhf. Hallesches Tor,bus,A24,"52.497910015148264, 13.391307667735301",
1207,19611207,U-Bhf. Heidelberg Platz,bus,A65,"52.48042873572808, 13.31278632857391",
1208,19611208,U-Bhf. Heidelberger Platz,bus,A60,"52.48006162214815, 13.312159920359697",
1209,19611209,U-Bhf. Kaiserdamm,bus,"A65,A10","52.50999451351762, 13.28180313022396",
1210,19611210,U-Bhf. Kochstrasse,bus,A75,"52.50669823641868, 13.390503218886558",
1211,19611211,U-Bhf. Kottbusser Tor,bus,A67,"52.499122758255055, 13.4182411702772",
1212,19611212,U-Bhf. Krumme Lanke,bus,"A3,A53","52.44308074990891, 13.24046555211665",
1213,19611213,U-Bhf. Kurt-Schumacher-Platz,bus,"A61,A62","52.56338157214657, 13.32719915637487",
1214,19611214,U-Bhf. Leinestrasse,strassenbahn,27,"52.473591021401894, 13.428015562483331",
1215,19611215,U-Bhf. Leopold-Platz,bus,A12,"52.54640033291444, 13.359096803326494",
1216,19611216,U-Bhf. Moritzplatz,bus,A75,"52.50366899509004, 13.41055755394872",
1217,19611217,U-Bhf. Neukölln,strassenbahn,"15,47,26","52.46965567921364, 13.441614939772098",
1218,19611218,U-Bhf. Onkel-Toms-Hütte,bus,"A3,A66","52.45007713385221, 13.251272593463492",
1219,19611219,U-Bhf. Oskar-Helene-Heim,bus,"A1,A11,AS3,A3,A18","52.450279005868815, 13.270361987159156",
1220,19611220,U-Bhf. Prinzenstrasse,bus,A28,"52.49844153838657, 13.406643837212261",
1221,19611221,U-Bhf. Ruhleben,bus,"AS1,A5,A31","52.52596833151868, 13.241478578696297",
1222,19611222,U-Bhf. Ruhleben,strassenbahn,"53,54","52.52595776615238, 13.241371866188729",
1223,19611223,U-Bhf. Rüdesheimer Platz,bus,A17,"52.4720831087791, 13.314909778144818",
1224,19611224,"U-Bhf. Scharnweberstrasse, Sportplatz",bus,A61,"52.56792223040469, 13.311949805424875",
1225,19611225,U-Bhf. Schlesisches Tor,bus,A28,"52.50108419874335, 13.441971259873345",
1226,19611226,U-Bhf. Seestrasse,bus,"A12,A16","52.550315408708514, 13.352298502985231",
1227,19611227,U-Bhf. Seestrasse,strassenbahn,3,"52.5502459,13.3516304",Q65729619
1228,19611228,U-Bhf. Strausberger Platz,strassenbahn,1,"52.51808306742478, 13.432938339097822",
1229,19611229,U-Bhf. Südstern,strassenbahn,3,"52.48899443353793, 13.40800672025058",
1230,19611230,U-Bhf. Tegel,bus,"A15,A20,A14,A13","52.589503132547385, 13.283630715732999",
1231,19611231,U-Bhf. Tempelhof,bus,"A77,A76","52.4698750992553, 13.38558705982547",
1232,19611232,U-Bhf. Thielplatz,bus,A10,"52.45104520805668, 13.281736418792137",
1233,19611233,U-Bhf. Vinetastrasse,bus,A7,"52.55981894046453, 13.413208628380339",
1234,19611234,U-Bhf. Vinetastrasse,strassenbahn,"46,49,22","52.5596168,13.413232",Q65075426
1235,19611235,Uckermarkstrasse,bus,A49,"52.52145144349922, 13.596724604247981",
1236,19611236,Uhlandstrasse,bus,A50 ; A29,"52.49368292097469, 13.323611381015645 ; 52.50252020955797, 13.325204349014482",
1237,19611237,Uhlandstrasse Ecke Kurfürstendamm,bus,A69,"52.502532428867724, 13.325280453057784",
1238,19611238,Ulmenstrasse,bus,A27,"52.48730877811447, 13.574932033917504",
1239,19611239,Unter den Eichen Ecke Habelschwerdter Allee,bus,A11,"52.44576670649539, 13.293707828835997",
1240,19611240,Unionplatz,bus,A25,"52.533059397499464, 13.337278814540305",
1241,19611241,Urban-Krankenhause,bus,A28,"52.493469358698874, 13.406245116325284",
1242,19611242,Usedomer Strasse,bus,A71,"52.541120501957316, 13.393769565044664",
1243,19611243,VEB Bautransporte,bus,A26,"52.44295541604966, 13.519519091051876",
1244,19611244,VEB Schiffswerft,strassenbahn,83,"52.42547977761138, 13.586220039541647",
1245,19611245,Velten (Mark),s-bahn,KBS 105,"52.685,13.172222",Q19274518
1246,19611246,Verwaltungs-Gebäude,bus,A10,"52.537063326963775, 13.262285169635492",
1247,19611247,Viersener Strasse,bus,A63 ; A5,"52.54020417705652, 13.17462661157195 ; 52.54873823655914, 13.17802517662475",
1248,19611248,Viktoria-Luise-Platz,u-bahn,B III,"52.496161111111,13.342702777778",Q178685
1249,19611249,Virchow-Krankenhaus,bus,A16,"52.54371513062133, 13.339317916518894",
1250,19611250,Vogelsang,bus,A68,"52.45939482396207, 13.280296976660761",
1251,19611251,Voltastr.,u-bahn,D,"52.542093,13.393022",Q663308
1252,19611252,Voltastrasse Ecke Watt Strasse,strassenbahn,2,"52.54152997238806, 13.389571756575245",
1253,19611253,Waidmannslust,s-bahn,KBS 106,"52.6064,13.321",Q800492
1254,19611254,Waldemarplatz,bus,A53,"52.43775537029681, 13.220189780766606",
1255,19611255,Waldemarstrasse,bus,A28,"52.50326279588436, 13.420631417701001",
1256,19611256,Walderseestrasse,bus,A20,"52.575655932178144, 13.228965833395124",
1257,19611257,"Waldesruh, Malhlsdorfer Allee",bus,A8,"52.48493120102871, 13.629069441163518",
1258,19611258,Waldfriedhof,bus,A18,"52.42599572508999, 13.209246048971062",
1259,19611259,Waldkrankenhaus,bus,A5,"52.56214542863615, 13.158340085815741",
1260,19611260,Waldschänke,bus,A22,"52.443318139967566, 13.68593963431219",
1261,19611261,"Stahnsdorf, Waldschänke",bus,"S-Bhf. Grünau <> Potsdam, Bassinplatz (VEB Potsdam-Babelsberg)"," 52.39345447478086, 13.210302944499475",
1262,19611262,Waldstrasse,bus,"A1,A20","52.60193428053164, 13.306047505406614",
1263,19611263,Waldstrasse/Gotzkowskystrasse,bus,A70,"52.52721622390326, 13.330524512340718",
1264,19611264,Walterdorfer Chaussee (Spinne),bus,"S-Bhf. Grünau <> Potsdam, Bassinplatz (VEB Potsdam-Babelsberg)","52.41568773699451, 13.496540075011389",
1265,19611265,Waltersdorf,bus,A38,"52.36492901110609, 13.555712408051676",
1266,19611266,Waltersdorfer Chaussee (Spinne),bus,AD/36,"52.392853002264665, 13.522677096747554",
1267,19611267,Waltersforder Chaussee (Spinne),bus,AZ,"52.392853002264665, 13.522677096747554",
1268,19611268,Wannsee,Fähre,Wannsee<>Kladow (Betrieb durch Stern und Kreisschiffahrt),"52.421928022812146, 13.175815964118582",
1269,19611269,Wannsee,s-bahn,"KBS 104,KBS 102","52.4214,13.1792",Q111325896
1270,19611270,Warnem nder Strasse,bus,A17,"52.47539576569938, 13.290488880070722",
1271,19611271,Warnemünder/Berkaer Strasse,bus,A60,"52.47543626291202, 13.290288437340868",
1272,19611272,Warschauer Brücke,strassenbahn,"3,4","52.506746741445006, 13.449684491939852",
1273,19611273,Warschauer Str.,s-bahn,"KBS 101,KBS 103,KBS 102","52.506416666667,13.450955555556",Q111252298
1274,19611274,Warschauer Strasse,bus,O30,"52.512432267445355, 13.452598837307189",
1275,19611275,Warschauer Strasse,strassenbahn,"3,4,82","52.50502,13.44863",Q63490275
1276,19611276,"Wartenberg, Dorfstrasse",bus,A39,"52.57484089632958, 13.518020972979759",
1277,19611277,"Wartenberg, Siedlung",bus,A39,"52.58393195902164, 13.53076033685478",
1278,19611278,Wasserwerk,strassenbahn,87,"52.4560563,13.6419956",Q66362601
1279,19611279,"Waßmannsdorf, Warteh.",bus,AZ,"52.37269773285082, 13.465032652682668",
1280,19611280,Wedding,s-bahn,KBS 100,"52.5425,13.3661",Q638604
1281,19611281,Weddingplatz,bus,"A70,A72","52.54113612364086, 13.368501029385115",
1282,19611282,Weddingplatz,strassenbahn,2,"52.54152535588228, 13.369198549039789",
1283,19611283,Wiebestrasse Ecke Kaiserin-Augusta-Allee,bus,A72,"52.52580214309624, 13.317979171208343",
1284,19611284,Weichselstrasse,strassenbahn,"47,26","52.48313752772782, 13.431480309407663",
1285,19611285,Weinmeisterhornweg,bus,"A13 ; A34,A35","52.511043998847086, 13.171645488962428 ;  52.50924681744358, 13.180314851039075",
1286,19611286,"Weißensee, Liebermannstrasse Ecke Piesporter Strasse",bus,A55,"52.56056756076504, 13.477555745782263",
1287,19611287,"Weißensee, Nüßlerstrasse",bus,A56,"52.56398537909407, 13.469733771213992",
1288,19611288,"Weißensee, Pasedagplatz",strassenbahn,72,"52.5594027,13.4609594",Q65954665
1289,19611289,"Weißensee, Schwarzelfenweg",bus,A45,"52.56729838338304, 13.46535452978551",
1290,19611290,Weißenseer Weg,bus,O37,"52.53305919668049, 13.476252837088406",
1291,19611291,Weißenseer Weg,strassenbahn,"64,63","52.532258,13.476705",Q65942700
1292,19611292,Wendenschloß Ecke Ekhofstrasse,strassenbahn,83,"52.41633000736971, 13.589690772826726",
1293,19611293,Wentowsteig,bus,A21,"52.59694371557204, 13.360462949429833",
1294,19611294,Wernerwerk,s-bahn,KBS 100c,"52.534863,13.27599",Q96077001
1295,19611295,Westend,s-bahn,KBS 100,"52.5181,13.2844",Q323214
1296,19611296,Westkreuz,s-bahn,"KBS 101,KBS 102,KBS 100","52.5011,13.2839",Q678125
1297,19611297,"Weverstrasse, Strassenbahnhof",strassenbahn,"75,76","52.51946975407937, 13.19781896484702",
1298,19611298,Wichertstrasse Ecke Prenzlauer Allee,bus,A56,"52.54571094901922, 13.42782494047603",
1299,19611299,Wiebestrasse,bus,A24,"52.53119512537686, 13.319063771537584",
1300,19611300,Wiebestrasse Ecke Kaiserin-Augusta-Allee,strassenbahn,3,"52.52581805493254, 13.31804267301598",
1301,19611301,"Wiebestrasse, Strassenbahnhof",bus,A70,"52.53066666255053, 13.319314794959219",
1302,19611302,Wiener Brücke,bus,A75,"52.49588477409083, 13.43650068505988",
1303,19611303,Wiener Brücke,strassenbahn,"92,87","52.49588477409083, 13.43650068505988",
1304,19611304,Wiesbadener Strasse,bus,A16,"52.47164544021605, 13.319516803491332",
1305,19611305,Wiesenbaude,bus,A11,"52.430495242672045, 13.31180861060395",
1306,19611306,Wiesenbaude,strassenbahn,"73,74","52.43330952304924, 13.307272184416341",
1307,19611307,Wiesenstrasse,bus,A70,"52.54763571080132, 13.373871074090278",
1308,19611308,"Weißensee, Pasedagplatz",strassenbahn,74,"52.5594027,13.4609594",Q65954665
1309,19611309,Wildau,s-bahn,KBS 103,"52.32,13.634",Q8000974
1310,19611310,Wilderbruchstrasse Ecke Sonnenallee,strassenbahn,3,"52.48172850402205, 13.440160266547615",
1311,19611311,Wildmeisterdamm,bus,A52,"52.425839839495815, 13.48325607958456",
1312,19611312,Wildmeisterdamm,strassenbahn,47,"52.426124062490864, 13.48276594555747",
1313,19611313,Wilhelminenhof- Ecke Edisonstrasse,strassenbahn,82,"52.4619496,13.5139049",Q65951882
1314,19611314,Wilhelminenhofstrasse,strassenbahn,69,"52.460837970970566, 13.521054382869073",
1315,19611315,Wilhelminenhof- Ecke Edisonstrasse,strassenbahn,87,"52.4619496,13.5139049",Q65951882
1316,19611316,Wilhelmshagen,s-bahn,KBS 102,"52.4386,13.7222",Q800494
1317,19611317,Wilhelmsruh,s-bahn,KBS 106,"52.5814,13.3631",Q800495
1318,19611318,"Wilhelmsruh, Fontanestrasse",bus,"A55,A45","52.58985938767378, 13.361193570257216",
1319,19611319,Wilhelmstrasse,bus,A17,"52.43057879952989, 13.318592903820731",
1320,19611320,Wilmersdorf,s-bahn,"KBS 100a,KBS 100","52.477658333333,13.328525",Q464094
1321,19611321,Wilmersdorfer Strasse,bus,"A19,A29","52.499967660537735, 13.306987838785277",
1322,19611322,Wilmersdorfer Strasse,strassenbahn,"75,76","52.506692000645316, 13.306692426875525",
1323,19611323,Wilmersdorfer Strasse Ecke Kurfürstendamm,bus,A69,"52.50002844680595, 13.307125123915897",
1324,19611324,Wilmersdorfer Strasse Ecke Kurfürstendamm,strassenbahn,3,"52.500032680363084, 13.307221456574052",
1325,19611325,Wilmersdorfer Strasse Ecke Otto-Suhr-Alle,strassenbahn,3,"52.518112442546, 13.304359726984016",
1326,19611326,Winfriedstrasse,bus,AS3,"52.437562011852606, 13.269450173477841",
1327,19611327,Winifriedstrasse Ecke Clayallee,bus,A3,"52.439229231714734, 13.262871381887154",
1328,19611328,Wismarer Strasse,bus,A1,"52.42195191841697, 13.2985053942209",
1329,19611329,Wismarer Strasse,strassenbahn,77,"52.42195291492597, 13.29850599537737",
1330,19611330,Wismarer Strasse Ecke Ostpreußendamm,strassenbahn,96,"52.41786193949108, 13.305195152904869",
1331,19611331,Wittenau,bus,A62,"52.596084138285406, 13.332857679505645",
1332,19611332,Wittenau (Kremmener Bahn),s-bahn,KBS 105,"52.597013,13.334329",Q111264319
1333,19611333,Wittenau (Nordbahn),s-bahn,KBS 106,"52.597013,13.334329",Q111264319
1334,19611334,Wittenbergplatz,bus,"A73,A60,A62,A29,A19","52.50188939146253, 13.342697883756577",
1335,19611335,Wittenbergplatz,strassenbahn,"2,55,77,78","52.50185025953713, 13.343098350806866",
1336,19611336,Wittenbergplatz,u-bahn,"A II,A I,B II,B I","52.501944444444,13.343055555556",Q692727
1337,19611337,Witzleben,s-bahn,KBS 100,"52.5078,13.2836",Q321266
1338,19611338,Wolburgsweg,bus,A5,"52.550616013150325, 13.16810722103831",
1339,19611339,Wollankstr.,s-bahn,"KBS 105,KBS 106","52.5651525,13.3923627",Q800515
1340,19611340,Woltersdorfer Schleuse,bus,S-Bhf. Rahnsdorf <> Woltersdorfer Schleuse (VEB Woltersdorf),"52.4427723984596, 13.764524016423056",
1341,19611341,Wolzogenstrasse,bus,A18,"52.43229985926568, 13.235719207112487",
1342,19611342,Wongrowitzer Strasse,bus,A27,"52.46658608823203, 13.584839227863949",
1343,19611343,Wuhlheide,s-bahn,KBS 102,"52.4689,13.5533",Q800514
1344,19611344,Yorckstr.,s-bahn,"KBS 105,KBS 106","52.491777777778,13.372141666667",Q21776729
1345,19611345,Yorckstrasse,bus,A28,"52.49358813377981, 13.384967556749217",
1346,19611346,Yorckstrasse,strassenbahn,96,"52.492901206042376, 13.387766831697483",
1347,19611347,Zabel-Krüger-Damm,bus,A12,"52.60786610541416, 13.323845802997752",
1348,19611348,Zappoter/Oeynhauser Strasse,bus,A60,"52.47331132628728, 13.298669291589876",
1349,19611349,Zehlendorf,s-bahn,"KBS 104,KBS 104a","52.4309,13.2584",Q737962
1350,19611350,Zentralschule,bus,A22,"52.43465069286089, 13.703692212644038 ",
1351,19611351,Zentralviehhof,s-bahn,"KBS 103a,KBS 106","52.5238,13.4644",Q800512
1352,19611352,Zepernick (b Bernau),s-bahn,KBS 106,"52.6598,13.5342",Q801657
1353,19611353,Zeuthen,s-bahn,KBS 103,"52.3486,13.6274",Q8069824
1354,19611354,"Ziegenhals, VA Dienststelle",bus,Schmöckwitz<>Ziegenhals (VEB Kraftverkehr Schöneiche-Rüdersdorf),"52.3470916280972, 13.664196000865504",
1355,19611355,Ziekowstrasse,bus,A14,"52.59059426195262, 13.292011153010927",
1356,19611356,Zitadellenweg,strassenbahn,55,"52.5377758132997, 13.217204249093342",
1357,19611357,ZobeltitzStrasse,bus,A61,"52.56898257894375, 13.317202802475165",
1358,19611358,Zoologischer Garten,s-bahn,"KBS 101,KBS 102","52.507222222222,13.3325",Q111326238
1359,19611359,Zoologischer Garten,u-bahn,"A I,B I","52.5058669,13.3330236",Q4024764
1360,19611360,Zossener Strasse,bus,A28,"52.49160676567746, 13.394443897793668",
1361,19611361,Zossener Strasse Ecke Blücherstrasse,strassenbahn,95,"52.49622054069677, 13.395106811633234",
1362,19611362,Zum Heckeshorn,bus,A51,"52.43307505069834, 13.164008736441371",
1363,19611363,ZweiBrücker Strasse,bus,A63,"52.54677409100436, 13.188764018875105",
1364,19611364,Waldstrasse Ecke Turmstrasse,bus,"A72, A1","52.52723999918061, 13.33057857025633",
1365,19611365,Wilhelmstrasse Ecke Pichelsdorferstrasse,bus,"A35,A34","52.527959605404874, 13.195282802302891",
1366,19611366,Lichterfelde-West Lindenstrasse,strassenbahn,"58,78","52.416224714960904, 13.311832010279808",
1367,19611367,Köpenickerstrasse Ecke Manteuffelstrasse,bus,A28,"52.50574939832715, 13.431940956927507",
1368,19611368,Rosenthalerweg,strassenbahn,49,"52.60625636987162, 13.420087684676252",
1369,19611369,Schlossstrasse Ecke Seelingstrasse,bus,A74,"52.51569806814604, 13.296301299533223",
1370,19611370,Tempelhofer Weg Ecke Britzer Damm,bus,A25,"52.448934594274505, 13.43628485305219",
1371,19611371,Tempelhofer Damm Ecke Friedrich-Karl-Strasse,bus,A25,"52.4557662805014, 13.383913574584998",
