,line_id,stop_name,stop_order,stop_id
0,19601,SchillingBrücke (Ostbahnhof),0,19601051
1,19601,U-Bhf. Strausberger Platz,1,19601256
2,19601,Stalinallee,2,19601138
3,19601,Leninplatz,3,1960704
4,19601,"Alexanderplats, Memhardstr.",4,196011
5,19601,Rosenthaler Platz,5,1960991
6,19601,Brunnen Ecke Invalidenstrasse,6,1960232
7,19601,Invaliden- Ecke Chausseestrasse,7,1960561
8,19601,"WeidendammBrücke, Bhf. Friedrichstrasse",8,19601316
9,19601,Am Kupfergraben,9,196041
10,19602,Köpenicker Strasse Ecke Adalbertstrasse,0,1960684
11,19602,Bhf. JannowitzBrücke,1,1960142
12,19602,"Alexanderplatz, Memhardstrasse",2,196016
13,19602,Rosenthaler Platz,3,1960991
14,19602,Brunnen Ecke Invalidenstrasse,4,1960232
15,19602,Invaliden- Ecke Chausseestrasse,5,1960561
16,19602,"Oranienburger Tor, Hannoversche Strasse",6,1960849
17,19603,"Klingenberg, Blockdammweg",0,1960619
18,19603,Karlshorster Strasse,1,1960598
19,19603,Holteistrasse,2,1960540
20,19603,Frankfurter Tor/Stalinallee,3,1960359
21,19603,Bersarinplatz,4,1960116
22,19603,Leninallee,5,1960702
23,19603,Kniprodestrasse,6,1960626
24,19603,Greifswalder Strasse,7,1960431
25,19603,Prenzlauer Allee,8,1960916
26,19603,U-Bhf. Dimitroffstrasse,9,19601220
27,19603,Oderberger Strasse,10,1960836
28,19604,Daimlerstrasse,0,1960281
29,19604,Bhf. Marienfelde,1,1960156
30,19604,K rtingstrasse,2,1960579
31,19604,Mariendorfer Damm,3,1960768
32,19604,Imbrosweg,4,1960555
33,19604,Mariendorfer Friedhof,5,1960770
34,19604,Industriestrasse,6,1960556
35,19604,Germaniastrasse,7,1960399
36,19604,Frauenklinik,8,1960362
37,19604,Hermannstrasse,9,1960507
38,19604,U-Bhf. Neukölln,10,19601242
39,19604,Richardstrasse,11,1960978
40,19604,Bhf. Sonnenallee,12,1960168
41,19604,Dammweg,13,1960284
42,19604,Schulenburgpark,14,19601069
43,19605,Wolliner Strasse,0,19601376
44,19605,Voltastrasse,1,19601285
45,19605,Weddingplatz,2,19601314
46,19605,Rathenower Strasse,3,1960958
47,19605,Stromstrasse,4,19601161
48,19605,GotzkowskyBrücke,5,1960422
49,19605,U-Bhf. Ernst-Reuter-Platz,6,19601222
50,19605,Bhf. Zoo,7,1960189
51,19605,Wittenbergplatz,8,19601370
52,19605,Potsdamer Strasse,9,1960911
53,19605,Bhf. Yorckstrasse,10,1960186
54,19605,Mehringdamm,11,1960788
55,19605,Südstern,12,19601173
56,19605,Hermannplatz,13,1960504
57,19605,Spreewaldplatz,14,19601121
58,19606,Bhf. Rosenthal,0,1960162
59,19606,Nordendstrasse,1,1960831
60,19606,Kurt-Fischer-Platz,2,1960662
61,19606,"Pankow, Rathaus",3,1960879
62,19606,"Pankow, Kirche",4,1960877
63,19606,U-Bhf. Vinestrasse,5,19601261
64,19606,S-Bhf. Sch nhauser Allee,6,19601024
65,19606,U-Bhf. Dimitroffstrasse,7,19601220
66,19606,Rosenthaler Platz,8,1960991
67,19606,"Alexanderplatz, Memhardstrasse",9,196016
68,19606,Elisabethstrasse,10,1960320
69,19607,Wolliner Strasse,0,19601376
70,19607,Rügener Strasse,1,19601003
71,19607,Bhf. Gesundbrunnen,2,1960132
72,19607,Nauener Platz,3,1960806
73,19607,Weddingplatz,4,19601314
74,19607,Augustenburger Platz,5,196067
75,19607,Turmstrasse,6,19601212
76,19607,Gotzkowskystrasse,7,1960425
77,19607,U-Bhf. Ernst-Reuter-Platz,8,19601222
78,19607,Bhf. Zoo,9,1960189
79,19607,Wittenbergplatz,10,19601370
80,19607,Wartburgplatz,11,19601308
81,19607,Rathaus Sch neberg,12,1960945
82,19607,Hauptstrasse,13,1960480
83,19607,Gotenstrasse,14,1960419
84,19608,Spreewaldplatz,0,19601121
85,19608,Reichenberger Strasse,1,1960961
86,19608,Glogauer Strasse,2,1960410
87,19608,Sonnenallee,3,19601106
88,19608,Hermannplatz,4,1960504
89,19608,Weichselstrasse,5,19601315
90,19608,Rathaus Neukölln,6,1960941
91,19608,Saltykowstrasse,7,19601036
92,19608,Karl-Marx-Platz,8,1960595
93,19608,Silbersteinstrasse,9,19601103
94,19608,Hermannstrasse,10,1960507
95,19608,St dtische Frauenklinik,11,19601122
96,19608,Germaniastrasse,12,1960399
97,19608,Bhf. Teltowkanal,13,1960174
98,19608,Industriestrasse,14,1960556
99,19609,Hobrechtstrasse,0,1960520
100,19609,Hasenheide,1,1960477
101,19609,U-Bhf. Boddinstrasse,2,19601216
102,19609,U-Bhf. Leinestrasse,3,19601238
103,19609,Bhf. Hermannstrasse,4,1960139
104,19609,Mariendorfer Weg,5,1960771
105,19609,Germaniapromenade,6,1960398
106,19609,Franz-K rner-Strasse,7,1960360
107,19609,Gradestrasse,8,1960426
108,19609,Tempelhofer Weg,9,19601192
109,19609,Mariendorfer Allee,10,1960766
110,19609,Gutschmidstrasse,11,1960452
111,19609,Kleinbahn,12,1960614
112,19609,Dacchdeckerweg,13,1960277
113,19609,Parkfriedhof Neukölln,14,1960887
114,19609,Alt-Buckow,15,196019
115,196010,Mühlenstrasse,0,1960804
116,196010,Bhf. Warschauer Brücke,1,1960178
117,196010,Boxhagener Strasse,2,1960219
118,196010,Bhf. Stalineallee,3,1960170
119,196010,Roederplatz,4,1960986
120,196010,Hohensch nhauser Strasse,5,1960530
121,196010,Klement-Gottwald-Allee/Lichtenberger Strasse,6,1960618
122,196010,Antonplatz,7,196059
123,196010,Prenzlauer Promenade,8,1960919
124,196010,Sch nhauser Allee,9,19601044
125,196010,Bj rnsonstrasse,10,1960199
126,196011,Hobrechtstrasse,0,1960520
127,196011,U-Bhf. Südstern,1,19601257
128,196011,Mehringdamm,2,1960788
129,196011,Potsdamer Strasse,3,1960911
130,196011,Martin-Luther-Strasse,4,1960781
131,196011,Bundesallee Ecke Berliner Strasse,5,1960247
132,196011,Fehrbelliner Platz,6,1960345
133,196011,Kurfürstendamm,7,1960656
134,196011,Otto-Suhr-Allee,8,1960870
135,196011,OsnaBrücker Strasse,9,1960860
136,196011,Wiebestrasse,10,19601337
137,196011,Bhf. Beusselstrasse,11,1960123
138,196011,Schwedenstrasse,12,19601075
139,196011,Grüntaler Strasse,13,1960451
140,196012,Nonnendammallee,0,1960826
141,196012,Quellweg,1,1960931
142,196012,Bhf. Jungfernheide,2,1960144
143,196012,Tauroggener Strasse,3,19601178
144,196012,Wiebestrasse/Huttenstrasse,4,19601339
145,196012,Stromstrasse,5,19601161
146,196012,Rathenower Strasse,6,1960958
147,196012,Weddingplatz,7,19601314
148,196012,Nettelbeckplatz,8,1960811
149,196012,Nauener Platz,9,1960806
150,196012,Osloer Strasse,10,1960859
151,196012,Pankower Allee,11,1960882
152,196012,Kopenhagener Strasse,12,1960638
153,196012,Bhf. Wilhelmsruh,13,1960182
154,196013,Mühlenstrasse,0,1960804
155,196013,Bhf. Warschauer Brücke,1,1960178
156,196013,Grünberger Strasse,2,1960448
157,196013,Frankfurter Tor/Stalinallee,3,1960359
158,196013,Bersarinplatz,4,1960116
159,196013,Leninallee,5,1960702
160,196013,Kniprodestrasse,6,1960626
161,196013,Greifswalder Strasse,7,1960431
162,196013,Prenzlauer Allee,8,1960916
163,196013,U-Bhf. Dimitroffstrasse,9,19601220
164,196013,Oderberger Strasse,10,1960836
165,196014,Sandkrugbrücke,0,19601038
166,196014,Stromstrasse,1,19601161
167,196014,Gotzkowskystrasse,2,1960425
168,196014,U-Bhf. Ernst-Reuter-Platz,3,19601222
169,196014,Wilmersdorfer Strasse,4,19601359
170,196014,Kantstrasse,5,1960594
171,196014,Kurfürstendamm,6,1960656
172,196014,Fehrbelliner Platz,7,1960345
173,196014,Hildegardstrasse,8,1960515
174,196014,Bundesplatz,9,1960249
175,196014,Schlossstrasse,10,19601062
176,196014,Rathaus Steglitz,11,1960950
177,196014,Bhf. Steglitz,12,1960172
178,196014,Schützenstrasse,13,19601084
179,196014,Birkbuschstrasse,14,1960192
180,196015,"Niedersch nhausen, Schillerstrasse",0,1960820
181,196015,Nordend,1,1960830
182,196015,Ossietzkyplatz,2,1960862
183,196015,Kurt-Fischer-Platz,3,1960662
184,196015,"Pankow, Rathaus",4,1960879
185,196015,"Pankow, Kirche",5,1960877
186,196015,U-Bhf. Vinetastrasse,6,19601263
187,196015,S-Bhf. Sch nhauser Allee,7,19601024
188,196015,U-Bhf. Dimitroffstrasse,8,19601220
189,196015,Brunnenstrasse,9,1960233
190,196015,Invaliden- Ecke Chausseestrasse,10,1960561
191,196015,Oranienburger Tor,11,1960847
192,196015,"WeidendammBrücke, Bhf. Friedrichstrasse",12,19601316
193,196015,Clara-Zetkin-Strasse,13,1960268
194,196016,"Niedersch nhausen, Idastrasse bzw. Nordend",0,1960819
195,196016,Ossietzkyplatz,1,1960862
196,196016,Kurt-Fischer-Platz,2,1960662
197,196016,"Pankow, Rathaus",3,1960879
198,196016,"Pankow, Kirche",4,1960877
199,196016,U-Bhf. Vinetastrasse,5,19601263
200,196016,S-Bhf. Sch nhauser Allee,6,19601024
201,196016,U-Bhf. Dimitroffstrasse,7,19601220
202,196016,Brunnenstrasse,8,1960233
203,196016,Invaliden- Ecke Chausseestrasse,9,1960561
204,196016,"Oranienburger Tor, Hannoversche Strasse",10,1960849
205,196017,Hermannplatz,0,1960504
206,196017,Weichselstrasse,1,19601315
207,196017,Rathaus Neukölln,2,1960941
208,196017,Karl-Marx-Platz,3,1960595
209,196017,U-Bhf. Neukölln,4,19601242
210,196017,Silbersteinstrasse,5,19601103
211,196017,U-Bhf. Grenzallee,6,19601229
212,196017,Buschkrug,7,1960251
213,196017,Onkel-Herse-Strasse,8,1960841
214,196017,Parchimer Allee,9,1960886
215,196017,Krankenhause Neukölln,10,1960650
216,196017,Johannisthaler Chaussee,11,1960576
217,196017,Wildmeisterdamm,12,19601347
218,196017,Stubenrauchstrasse,13,19601162
219,196017,Köpenicker Strasse,14,1960683
220,196017,Bahnhofstrasse,15,196081
221,196018,"Buchholz, Hauptstrasse",0,1960238
222,196018,Blankenburger Weiche,1,1960202
223,196018,S-Bhf. Pankow-Heinersdorf,2,19601020
224,196018,"Pankow, Kirche",3,1960877
225,196018,U-Bhf. Vinetastrasse,4,19601263
226,196018,S-Bhf. Sch nhauser Allee,5,19601024
227,196018,U-Bhf. Dimitroffstrasse,6,19601220
228,196018,Rosenthaler Platz,7,1960991
229,196018,"Hackescher Markt, Große Präsidentenstrasse",8,1960460
230,196019,Nollendorfplatz,0,1960824
231,196019,Wittenbergplatz,1,19601370
232,196019,Bhf. Zoo,2,1960189
233,196019,U-Bhf. Reuter-Platz,3,19601248
234,196019,Richard-Wagner-Platz,4,1960976
235,196019,Luisenplatz,5,1960736
236,196019,Königin-Elisabeth-Strasse,6,1960669
237,196019,Kirschenallee,7,1960610
238,196019,Schloss Ruhwald,8,19601058
239,196019,U-Bhf. Ruhleben,9,19601250
240,196019,Teltower Strasse,10,19601187
241,196019,"Spandau, Markt",11,19601113
242,196019,Carl-Schurz-Strasse,12,1960257
243,196019,Hafenplatz,13,1960463
245,196019,Hohenzollernring,14,1960538
246,196019,Hakenfelde,15,1960466
247,196020,Nollendorfplatz,0,1960824
248,196020,Wittenbergplatz,1,19601370
249,196020,Bhf. Zoo,2,1960189
250,196020,U-Bhf. Ernst-Reuter-Platz,3,19601222
251,196020,Richard-Wagner-Platz,4,1960976
252,196020,Luisenplatz,5,1960736
253,196020,Königin-Elisabeth-Strasse,6,1960669
254,196020,Kirschenallee,7,1960610
255,196020,Schloss Ruhwald,8,19601058
256,196020,U-Bhf. Ruhleben,9,19601250
257,196020,Teltower Strasse,10,19601187
258,196020,"Spandau, Markt",11,19601113
259,196020,Carl-Schurz-Strasse,12,1960257
260,196020,Hafenplatz,13,1960463
261,196020,Hohenzollernring,14,1960537
263,196020,Johannesstift,15,1960573
264,196021,Nollendorfplatz,0,1960824
265,196021,Wittenbergplatz,1,19601370
266,196021,Bhf. Zoo,2,1960189
267,196021,U-Bhf. Ernst-Reuter-Platz,3,19601222
268,196021,Cauerstrasse,4,1960259
269,196021,Richard-Wagner-Platz,5,1960976
270,196021,Luisenplatz,6,1960736
271,196021,OsnaBrücker Strasse,7,1960860
272,196021,Bhf. Jungfernheide,8,1960144
273,196021,Siemensplatz,9,19601100
274,196021,Quellweg,10,1960931
275,196021,Paulsternstrasse,11,1960890
276,196021,Zitadellenweg,12,19601392
277,196021,"Spandau, Markt",13,19601113
278,196021,Rathaus Spandau,14,1960948
279,196021,Nauener Strasse,15,1960808
280,196022,Wintersteinstrasse,0,19601362
281,196022,U-Bhf. Ernst-Reuter-Platz,1,19601222
282,196022,Bhf. Zoo,2,1960189
283,196022,Wittenbergplatz,3,19601370
284,196022,Rathaus Sch neberg,4,1960945
285,196022,Hauptstrasse,5,1960480
286,196022,Bhf. Papestrasse,6,1960160
287,196022,Tempelhofer Damm,7,19601191
288,196022,Gottlieb-Dunkel-Strasse,8,1960421
289,196022,Britzer Damm,9,1960229
290,196022,Buschkrug,10,1960251
291,196022,U-Bhf. Grenzallee,11,19601229
292,196022,Bhf. Neukölln,12,1960157
293,196022,Rathaus Neukölln,13,1960941
294,196022,Elsenstrasse,14,1960322
295,196023,Königin-Elisabeth-Strasse,0,1960669
296,196023,Spandauer Damm,1,19601115
297,196023,Klausenerplatz,2,1960612
298,196023,Schloßstrasse Ecke Spandauer Damm,3,19601066
299,196023,Kaiser-Friedrich-Strasse,4,1960580
300,196023,Stuttgarter Platz,5,19601164
301,196023,Kurfürstendamm,6,1960656
302,196023,Fehrbelliner Platz,7,1960345
303,196023,Bundesallee Ecke Berliner Strasse,8,1960247
304,196023,Martin-Luther-Strasse,9,1960781
305,196023,Rathaus Sch neberg,10,1960945
306,196023,Hauptstrasse (Sch neberg),11,1960481
307,196023,Bhf. Papestrasse,12,1960160
308,196023,Bosestrasse,13,1960216
309,196023,Eythstrasse,14,1960335
310,196024,"Hohensch nhausen, Gartenstadt",0,1960529
311,196024,Falkenbergerstrasse Ecke Wartenberger Strasse,1,1960340
312,196024,Degnerstrasse,2,1960287
313,196024,Weißenseer Weg,3,19601326
314,196024,Steuerhaus,4,19601145
315,196024,Dimitroffstrasse,5,1960293
318,196024,Leninplatz,6,1960704
319,196024,"Alexanderplatz, Memhardstrasse",7,196016
320,196024,"Hackescher Markt, Große Präsidentenstrasse",8,1960460
321,196025,"Hohensch nhausen, Falkenberger Strasse",0,1960528
322,196025,Degnerstrasse,1,1960287
323,196025,Weißenseer Weg,2,19601326
324,196025,Steuerhaus,3,19601145
325,196025,Dimitroffstrasse,4,1960293
328,196025,Leninplatz,5,1960704
329,196025,"Alexanderplatz, Grunestrasse",6,196015
330,196025,Jacobystrasse,7,1960566
331,196025,U-Bhf. Neanderstrasse,8,19601241
332,196025,Spittelmarkt,9,19601119
333,196025,D nhoffplatz,10,1960276
334,196026,Belziger Strasse,0,196093
335,196026,Hauptstrasse (Sch neberg),1,1960481
336,196026,Innsbrucker Platz,2,1960559
337,196026,Traegerstrasse,3,19601202
338,196026,Cecilieng rten,4,1960260
339,196026,Rembrandtstrasse,5,1960969
340,196026,Canovastrasse (Krankenhaus),6,1960256
341,196026,Thorwaldsenstrasse,7,19601195
342,196026,Bergstrasse,8,196099
343,196027,"Johannisthal, Haeckelstrasse",0,1960574
344,196027,Königsweide,1,1960677
345,196027,Bhf. Schöneweide,2,1960166
346,196027,Wilhelminenhofstrasse,3,19601349
347,196027,S-Bhf. Karlshorst,4,19601013
348,196027,Hochschule f r konomie,5,1960523
349,196027,Tierpark Berlin,6,19601200
350,196027,Schlossstrasse Ecke Alt-Friedrichsfelde,7,19601064
351,196027,Bhf. Lichtenberg,8,1960146
352,196027,"BVG-Bf. Lichtenberg, Siegfriedstrasse",9,196070
353,196027,Klubhaus VEB Elektrokohle,10,1960624
354,196027,Roederplatz,11,1960986
355,196027,Steuerhaus,12,19601145
356,196027,Dimitroffstrasse,13,1960293
359,196027,Leninplatz,14,1960704
360,196027,"Alexanderplatz, Memhardstrasse",15,196016
361,196027,Hackescher Markt,16,1960459
362,196027,Oranienburger Tor,17,1960847
363,196027,Invalidenstrasse Ecke Chausseestrasse,18,1960562
364,196027,Walter-Ulbricht-Stadion,19,19601296
365,196028,"Johannisthal, Haeckelstrasse",0,1960574
366,196028,Königsweide,1,1960677
367,196028,Bhf. Schöneweide,2,1960166
368,196028,Wilhelminenhofstrasse,3,19601349
369,196028,S-Bhf. Karlshorst,4,19601013
370,196028,Hochschule f r konomie,5,1960523
371,196028,Tierpark Berlin,6,19601200
372,196028,Schlossstrasse Ecke Alt-Friedrichsfelde,7,19601064
373,196028,Bhf. Lichtenberg,8,1960146
374,196028,"BVG-Bf. Lichtenberg, Siegfriedstrasse",9,196070
375,196028,Klubhaus VEB Elektrokohle,10,1960624
376,196028,Roederplatz,11,1960986
377,196028,Steuerhaus,12,19601145
378,196028,Dimitroffstrasse,13,1960293
381,196028,Kniprodestrasse,14,1960626
382,196029,"Hohensch nhausen, Falkenberger Strasse",0,1960528
383,196029,Stadion Buschallee,1,19601127
384,196029,Buschallee Ecke Klement-Gottwald-Allee,2,1960250
385,196029,Antonplatz,3,196059
386,196029,Prenzlauer Promenade,4,1960919
387,196029,Humannplatz,5,1960548
388,196029,U-Bhf. Dimitroffstrasse,6,19601220
389,196029,Brunnenstrasse,7,1960233
390,196029,Invalidenstrasse Ecke Chausseestrasse,8,1960562
391,196029,Oranienburger Tor,9,1960847
392,196029,"WeidendammBrücke, Bhf. Friedrichstrasse",10,19601316
393,196029,Am Kupfergraben (Haus der Frau),11,196042
394,196030,"Heinersdorf, Romain-Rolland-Str.",0,1960499
395,196030,"Heinersdorf, Kirche",1,1960498
396,196030,Am Steinberg,2,196047
397,196030,Prenzlauer Allee Ecke Wisbyer Strasse,3,1960918
398,196030,S-Bhf. Prenzlauer Allee,4,19601021
401,196030,Dimitroffstrasse,5,1960295
402,196030,SaarBrücker Strasse,6,19601032
403,196030,Prenzlauer Tor,7,1960921
404,196030,"Alexanderplatz, Grunerstrasse",8,196014
405,196030,"J denstrasse, Mokenmarkt",9,1960563
406,196031,"Weißensee, Pasedagplatz",0,19601322
407,196031,Klement-Gottwald-Allee Ecke Bernkasteler Strasse,1,1960617
408,196031,Antonplatz,2,196059
409,196031,Prenzlauer Promenade,3,1960919
410,196031,S-Bhf. Prenzlauer Allee,4,19601021
413,196031,Dimitroffstrasse,5,1960295
414,196031,SaarBrücker Strasse,6,19601032
415,196031,Prenzlauer Tor,7,1960921
416,196031,"Alexanderplatz, Grunerstrasse",8,196014
417,196031,"J denstrasse, Molkenmarkt",9,1960564
418,196031,Spittelmarkt,10,19601119
419,196031,Taubenstrasse,11,19601176
420,196032,Bhf. Lichterfelde-Ost,0,1960149
421,196032,Wiesenbaude,1,19601343
422,196032,Moltkestrasse,2,1960796
424,196032,Schlossstrasse,4,19601062
425,196032,Rathaus Steglitz,5,1960950
426,196032,Bundesallee,6,1960245
427,196032,Kaisereiche,7,1960586
428,196032,Lauterplatz,8,1960695
429,196032,Innsbrucker Platz,9,1960559
430,196032,Dominicusstrasse,10,1960298
431,196032,Albertstrasse,11,19608
432,196032,Kaiser-Wilhelm-Platz,12,1960582
433,196032,U-Bhf. Bülowstrasse,13,19601218
434,196032,Lützowstrasse,14,1960747
435,196032,Potsdamer Platz,15,1960906
436,196033,Finckensteinallee,0,1960351
437,196033,Wiesenbaude,1,19601343
438,196033,Moltkestrasse,2,1960796
440,196033,Schlossstrasse,4,19601062
441,196033,Rathaus Steglitz,5,1960950
442,196033,Bundesallee,6,1960245
443,196033,Kaisereiche,7,1960586
444,196033,Lauterplatz,8,1960695
445,196033,Innsbrucker Platz,9,1960559
446,196033,Dominicusstrasse,10,1960298
447,196033,Albertstrasse,11,19608
448,196033,Kaiser-Wilhelm-Platz,12,1960582
449,196033,U-Bhf. Bülowstrasse,13,19601218
450,196033,Lützowstrasse,14,1960747
451,196033,Potsdamer Platz,15,1960906
452,196034,"Wie ensee, Pasedagplatz",0,19601335
453,196034,BVG-Bf. Weißensee,1,196072
454,196034,Klement-Gottwald-Allee Ecke Bernkasteler Strasse,2,1960617
455,196034,Antonplatz,3,196059
456,196034,S-Bhf. Greifswalder Strasse,4,19601010
458,196034,Dimitroffstrasse,5,1960294
460,196034,Königstor,6,1960674
461,196034,"Alexanderplatz, Grunerstrasse",7,196014
462,196034,"J denstrasse, Molkenmarkt",8,1960564
463,196034,Spittelmarkt,9,19601119
464,196034,Leipziger Platz,10,1960700
465,196035,Klement-Gottwald-Allee,0,1960615
466,196035,Antonplatz,1,196059
467,196035,S-Bhf. Greifswalder Strasse,2,19601010
469,196035,Dimitroffstrasse,3,1960294
471,196035,Königstor,4,1960674
472,196035,"Alexanderplatz, Grunerstrasse",5,196014
473,196035,"J denstrasse, Molkenmarkt",6,1960564
474,196036,"Bhf. Zoo, Kantstrasse",0,1960190
475,196036,Wilmersdorfer Strasse,1,19601359
476,196036,Amtsgericht,2,196052
477,196036,Messedamm,3,1960793
478,196036,Reichskanzlerplatz,4,1960963
479,196036,Bhf. Heerstrasse,5,1960137
480,196036,Reichssportfeldstrasse,6,1960966
481,196036,St enseeBrücke,7,19601123
482,196036,Pichelsdorfer Strasse,8,1960896
483,196036,"Weverstrasse, Strassenbahnhof",9,19601332
484,196036,Seeburger Strasse,10,19601089
485,196036,Rathaus Spandau,11,1960948
486,196036,"Spandau, Markt",12,19601113
487,196036,Hafenplatz,13,1960463
489,196036,Hohenzollernring,14,1960538
490,196036,Hakenfelde,15,1960466
491,196037,"Spandau, Johannesstift",0,19601112
492,196037,Hohenzollernring,1,1960537
494,196037,Hafenplatz,2,1960463
495,196037,"Spandau, Markt",3,19601113
496,196037,Rathaus Spandau,4,1960948
497,196037,Seeburger Strasse,5,19601089
498,196037,"Weverstrasse, Strassenbahnhof",6,19601332
499,196037,Pichelsdorfer Strasse,7,1960896
500,196037,Stössenseebrücke,8,19601166
501,196037,Reichssportfeldstrasse,9,1960966
502,196037,Bhf. Heerstrasse,10,1960137
503,196037,Reichskanzlerplatz,11,1960963
504,196037,Messedamm,12,1960793
505,196037,Amtsgericht,13,196052
506,196037,Wilmersdorfer Strasse,14,19601359
507,196037,Kanststrasse Ecke Joachimsthaler Strasse,15,1960592
508,196038,Bhf. Zoo,0,1960189
509,196038,Wittenbergplatz,1,19601370
510,196038,Grunewaldstrasse,2,1960446
511,196038,Bundesallee Ecke Berliner Strasse,3,1960247
512,196038,Bundesplatz,4,1960249
513,196038,Friedrich-Wilhelm-Platz,5,1960372
514,196038,Schlossstrasse,6,19601062
515,196038,Rathaus Steglitz,7,1960950
516,196038,Hindenburgdamm,8,1960517
518,196038,Bhf. Botanischer Garten,10,1960124
519,196038,Bhf. Lichterfelde-West,11,1960151
520,196038,Rittberg-Krankenhaus,12,1960982
522,196038,Wismarer Strasse,13,19601365
523,196038,Goerzallee,14,1960416
524,196039,Bhf. Zoo,0,1960189
525,196039,Wittenbergplatz,1,19601370
526,196039,Grunewaldstrasse,2,1960446
527,196039,Bundesallee Ecke Berliner Strasse,3,1960247
528,196039,Bundesplatz,4,1960249
529,196039,Friedrich-Wilhelm-Platz,5,1960372
530,196039,Schlossstrasse,6,19601062
531,196039,Rathaus Steglitz,7,1960950
532,196039,Hindenburgdamm,8,1960517
534,196039,Bhf. Botanischer Garten,10,1960124
535,196039,Bhf. Lichterfelde-West,11,1960151
536,196039,Rittberg-Krankenhaus,12,1960982
537,196039,Goerzallee,13,1960416
538,196039,Lichterfelde Süd Lindenstrasse,14,1960720
539,196040,"Mahlsdorf-Süd, Hubertus",0,1960756
540,196040,S-Bhf. Köpenick,1,19601016
541,196040,Bahnhofstrasse Ecke Lindenstrasse,2,196083
542,196040,Parkstrasse,3,1960888
543,196040,Wilhelminenhof- Ecke Edisonstrasse,4,19601348
544,196040,Treskowallee Ecke Ehrlichstrasse,5,19601206
545,196040,Blockdammweg Ecke Köpenicker Chaussee,6,1960206
546,196040,Hauptstrasse Ecke Karlshorster Strasse,7,1960483
547,196040,S-Bhf. Ostkreuz,8,19601019
548,196040,Stralauer Allee Ecke Markgrafendamm,9,19601148
549,196040,Warschauer Strasse,10,19601307
550,196040,Ostbahnhof,11,1960865
551,196040,Andreasstrasse,12,196055
552,196040,Blumenstrasse/Schicklerstrasse,13,1960207
553,196040,"Alexanderplatz, Grunerstrasse",14,196014
554,196040,Elisabethstrasse,15,1960320
555,196041,Wendenschloß Ecke Ekhofstrasse,0,19601327
556,196041,Strassenbahnhof Köpenick,1,19601153
557,196041,Schüßlerplatz,2,19601085
558,196041,Lindenstrasse Ecke Bahnhofstrasse,3,1960728
559,196041,S-Bhf. Köpenick,4,19601016
560,196041,Uhlenhorst,5,19601267
561,196041,Mahlsdorf-Süd,6,1960755
562,196041,Hubertus,7,1960546
563,196041,Bütower Strasse,8,1960254
564,196041,S-Bhf. Mahlsdorf,9,19601018
565,196042,"Altglienicke, Am Falkenberg",0,196035
566,196042,Köpenicker Strasse,1,1960683
567,196042,Benzolwerk,2,196095
568,196042,S-Bhf. Adlershof,3,19601004
569,196042,Marktplatz,4,1960779
570,196042,S-Bhf. Spindlersfeld,5,19601026
571,196042,Köllnischer Platz,6,1960667
572,196042,Schüßlerplatz,7,19601085
573,196042,Lindenstrasse Ecke Bahnhofstrasse,8,1960728
574,196042,Seelenbinderstrasse,9,19601092
575,196042,Hirschgarten,10,1960519
576,196042,Fürstenwalder Damm,11,1960385
577,196042,S-Bhf. Friedrichshagen,12,19601009
578,196042,Brauerei,13,1960222
579,196042,"Friedrichshagen, Wasserwerk",14,1960377
580,196043,Alt-Schmöckwitz,0,196030
581,196043,Vetschauer Allee,1,19601277
582,196043,Richtershorn,2,1960979
583,196043,Regattahäuser,3,1960959
584,196043,Bhf. Grünau,4,1960135
585,196043,Chemische Fabrik,5,1960265
586,196043,Vollkropfgraben,6,19601283
587,196043,Köllnischer Platz,7,1960667
588,196043,Schüßlerplatz,8,19601085
589,196043,Lindenstrasse Ecke Bahnhofstrasse,9,1960728
590,196043,S-Bhf. Köpenick,10,19601016
591,196043,Uhlenhorst,11,19601267
592,196043,"Mahlsdorf-Süd, Hubertus",12,1960756
593,196044,Rahnsdorf,0,1960934
594,196044,S-Bhf. Friedrichshagen,1,19601009
595,196044,Hirschgarten,2,1960519
596,196044,Bahnhofstrasse Ecke Lindenstrasse,3,196083
597,196044,Parkstrasse,4,1960888
598,196044,Wilhelminenhofstrasse Ecke Edisonstrasse,5,19601350
599,196044,Bhf. Schöneweide,6,1960166
600,196044,Köpenicker Landstrasse Ecke Baumschulenstrasse,7,1960681
601,196044,Am Treptower Park Ecke Bulgarische Strasse,8,196048
602,196044,Elsenstrasse,9,1960322
603,196044,Wiener Brücke,10,19601340
604,196045,Stadtpark,0,19601132
605,196045,Lauenburger Platz,1,1960694
606,196045,Kaisereiche,2,1960586
607,196045,Innsbrucker Platz,3,1960559
608,196045,Dominicusstrasse,4,1960298
609,196045,Eisenacher Strasse,5,1960318
610,196045,Kaiser-Wilhelm-Platz,6,1960582
611,196045,U-Bhf. Bülowstrasse,7,19601218
612,196045,Lützowstrasse,8,1960747
613,196045,Anhalter Bahnhof,9,196057
614,196045,U-Bhf. Kochstrasse,10,19601234
615,196045,Oranienstrasse,11,1960853
616,196045,U-Bhf. Moritzplatz,12,19601240
617,196045,Skalitzer Strasse,13,19601104
618,196045,Spreewaldplatz,14,19601121
619,196045,Wiener Brücke,15,19601340
620,196046,"Treptow, Flutgraben",0,19601203
621,196046,S-Bhf. Treptow,1,19601027
622,196046,Bulgarische Strasse,2,1960243
623,196046,Baumschulenstrasse,3,196085
624,196046,Bhf. Schöneweide,4,1960166
625,196046,Britzer Strasse,5,1960230
626,196046,Bhf. Oberspree,6,1960159
627,196047,Attilaplatz,0,196065
628,196047,Berlinickeplatz,1,1960108
629,196047,Hoeppnerstrasse,2,1960524
630,196047,Adolf-Scheidt-Platz,3,19603
631,196047,U-Bhf. Flughafen,4,19601225
632,196047,Gneisenaustrasse,5,1960413
633,196047,Blöcherplatz,6,1960208
634,196047,Baerwaldstrasse,7,196076
635,196047,Urban-Krankenhaus,8,19601272
636,196047,Hermannplatz,9,1960504
637,196047,Erkstrasse,10,1960332
638,196047,Hertzbergplatz,11,1960512
639,196047,Bhf. Sonnenallee,12,1960168
640,196047,Schulenburgpark,13,19601069
641,196047,Schwarzer Weg,14,19601074
642,196048,"Baumschulenweg, Sonnenallee",0,196088
643,196048,Köpenicker landstrasse,1,1960686
644,196048,S-Bhf. Schöneweide,2,19601025
645,196048,"Wilhelminenhofstrasse, Edisonstrasse",3,19601351
646,196048,Pionierrepublik,4,1960897
647,196048,"Lindenstrasse, Bahnhofstrasse",5,1960729
648,196048,Grünstrasse,6,1960450
649,196048,"Köpenick, Krankenhaus",7,1960680
650,196049,Machnower Schleuse,0,1960750
651,196049,Alte Wagenhalle,1,196034
652,196049,Neue Wagenhalle,2,1960814
653,196049,Hamburger Platz,3,1960471
654,196049,Ruhlsdorfer Platz,4,1960995
655,196049,Fritz-Reuter Strasse,5,1960381
656,196049,"Teltow, Paul-Gerhardt-Strasse",6,19601184
657,196050,U-Bhf. Tempelhof,0,19601259
658,196050,Alt-Tempelhof,1,196031
659,196050,Kaiserin-Augusta-Strasse,2,1960587
660,196050,Friedrich-Karl-Strasse,3,1960370
661,196050,Attilaplatz,4,196065
662,196050,Röblingstrasse,5,1960999
663,196050,Bhf. Mariendorf,6,1960154
664,196050,Friedrichstrasse,7,1960379
665,196050,"Lankwitz, Kirche",8,1960693
666,196050,Seydlitzstrasse,9,19601098
667,196050,Bhf. Lichterfelde-Ost,10,1960149
668,196050,Berliner Strasse,11,1960106
669,196050,Glesendorfer Strasse,12,1960406
670,196050,Osdorfer Strasse,13,1960855
671,196050,Wismarer Strasse,14,19601364
673,196050,Schwelmer Strasse,15,19601076
674,196051,Mehringplatz (Hallesches Tor),0,1960791
675,196051,Yorckstrasse/Gneisenaustrasse,1,19601382
676,196051,U-Bhf. Flughafen,2,19601225
677,196051,U-Bhf. Paradestrasse,3,19601246
678,196051,Bahnhof Tempelhof,4,196079
679,196051,Alt-Tempelhof,5,196031
680,196051,Kaiserin-Augusta-Strasse,6,1960587
681,196051,Friedrich-Karl-Strasse,7,1960370
682,196051,Kaiserstrasse,8,1960589
683,196051,Prühßstrasse,9,1960927
684,196051,Mariendorfer Damm Ecke Alt-Mariendorf,10,1960769
685,196051,Grossbeerenstrasse Ecke Daimlerstrasse,11,1960438
686,196051,Daimlerstrasse Ecke Birnhornweg,12,1960282
687,196052,Lindenstrasse,0,1960727
688,196052,Mehringplatz,1,1960790
689,196052,Yorckstrasse,2,19601381
690,196052,U-Bhf. Flughafen,3,19601225
691,196052,Flughafen Tempelhof,4,1960357
692,196052,Alt-Tempelhof,5,196031
693,196052,Rathaus Tempelhof,6,1960951
694,196052,Kaiserin-Augusta-Strasse,7,1960587
695,196052,Friedrich-Karl-Strasse,8,1960370
696,196052,Kaiserstrasse,9,1960589
697,196052,Alt-Mariendorf,10,196023
698,196052,Rennbahn,11,1960970
699,196052,Marienfelder Chaussee,12,1960774
700,196052,Marienfelder Strasse,13,1960776
701,196052,Bhf. Lichtenrade,14,1960147
702,196053,Waldstrasse,0,19601293
703,196053,Otto-Surh-Allee,1,1960871
704,196053,Kurfürstendamm Ecke Konstanzer Strasse,2,1960657
705,196053,U-Bhf. Fehrbelliner Platz,3,19601223
706,196053,Detmolder Strasse,4,1960288
707,196053,Breitenbachplatz,5,1960225
708,196053,Botanischer Garten,6,1960217
709,196053,Pacelli-/Thielallee,7,1960873
710,196053,Clayallee,8,1960269
711,196053,U-Bhf. Oskar-Helene-Heim,9,19601244
712,196053,Potsdamer Strasse Ecke Clayallee,10,1960912
713,196053,Bhf. Zehlendorf,11,1960187
714,196053,Beeskowdamm,12,196090
715,196053,Wismarer Strasse,13,19601363
716,196053,Lindenstrasse,14,1960726
717,196054,"Haselhorst, Kirche",0,1960476
718,196054,Paulsternstrasse,1,1960889
719,196054,Verwaltungs-Gebäude,2,19601276
720,196054,Spandauer Damm,3,19601114
721,196054,U-Bhf. Kaiserdamm,4,19601233
722,196054,Amtsgerichsplatz,5,196051
723,196054,Kurfürstendamm,6,1960655
724,196054,Bhf. Halensee,7,1960136
725,196054,Elsterplatz,8,1960323
726,196054,Hundekehlestrasse,9,1960551
727,196054,Königin-Luise-Strasse,10,1960670
729,196054,U-Bhf. Thielplatz,11,19601260
730,196054,Dahlemer Weg,12,1960279
731,196054,Teltower Damm,13,19601185
732,196054,Behring-Krankenhaus,14,196091
733,196054,Lupsteiner Weg,15,1960737
734,196055,Saargem nder Strasse,0,19601033
735,196055,U-Bhf. Oskar-Helene-Heim,1,19601244
736,196055,Ihnestrasse,2,1960553
737,196055,Corrensplatz,3,1960273
738,196055,Under den Eichen,4,19601269
739,196055,Bhf. Lichterfelde-West,5,1960150
740,196055,Ringstrasse,6,1960981
741,196055,Wiesenbaude,7,19601342
742,196055,Berliner Strasse,8,1960102
746,196055,Marienstrasse,9,1960777
747,196055,Bismarckstrasse,10,1960196
750,196055,Bhf. Lichterfelde-Ost,11,1960148
751,196055,Lange Strasse,12,1960689
752,196055,Hildburghauser Strasse,13,1960514
753,196055,Trippsteinstrasse,14,19601209
754,196056,Weddingplatz,0,19601313
755,196056,Schulstrasse,1,19601070
756,196056,U-Bhf. Seestrasse,2,19601254
757,196056,Barfusstrasse,3,196084
758,196056,Bristolstrasse,4,1960228
759,196056,Emmentaler Strasse,5,1960324
761,196056,Lindauer Strasse Ecke Aroser Allee,6,1960723
762,196056,Lindenweg,7,1960731
764,196056,Holzhauser Strasse,8,1960543
765,196056,Cyclopstrasse,9,1960275
766,196056,Zabel-Krüger-Damm,10,19601383
767,196056,Kirchstrasse,11,1960609
769,196056,Hermsdorfer Damm,12,1960510
770,196056,Bhf. Frohnau,13,1960130
771,196056,Donnersmarckplatz,14,1960300
772,196056,Hainbuchenstrasse,15,1960465
773,196057,Weddingplatz,0,19601313
774,196057,Schulstrasse,1,19601070
775,196057,U-Bhf. Seestrasse,2,19601254
776,196057,Barfusstrasse,3,196084
777,196057,Emmentaler Strasse,4,1960324
779,196057,Lindauer Strasse Ecke Aroser Allee,5,1960723
781,196057,Oranienburger Strasse,6,1960845
782,196057,Rathaus Reinickendorf,7,1960943
783,196057,Cyclopstrasse,8,1960275
784,196057,Zabel-Krüger-Damm,9,19601383
785,196057,Schildower Strasse,10,19601050
787,196057,Hermsdorfer Damm,11,1960510
788,196057,Oswinsteig,12,1960869
789,196057,Hohefeldstrasse,13,1960525
790,196057,Im Fischgrund,14,1960554
791,196057,Bhf. Frohnau,15,1960130
792,196058,Alt-Heiligensee,0,196020
793,196058,Am Dachsbau,1,196038
794,196058,Gabelung,2,1960389
795,196058,Ruppiner Chaussee,3,1960998
796,196058,U-Bhf. Tegel,4,19601258
799,196058,Bernauer Strasse,5,1960113
800,196058,Krankenhaus Tegel-Süd,6,1960648
801,196058,Strasse nach Staatwinkel,7,19601151
802,196058,Paulsternstrasse,8,1960889
803,196058,Daumstrasse,9,1960286
804,196058,Havelstrasse,10,1960485
805,196058,Rathaus Spandau,11,1960947
806,196058,Pichelsdorfer Strasse,12,1960895
807,196058,Päwesiner Weg,13,1960929
809,196058,Heerstrasse,14,1960491
811,196058,Weinmeisterhornweg,15,19601318
812,196059,Alt-Heiligensee,0,196020
813,196059,Mattenbuder Pfad,1,1960786
814,196059,Bhf. Heiligensee,2,1960138
815,196059,Bhf. Schulzendorf,3,1960164
816,196059,Heiligenseestrasse,4,1960495
817,196059,U-Bhf. Tegel,5,19601258
818,196059,Ziekowstrasse,6,19601391
819,196059,Nordgraben,7,1960832
821,196059,Holzhauser Strasse,8,1960543
822,196059,Lindenweg,9,1960731
823,196059,Aroser Allee,10,196061
824,196059,Kopenhagener Strasse,11,1960637
825,196059,Pankower Allee,12,1960881
826,196059,Pankstrasse,13,1960883
827,196059,U-Bhf. Gesundbrunnen,14,19601227
828,196059,Rügener Strasse,15,19601002
829,196060,Lübarser Strasse,0,1960743
830,196060,Bhf. Wittenau,1,1960183
832,196060,Alt-Wittenau,2,196033
833,196060,Tor 5,3,19601201
834,196060,Bhf. Eichbornstrasse,4,1960126
835,196060,Holzhauser Strasse,5,1960542
837,196060,Borsigwalder Weg,6,1960214
838,196060,GorkiStrasse,7,1960418
839,196060,U-Bhf. Tegel,8,19601258
840,196060,Hermsdorfer Damm,9,1960509
842,196060,Am Flie,10,196039
843,196060,Schulzendorfer Strasse,11,19601072
844,196060,Bhf. Hermsdorf,12,1960140
845,196060,Dominikus-Krankenhaus,13,1960299
846,196060,Donnersmarckplatz,14,1960300
847,196060,Bhf. Frohnau,15,1960130
848,196061,Louise-Schroeder-Platz,0,1960733
849,196061,U-Bhf. Seestrasse,1,19601254
850,196061,Afrikanische Strasse,2,19605
852,196061,Virchow-Krankenhaus,3,19601281
853,196061,Bhf. PutlitzStrasse,4,1960161
854,196061,TurmStrasse,5,19601210
855,196061,Hansaplatz,6,1960473
856,196061,Tiergartenstrasse,7,19601199
857,196061,Lützowplatz,8,1960744
858,196061,EinemStrasse,9,1960317
859,196061,Rathaus Sch neberg,10,1960944
860,196061,Innsbrucker Platz,11,1960557
861,196061,Bundesplatz,12,1960248
862,196061,Wiesbadener Strasse,13,19601341
863,196061,Breitenbachplatz,14,1960225
864,196061,Englerallee,15,1960328
865,196062,Bhf. Grunewald,0,1960134
866,196062,Hagenplatz,1,1960464
867,196062,Rosenecke,2,1960989
868,196062,Warnem nder Strasse,3,19601302
869,196062,U-Bhf. Rüdesheimer Platz,4,19601251
870,196062,Friedriche-Wilhelm-Platz,5,1960373
871,196062,Bundesallee,6,1960244
872,196062,Rathaus Steglitz,7,1960949
873,196062,Stadtpark,8,19601131
874,196062,LeonorenStrasse,9,1960706
875,196062,Stadion Lichterfelde,10,19601128
876,196062,Wilhelmstrasse,11,19601355
877,196062,BismarckStrasse,12,1960194
878,196062,Oberhofer Platz,13,1960834
879,196062,Saaleckplatz,14,19601031
880,196063,Saargem nder Strasse,0,19601033
881,196063,U-Bhf. Oskar-Helene-Heim,1,19601244
882,196063,Sophie-Charlotten-Strasse,2,19601108
883,196063,Scharfestrasse,3,19601045
884,196063,Potsdamer Strasse Ecke Clayallee,4,1960912
885,196063,Mittelstrasse,5,1960795
886,196063,Wolzogenstrasse,6,19601377
887,196063,Benschallee,7,196094
888,196063,Waldfriedhof,8,19601290
889,196063,Quantzstrasse,9,1960930
890,196063,Kronprinzessinen Weg,10,1960652
891,196063,Am Grossen Wannsee,11,196040
892,196063,Pfaueninsel-Chaussee,12,1960893
893,196063,Rathaus Wannsee,13,1960953
894,196063,St lpchensee,14,19601124
895,196063,Kohlhasenbr ck,15,1960630
896,196064,Roseneck,0,1960987
897,196064,Hagenplatz,1,1960464
898,196064,Erdener Strasse,2,1960329
899,196064,Bhf. Halensee,3,1960136
900,196064,Wilmersdorfer Strasse,4,19601358
901,196064,Olivaer Platz,5,1960838
902,196064,Joachimstaler Strasse,6,1960571
903,196064,Breitscheidplatz,7,1960227
904,196064,Wittenbergplatz,8,19601369
905,196064,Nollendorfplatz,9,1960823
907,196064,Potsdamer Strasse,10,1960909
909,196064,Bhf. Yorckstrasse,11,1960185
910,196064,Katzbachstrasse,12,1960604
911,196064,Mehringdamm,13,1960787
912,196064,U-Bhf. Flughafen,14,19601224
913,196064,Flughafen,15,1960354
914,196065,Strasse des 17. Juni,0,19601150
915,196065,U-Bhf. Ernst-Reuter-Platz,1,19601221
916,196065,Bhf. Zoo,2,1960188
917,196065,U-Bhf. Spichernstrasse,3,19601255
921,196065,Berliner Strasse,4,1960105
922,196065,Bundesplatz,5,1960248
923,196065,Friedrich-Wilhelm-Platz,6,1960371
924,196065,Schlossstrasse,7,19601061
925,196065,Bhf. Feuerbachstrasse,8,1960128
927,196065,Bergstrasse,9,196098
928,196065,Steglitzer Damm,10,19601142
929,196065,Leonorenstrasse,11,1960707
930,196065,"Lankwitz, Kirche",12,1960692
931,196065,Havensteinstrasse,13,1960486
932,196065,Lerbacher Weg,14,1960710
933,196065,Trippsteinstrasse,15,19601209
934,196066,Tegelort,0,19601181
935,196066,Walderseestrasse,1,19601288
936,196066,Falkenplatz,2,1960341
937,196066,Mühlenstrasse,3,1960803
938,196066,Heiligenseestrasse,4,1960495
939,196066,Karolinenstrasse,5,1960599
940,196066,U-Bhf. Tegel,6,19601258
941,196066,Hatzfeldallee,7,1960478
942,196066,Martin-Luther-Friedhof,8,1960780
943,196066,Freie Scholle,9,1960364
944,196066,Waldstrasse Ecke Waidmannslust,10,19601294
945,196066,Bhf. Waidmannslust,11,1960176
946,196066,Oraniendamm,12,1960850
947,196066,Am Vierrutenbert,13,196049
948,196066,"Lübars, Dorfaue",14,1960742
949,196067,Wentowsteig,0,19601328
950,196067,Oranienburger Strasse,1,1960844
953,196067,Alt-Wittenau,2,196033
954,196067,Bhf. Eichbornstrasse,3,1960126
955,196067,Scharnweberstrasse,4,19601048
956,196067,Kurt-Schumacher-Platz,5,1960664
957,196067,Kaserne Südtor,6,1960602
958,196067,Heckerdamm,7,1960487
959,196067,Bhf. Jungfernheide,8,1960143
960,196067,Luisenplatz,9,1960735
961,196067,Kantstrasse,10,1960593
962,196067,Stuttgarter Platz,11,19601163
963,196067,Amtsgericht Charlottenburg,12,196053
964,196067,Kurfürstendamm,13,1960655
965,196067,Bhf. Hohenzollerndamm,14,1960141
966,196067,U-Bhf. Fehrbelliner Platz,15,19601223
967,196068,"Hessenwinkel, Lindenstrasse",0,1960513
968,196068,Fahlenbergstrasse Ecke Fürstenwalder Allee,1,1960336
969,196068,S-Bhf. Wilhelmshagen,2,19601029
970,196068,Zentralschule,3,19601386
971,196068,Waldschänke,4,19601292
972,196068,S-Bhf. Rahnsdorf,5,19601022
973,196068,"Fichtenau, Stadtgrenze",6,1960349
974,196069,"Altglienicke, Kirche",0,196036
975,196069,Gerosteig,1,1960401
976,196069,Dankmarsteig,2,1960285
977,196069,"Altglienicke, Kirche",3,196036
978,196070,Wiebestrasse,0,19601336
979,196070,GotzkowskyStrasse,1,1960423
980,196070,StromStrasse,2,19601159
981,196070,Rathenower Strasse,3,1960956
983,196070,Alt-Moabit,4,196026
985,196070,John-Foster-Dulles-Allee,5,1960577
986,196070,Tiergartenstrasse,6,19601199
987,196070,Lützowplatz,7,1960744
990,196070,Potsdamer Strasse,8,1960910
991,196070,Hafenplatz,9,1960461
993,196070,Anhalter Bhf.,10,196058
994,196070,U-Bhf. Hallesches Tor,11,19601230
995,196070,Gneisenaustrasse,12,1960412
996,196070,Columbiadamm,13,1960272
997,196070,Tempelhofer Damm,14,19601190
998,196070,Flughafen,15,1960354
999,196071,Unionplatz,0,19601270
1000,196071,Gotzkowskybrücke,1,1960424
1001,196071,Hansaplatz,2,1960473
1002,196071,U-Bhf. Ernst-Reuter-Platz,3,19601221
1003,196071,Bhf. Zoo,4,1960188
1004,196071,U-Bhf. Spichernstrasse,5,19601255
1005,196071,Bundesplatz,6,1960248
1006,196071,Kaisereiche,7,1960585
1007,196071,Grazer Platz,8,1960428
1008,196071,Attilaplatz,9,196064
1009,196071,Tempelhofer Damm,10,19601190
1010,196071,Gottlieb-Dunkel-Strasse,11,1960420
1011,196071,Grüner Weg,12,1960449
1012,196071,Gutschmidtstrasse,13,1960453
1013,196072,"S-Bhf. Kaulsdorf, Planitzstrasse",0,19601014
1014,196072,Chemnitzer Strasse,1,1960267
1015,196072,Ulmenstrasse,2,19601268
1016,196072,Gehsener Strasse,3,1960396
1017,196072,S-Bhf. Köpenick,4,19601015
1018,196072,Bahnhofstrasse Ecke Lindenstrasse,5,196082
1019,196072,"Köpenick, Krankenhaus",6,1960679
1020,196072,Chausseehaus,7,1960263
1021,196072,Alt-Müggelheim,8,196028
1022,196073,Loewenhardtdamm,0,1960732
1023,196073,Dudenstrasse,1,1960303
1024,196073,Kreuzbergstrasse,2,1960651
1025,196073,Yorckstrasse,3,19601380
1026,196073,Mehringdamm,4,1960787
1027,196073,Zossener Strasse,5,19601396
1028,196073,Südstern,6,19601172
1029,196073,Urban-Krankenhause,7,19601273
1030,196073,U-Bhf. Prinzenstrasse,8,19601247
1031,196073,U-Bhf Kottbusser Tor,9,19601214
1032,196073,Oranienstrasse,10,1960852
1033,196073,Waldemarstrasse,11,19601287
1034,196073,Mariannenplatz,12,1960764
1035,196073,Köpenicker Strasse Ecke Manteuffelstrasse,13,1960685
1036,196073,U-Bhf. Schlesisches Tor,14,19601253
1037,196073,Heckmannufer,15,1960488
1038,196074,Roseneck,0,1960987
1039,196074,Berkaer Strasse,1,1960100
1040,196074,BSC-Sportplatz,2,196069
1041,196074,Bismarckplatz,3,1960195
1042,196074,Bhf. Halensee,4,1960136
1043,196074,Joachim-Friedrich-Strasse,5,1960570
1044,196074,Wilmersdorfer Strasse,6,19601358
1045,196074,Olivaer Platz,7,1960838
1047,196074,Uhlandstrasse,8,19601266
1048,196074,Joachimstaler Strasse,9,1960571
1049,196074,Breitscheidplatz,10,1960227
1050,196074,Wittenbergplatz,11,19601369
1051,196074,Lutherstrasse,12,1960738
1053,196074,Lützowstrasse,13,1960746
1056,196074,Potsdamer Strasse,14,1960910
1057,196074,Anhalter Bhf.,15,196058
1058,196075,Rathaus Zehlendorf,0,1960954
1059,196075,Winifriedstrasse,1,19601361
1061,196075,Sundgauer Strasse,2,19601169
1062,196075,U-Bhf. Oskar-Helene-Heim,3,19601244
1063,196075,U-Bhf. Onkel-Toms-H tte,4,19601243
1064,196075,U-Bhf. Krumme Lanke,5,19601236
1065,196075,Bhf. Lindenthaler Allee,6,1960152
1066,196075,Benschallee,7,196094
1067,196075,Schopenhauerstrasse,8,19601068
1068,196075,Bhf. Nikolassee,9,1960158
1069,196075,Am Beelitzhof,10,196037
1070,196075,Bhf. Wannsee,11,1960177
1071,196075,Am Grossen Wannsee,12,196040
1072,196075,Pfaueninsel-Chaussee,13,1960893
1073,196075,Rathaus Wannsee,14,1960953
1074,196075,Stölpchensee,15,19601165
1075,196076,Machandelweg,0,1960749
1076,196076,U-Bhf. Ruhleben,1,19601249
1077,196076,Friedhof Ruhleben,2,1960368
1078,196076,Kinderheim Ruhleben,3,1960608
1079,196076,Teltower Strasse,4,19601186
1080,196076,Grenadierstrasse,5,1960433
1081,196076,Stresowplatz,6,19601158
1083,196076,Breite Strasse,7,1960224
1084,196076,Rathaus Spandau,8,1960947
1085,196076,Brunsb tteler Damm,9,1960235
1086,196076,Nauener Strasse,10,1960807
1087,196076,Egelpfuhlstrasse,11,1960308
1088,196076,Magistratsweg,12,1960752
1089,196076,Spandauer Strasse,13,19601116
1090,196076,Hackbuschstrasse,14,1960458
1091,196076,Heidebergplan,15,1960492
1092,196077,Breitenbachplatz,0,1960225
1093,196077,GritznerStrasse,1,1960437
1094,196077,SchlossStrasse,2,19601060
1095,196077,Rathaus Steglitz,3,1960949
1096,196077,SedanStrasse,4,19601087
1097,196077,StindeStrasse,5,19601146
1098,196077,LeonorenStrasse,6,1960706
1099,196077,"Lankwitz, Kirche",7,1960692
1100,196077,Marienfelder Strasse,8,1960775
1101,196077,Marchandstrasse,9,1960761
1102,196077,Marienfelder Allee,10,1960773
1103,196077,Stegerwaldstrasse,11,19601140
1104,196077,Bhf. Marienfelde,12,1960155
1105,196078,Bhf. Steglitz,0,1960171
1106,196078,Breite Strasse,1,1960223
1108,196078,Klingsorstrasse,2,1960620
1109,196078,Sedanstrasse,3,19601088
1111,196078,Bismarckstrasse,4,1960197
1113,196078,Halskestrasse,5,1960469
1114,196078,Bhf. Südende,6,1960173
1115,196078,Bhf. Mariendorf,7,1960153
1116,196078,Kurfürstenstrasse,8,1960659
1117,196078,Kaiserstrasse/Ringstrasse,9,1960590
1118,196078,Rathaus Mariendorf,10,1960939
1119,196078,Kaiserstrasse,11,1960588
1120,196079,"Spandau, Friedhof",0,19601111
1122,196079,Askanierring,1,196063
1124,196079,Hafenplatz,2,1960462
1125,196079,Rathaus Spandau,3,1960947
1126,196079,Wilhelmstrasse Ecke Pichelsdorferstrasse,4,19601356
1127,196079,Adamstrasse,5,19601
1128,196079,Heerstrasse,6,1960490
1130,196079,Weinmeisterhornweg,7,19601317
1132,196079,Ortsgrenze Gatow,8,1960854
1133,196079,"Gatow, Kirche",9,1960394
1134,196079,Großglienicker Weg,10,1960443
1135,196079,Krankenhaus Hohengatow,11,1960646
1137,196079,Alt-Kladow,13,196021
1138,196079,Schwiezerhaus,14,19601077
1139,196079,Gutshof,15,1960454
1140,196080,Germersheimer Platz,0,1960400
1141,196080,Askanierring,1,196062
1143,196080,Rathaus Spandau,2,1960947
1144,196080,Wilhelmstrasse Ecke Pichelsdorferstrasse,3,19601356
1145,196080,Adamstrasse,4,19601
1146,196080,Heerstrasse,5,1960490
1148,196080,Gatower Strasse,6,1960395
1149,196080,Weinmeisterhornweg,7,19601317
1151,196080,Ortsgrenze Gatow,8,1960854
1152,196080,"Gatow, Kirche",9,1960394
1153,196080,Großglienicker Weg,10,1960443
1154,196080,Krankenhaus Hohengatow,11,1960646
1156,196080,Alt-Kladow,13,196021
1157,196080,Krampnitzer Weg,14,1960643
1158,196080,Hottengrund,15,1960545
1159,196081,Waltersdorf,0,19601297
1160,196081,"Bohnsdorf, Waldstrasse",1,1960211
1161,196081,Eichbuschplatz,2,1960312
1162,196081,Joachimstrasse,3,1960572
1163,196081,S-Bhf. Grünau,4,19601011
1164,196082,"Wartenberg, Siedlung",0,19601310
1165,196082,"Wartenberg, Dorfstrasse",1,19601309
1166,196082,Falkenberger Chaussee,2,1960338
1167,196082,"Kolonie ""Land in Sonne""",3,1960632
1168,196082,"Hohensch nhausen, Falkenberger Strasse",4,1960527
1169,196083,Brixplatz,0,1960231
1170,196083,Reichskanzlerplatz,1,1960962
1171,196083,Messedamm,2,1960792
1172,196083,Bhf. Halensee,3,1960136
1173,196083,Hochmeisterplatz,4,1960522
1174,196083,U-Bhf. Fehrbelliner Platz,5,19601223
1175,196083,Bundesallee Ecke Badensche Strasse,6,1960246
1176,196083,Rathaus Sch neberg,7,1960944
1177,196083,Innsbrucker Platz,8,1960557
1178,196083,Dominicusstrasse,9,1960297
1179,196083,Kaiser-Wilhelm-Platz,10,1960581
1180,196083,U-Bhf. Flughafen,11,19601224
1181,196083,Friesenstrasse,12,1960380
1182,196083,U-Bhf. Boddinstrasse,13,19601215
1183,196083,Rathaus Neukölln,14,1960940
1184,196083,Finowstrasse,15,1960352
1185,196084,"Buch, Zepernicker Strasse",0,1960237
1186,196084,Alt-Buch,1,196018
1187,196084,Lindenberger Weg,2,1960725
1188,196084,"Karow, Bahnhofstrasse",3,1960601
1189,196084,G terau enring,4,1960387
1190,196084,"Blankenburg, Bahnhofstrasse",5,1960201
1191,196084,"Heinersdorf, Kirche",6,1960497
1192,196084,Am Steinberg,7,196046
1193,196084,Ostseestrasse (Spitze),8,1960868
1194,196085,Bürknersfelde,0,1960253
1195,196085,"Marzahn, Berliner Chaussee",1,1960784
1196,196085,G terbahnhof Springpfuhl,2,1960388
1197,196085,S-Bhf. Friedrichsfelde-Ost,3,19601008
1198,196085,Schlossstrasse Ecke Alt-Friedrichsfelde,4,19601063
1199,196085,U-Bhf. Friedrichsfelde,5,19601226
1200,196086,"Hönow, Dorfstrasse",0,1960552
1201,196086,Greifswalder Strasse,1,1960430
1202,196086,Am Rosenhag,2,196045
1203,196086,S-Bhf. Mahlsdorf,3,19601017
1204,196087,Greifswalder Strasse,0,1960430
1205,196087,Am Rosenhag,1,196045
1206,196087,S-Bhf. Mahlsdorf,2,19601017
1207,196088,"Wilhelmsruh, Fontanestrasse",0,19601354
1208,196088,Hauptstrasse Ecke Edelwei strasse,1,1960482
1209,196088,Ehrenmal,2,1960309
1210,196088,Heinrich-Mann-Platz,3,1960500
1211,196088,"Pankow, Rathaus",4,1960878
1212,196088,"Pankow, Kirche",5,1960876
1213,196088,Prenzlauer Promenade Ecke Kissingenstrasse,6,1960920
1214,196088,Am Steinberg,7,196046
1215,196088,Langhans Strasse Ecke Gustav-Adolf-Strasse,8,1960690
1216,196088,Hamburger Platz,9,1960470
1217,196088,Pistoriusstrasse Ecke Klement-Gottwald-Allee,10,1960899
1218,196088,Klement-Gottwald-Allee Ecke Bernkasteler Strasse,11,1960616
1219,196088,"Weißensee, Schwarzelfenweg",12,19601324
1220,196089,"Ahrensfeld, Kirche",0,19607
1221,196089,Stadtrandsiedlung,1,19601133
1222,196089,"Falkenberg, Schule",2,1960337
1223,196089,Strasse nach Wartenberg,3,19601152
1224,196089,Malchower Weg,4,1960758
1225,196089,Falkenberger Strasse,5,1960339
1226,196089,Klement-Gottwald-Allee Ecke Bernkasteler Strasse,6,1960616
1227,196089,Feldtmannstrasse,7,1960347
1228,196089,"Malchow, Dorfstrasse",8,1960757
1229,196090,Bhf. Schöneweide,0,1960165
1230,196090,Sterndamm,1,19601144
1231,196090,Johannisthaler Chaussee,2,1960575
1232,196090,Baumschulenstrasse Ecke Südostallee,3,196086
1233,196090,S-Bhf. Baumschulenweg,4,19601006
1234,196090,Eichbuschallee,5,1960311
1235,196090,"Treptow, Rathaus",6,19601204
1236,196090,S-Bhf. Treptower Park,7,19601028
1237,196091,Potsdamer Strasse Ecke Fischerh ttenstrasse,0,1960913
1238,196091,Teltower Damm,1,19601185
1239,196091,Sundgauer Strasse,2,19601168
1241,196091,Dahlemer Weg,3,1960279
1242,196091,Drakestrasse,4,1960301
1243,196091,Hindenburgdamm,5,1960516
1244,196091,Rathaus Steglitz,6,1960949
1245,196091,Bundesallee,7,1960244
1246,196091,Kaisereiche,8,1960585
1247,196091,Innsbrucker Platz,9,1960557
1248,196091,Dominicusstrasse,10,1960297
1249,196091,Kaiser-Wilhelm-Platz,11,1960581
1250,196091,Goeben-/Pallasstrasse,12,1960415
1251,196091,U-Bhf. Bülowstrasse,13,19601217
1252,196091,Lützowstrasse,14,1960745
1254,196091,Margaretenstrasse,15,1960763
1255,196092,"Kaulsdorf, Bausdorfstrasse",0,1960606
1256,196092,Ridbacher Strasse,1,1960980
1257,196092,Grottkauer Strasse,2,1960439
1258,196092,Uckermarkstrasse,3,19601264
1259,196092,"Kaulsdorf, Bausdorfstrasse",4,1960606
1260,196093,Machandelweg,0,1960749
1261,196093,U-Bhf. Ruhleben,1,19601249
1262,196093,Friedhof Ruhleben,2,1960368
1263,196093,Hauptkinderheim,3,1960479
1264,196093,Teltower Strasse,4,19601186
1265,196093,Grenadierstrasse,5,1960433
1266,196093,Stresowplatz,6,19601158
1268,196093,Breite Strasse,7,1960224
1269,196093,Rathaus Spandau,8,1960947
1270,196093,Bhf. Spandau-West,9,1960169
1271,196093,Hochgerichtstrasse,10,1960521
1272,196093,Falkenseer Chaussee,11,1960343
1274,196093,Viersener Strasse,12,19601279
1275,196093,Wolburgsweg,13,19601373
1276,196093,Stadtrandstrasse,14,19601134
1277,196093,Waldkrankenhaus,15,19601291
1278,196094,Roseneck,0,1960987
1279,196094,Hohenzollerndamm,1,1960533
1280,196094,Elsterplatz,2,1960323
1281,196094,Forckenbeckstrasse,3,1960358
1282,196094,Flinsberger Platz,4,1960353
1283,196094,Cunostrasse,5,1960274
1284,196094,Bhf. Hohenzollerndamm,6,1960141
1285,196094,Konstanzer Strasse,7,1960634
1286,196094,Ruhrstrasse,8,1960996
1287,196094,Fehrbelliner Platz,9,1960344
1288,196094,Emser Platz,10,1960326
1289,196094,Uhlandstrasse,11,19601265
1291,196094,Nassauische Strasse,12,1960805
1292,196094,Prager Platz,13,1960914
1293,196095,Bhf. Wannsee,0,1960177
1294,196095,Königstrasse/Kronprinzessinnenweg,1,1960676
1295,196095,Am Grossen Wannsee,2,196040
1296,196095,KoblanckStrasse,3,1960628
1297,196095,Colomierstrasse,4,1960271
1298,196095,Krankenhaus Wannsee,5,1960649
1299,196095,Zum Heckeshorn,6,19601397
1300,196095,Krankenhaus Heckeshorn,7,1960645
1301,196096,Alt-Marienfelde,0,196024
1302,196096,Gutshof Marienfelde,1,1960455
1303,196096,Bhf. Buckower Chaussee,2,1960125
1304,196096,Lichtenrader Damm,3,1960717
1305,196096,B hler Weg,4,196068
1306,196096,Buckower Friedhof,5,1960242
1307,196096,Buckower Damm,6,1960241
1308,196096,Grüner Weg,7,1960449
1309,196096,Triftweg,8,19601208
1310,196096,Rudower Strasse,9,1960993
1311,196096,Efeuweg,10,1960307
1312,196096,Wildmeisterdamm,11,19601346
1313,196096,Köpenicker Strasse,12,1960682
1314,196096,Friedhof Rudow,13,1960367
1315,196096,Kanalstrasse,14,1960591
1316,196096,Mimosenweg,15,1960794
1317,196097,Krumme Lanke,0,1960653
1318,196097,Sven-Hedin-Strasse,1,19601170
1319,196097,Hartmannsweiler Weg,2,1960475
1320,196097,Potsdamer Strasse,3,1960908
1324,196097,Berliner Strasse,4,1960103
1327,196097,Teltower Damm,5,19601185
1328,196097,Rathaus Zehlendorf,6,1960954
1329,196097,Bhf. Zehlendorf,7,1960187
1330,196097,Seehofstrasse,8,19601091
1331,196097,Knesebeckstrasse,9,1960625
1332,196097,J nickestrasse,10,1960565
1333,196097,Dahlemer Weg,11,1960279
1334,196097,Osteweg,12,1960866
1335,196097,4. Ring,13,19600
1336,196097,Luzerner Strasse,14,1960740
1337,196097,Thuner Platz,15,19601196
1338,196098,"Wilhelmsruh, Fontanestrasse",0,19601354
1339,196098,Hauptstrasse Ecke Edelwei strasse,1,1960482
1340,196098,Ehrenmal,2,1960309
1341,196098,S-Bhf. Wollkanstrasse,3,19601030
1342,196098,"Pankow, Rathaus",4,1960878
1343,196098,"Pankow, Kirche",5,1960876
1344,196098,Retzbacher Weg,6,1960972
1345,196098,"Heinersdorf, Kirche",7,1960497
1346,196098,"Weißensee, Rennbahnstrasse Ecke Gustav-Adolf-Strasse",8,19601323
1347,196098,Große Seestrasse Ecke Klement-Gottwald-Allee,9,1960441
1348,196098,"Weißensee, Liebermannstrasse Ecke Piesporter Strasse",10,19601321
1349,196099,"Weißensee, Feldtmannstrasse",0,19601320
1350,196099,Rennbahnstrasse Ecke Gustav-Adolf-Strasse,1,1960971
1351,196099,Hamburger Platz,2,1960470
1352,196099,Prenzlauer Allee (Spitze),3,1960917
1353,196099,Wicherstrasse,4,19601333
1354,1960100,Kniprodestrasse Ecke Erml ndische Strasse,0,1960627
1355,1960100,Königstor,1,1960673
1356,1960100,S-Bhf. Alexanderplatz,2,19601005
1357,1960100,Marx-Engels-Platz,3,1960782
1358,1960100,Bhf. Friedrichstrasse,4,1960129
1359,1960100,Albrechtstrasse,5,196010
1360,1960100,Robert-Koch-Platz,6,1960984
1361,1960101,Bhf. Wannsee,0,1960177
1362,1960101,Königstrasse,1,1960675
1363,1960101,Am Grossen Wannsee,2,196040
1364,1960101,Endestrasse,3,1960327
1365,1960101,Pfaueninsel-Chaussee,4,1960893
1366,1960101,Rathaus Wannsee,5,1960953
1367,1960101,Friedenstrasse,6,1960366
1368,1960101,Sch ferberg,7,19601041
1369,1960101,Nikolskoer Weg,8,1960822
1370,1960101,Schloss Glienicke,9,19601056
1371,1960101,Glienicker Brücke,10,1960409
1372,1960102,"Roseneck, Hundekehl",0,1960988
1373,1960102,Warnem nder/Berkaer Strasse,1,19601303
1374,1960102,Zappoter/Oeynhauser Strasse,2,19601384
1375,1960102,"Hamburger Strasse, Rudolf-Mosse-Platz",3,1960472
1376,1960102,U-Bhf. Heidelberger Platz,4,19601232
1377,1960102,Brabanter Platz,5,1960220
1378,1960102,Am Volkspark,6,196050
1381,1960102,Berliner Strasse,7,1960104
1383,1960102,Postamt,8,1960902
1384,1960102,G ntzelstrasse,9,1960386
1385,1960102,Ludwigkirchstrasse/Pariser Strasse,10,1960734
1386,1960102,Kurfürstendamm,11,1960655
1387,1960102,Joachimstaler Strasse,12,1960571
1388,1960102,Breitscheidplatz,13,1960227
1389,1960102,Wittenbergplatz,14,19601369
1390,1960103,ZobeltitzStrasse,0,19601393
1391,1960103,"U-Bhf. Scharnweberstrasse, Sportplatz",1,19601252
1392,1960103,Schillingstrasse,2,19601053
1393,1960103,U-Bhf. Kurt-Schumacher-Platz,3,19601237
1394,1960103,Humboldtstrasse,4,1960550
1395,1960103,Sebastianfriedhof,5,19601086
1396,1960103,Teichstrasse,6,19601182
1397,1960103,Aroser Allee,7,196061
1399,1960103,Osloer Strasse,8,1960858
1400,1960103,Exerzierstrasse,9,1960334
1401,1960103,Pankstrasse,10,1960883
1402,1960103,Bhf. Gesundbrunnen,11,1960131
1403,1960103,Rügener Strasse,12,19601002
1405,1960103,Bernauer Strasse,13,1960112
1407,1960103,"Gartenplatz, Feldstrasse",14,1960392
1408,1960104,Wittenau,0,19601366
1409,1960104,Alt-Wittenau,1,196032
1411,1960104,"Heilst tten, Wittenau",2,1960496
1412,1960104,Auguste-Viktoria-Allee,3,196066
1413,1960104,U-Bhf. Kurt-Schumacher-Platz,4,19601237
1414,1960104,"Kaserne, Südtor",5,1960603
1415,1960104,Saatwinkler Damm,6,19601034
1416,1960104,Heckerdamm,7,1960487
1417,1960104,Bhf. Jungfernheide,8,1960143
1418,1960104,Luisenplatz,9,1960735
1419,1960104,Richard-Wagner-Platz,10,1960975
1420,1960104,U-Bhf. Ernst-Reuter-Platz,11,19601221
1421,1960104,Bhf. Zoo,12,1960188
1422,1960104,Marburger Strasse,13,1960760
1423,1960104,Wittenbergplatz,14,19601369
1424,1960105,Radelandstrasse,0,1960932
1425,1960105,Pionierstrasse,1,1960898
1426,1960105,Falkenseer Chaussee,2,1960343
1427,1960105,ZweiBrücker Strasse,3,19601398
1428,1960105,Askanierring,4,196062
1430,1960105,Bezirksamt,5,1960121
1431,1960105,Moritzstrasse,6,1960799
1432,1960105,Rathaus Spandau,7,1960947
1433,1960105,Bhf. Spandau-West,8,1960169
1434,1960105,Staakener Strasse,9,19601126
1435,1960105,Hochgerichtstrasse,10,1960521
1436,1960105,Viersener Strasse,11,19601278
1438,1960105,Dyotzer Strasse,12,1960304
1439,1960105,Leuthingerweg,13,1960712
1440,1960105,Strasse 393,14,19601149
1441,1960105,Seegefelder Weg,15,19601090
1442,1960106,U-Bhf. Kurt-Schumacher-Platz,0,19601237
1444,1960106,Afrikanische Strasse,1,19606
1445,1960106,Petersallee (Freilichtbühne Rehberge),2,1960892
1446,1960106,Sansibarstrasse,3,19601039
1447,1960106,T rkenstrasse,4,19601175
1448,1960106,Seestrasse,5,19601094
1449,1960106,U-Bhf. Seestrasse,6,19601254
1450,1960106,U-Bhf. Leopoldplatz,7,19601239
1451,1960106,Triftstrasse,8,19601207
1452,1960106,Nettelbeckplatz,9,1960810
1453,1960106,Gerichstrasse,10,1960397
1454,1960106,Lenzener Platz,11,1960705
1455,1960106,Grenzstrasse,12,1960435
1456,1960106,Gartenplatz,13,1960391
1457,1960106,Bernauer Strasse,14,1960111
1460,1960106,Bernauer Strasse Ecke Gartenstrasse,15,1960114
1461,1960107,Goebelplatz,0,1960414
1462,1960107,Kurt-Schumacher-Damme,1,1960663
1463,1960107,Bhf. Jungfernheide,2,1960143
1464,1960107,Landgericht,3,1960688
1465,1960107,SchlossBrücke,4,19601059
1466,1960107,Luisenplatz,5,1960735
1467,1960107,Bhf. Westend,6,1960180
1468,1960107,Königin-Elisabeth-Strasse,7,1960668
1469,1960107,U-Bhf. Kaiserdamm,8,19601233
1470,1960107,Masurenallee,9,1960785
1471,1960107,Rathenauplatz,10,1960955
1472,1960107,Bhf. Hohenzollerndamm,11,1960141
1473,1960107,U-Bhf. Heidelberg Platz,12,19601231
1474,1960107,Bundesplatz,13,1960248
1475,1960107,Innsbrucker Platz,14,1960557
1476,1960107,Bhf. Sch neberg,15,1960163
1477,1960107,Berlinickeplatz,16,1960107
1478,1960107,Bhf. Tempelhof,17,1960175
1479,1960107,U-Bhf. Paradesstrasse,18,19601245
1480,1960107,Flughafen Tempelhof,19,1960356
1481,1960108,Bismarckplatz,0,1960195
1482,1960108,Bhf. Halensee,1,1960136
1483,1960108,Joachim-Friedrich-Strasse,2,1960570
1484,1960108,Wilmersdorfer Strasse,3,19601358
1485,1960108,Olivaer Platz,4,1960838
1487,1960108,Uhlandstrasse,5,19601266
1488,1960108,Joachimstaler Strasse,6,1960571
1489,1960108,Breitscheidplatz,7,1960227
1490,1960108,Wichmannstrasse,8,19601334
1491,1960108,Großer Stern,9,1960442
1492,1960108,Hansaplatz,10,1960473
1493,1960108,Bhf. Bellevue,11,1960122
1495,1960108,Alt-Moabit,12,196027
1496,1960108,Turmstrasse,13,19601211
1497,1960108,Perleberger Strasse,14,1960891
1498,1960108,Stephanplatz,15,19601143
1499,1960109,"Jerusalems-Kirche, Lindenstrasse",0,1960569
1500,1960109,Moritzplatz,1,1960797
1501,1960109,Oranienplatz,2,1960851
1502,1960109,U-Bhf. Kottbusser Tor,3,19601235
1503,1960109,Kottbusser Brücke,4,1960640
1504,1960109,Hohenstaufenplatz,5,1960532
1505,1960109,Hermannplatz,6,1960503
1506,1960109,Reuterstrasse,7,1960974
1507,1960109,Fuldastrasse,8,1960383
1508,1960109,Erkstrasse,9,1960331
1509,1960109,Hertzbergplatz,10,1960511
1510,1960109,Bhf. Sonnenallee,11,1960167
1511,1960109,Dammweg,12,1960283
1512,1960109,Neuköllnische Allee,13,1960818
1513,1960109,Am Oberhafen,14,196044
1514,1960109,U-Bhf. Grenzallee,15,19601228
1515,1960110,Clayallee,0,1960269
1516,1960110,Vogelsang,1,19601282
1517,1960110,Thielallee/Pacelliallee,2,19601193
1518,1960110,U-Bhf. Dahlem-Dorf,3,19601219
1519,1960110,"Postamt, Museum Dahlem",4,1960903
1520,1960110,Arnimallee,5,196060
1521,1960110,Botanischer Garten,6,1960217
1522,1960110,Kaiser-Wilhelm-Strasse,7,1960583
1523,1960110,Lepsiusstrasse,8,1960709
1524,1960110,Rathaus Steglitz,9,1960949
1525,1960110,Bhf. Steglitz,10,1960171
1526,1960110,Breite Strasse,11,1960223
1528,1960110,Bergstrasse,12,196097
1532,1960110,Bismarckstrasse,13,1960198
1533,1960110,Munsterdamm,14,1960800
1534,1960110,"Grazer Damm, OverbeckStrasse",15,1960427
1535,1960111,Bismarckplatz,0,1960195
1536,1960111,Rathenauplatz,1,1960955
1537,1960111,Bhf. Halensee,2,1960136
1538,1960111,Joachim-Friedrich-Strasse,3,1960570
1539,1960111,Wilmersdorfer Strasse,4,19601358
1540,1960111,Leibnizstrasse,5,1960698
1541,1960111,Bleibtreustrasse,6,1960205
1543,1960111,Uhlandstrasse,7,19601266
1544,1960111,Joachimstaler Strasse,8,1960571
1545,1960111,Breitscheidplatz,9,1960227
1546,1960111,Wittenbergplatz,10,19601369
1547,1960111,Lutherstrasse,11,1960738
1548,1960111,Lützowplatz,12,1960744
1549,1960111,Tiergartenstrasse,13,19601199
1550,1960111,Kongre halle,14,1960633
1551,1960111,Brandenburger Tor,15,1960221
1552,1960112,"Glienicke, Kirche",0,1960408
1553,1960112,Els sser Strasse,1,1960321
1554,1960112,"Schildow, Kirche",2,19601049
1555,1960112,"Blankenfelde, Hauptstrasse",3,1960204
1556,1960112,"Kolonie ""Daheim""",4,1960631
1557,1960112,Nordend,5,1960829
1558,1960112,Ossietzkyplatz,6,1960861
1559,1960112,Kurt-Fischer-Platz,7,1960661
1560,1960112,"Pankow, Rathaus",8,1960878
1561,1960112,U-Bhf. Vinetastrasse,9,19601262
1562,1960113,Bhf. Wollankstrasse,0,1960184
1563,1960113,Osloer Strasse,1,1960857
1565,1960113,Badstrasse,2,196074
1566,1960113,Brunneplatz,3,1960234
1567,1960113,Wiesenstrasse,4,19601344
1568,1960113,Bhf. Wedding,5,1960179
1569,1960113,Weddingplatz,6,19601313
1570,1960113,Am Nordhafen,7,196043
1572,1960113,Rathenower Strasse,8,1960957
1573,1960113,Turmstrasse/Rathenower Strasse,9,19601213
1574,1960113,Krankenhaus Moabit,10,1960647
1575,1960113,Stromstrasse,11,19601160
1576,1960113,Rathaus Tiergarten,12,1960952
1577,1960113,Waldstrasse/Gotzkowskystrasse,13,19601295
1578,1960113,Reuchlinstrasse,14,1960973
1579,1960113,"Wiebestrasse, Strassenbahnhof",15,19601338
1580,1960114,Bhf. Wilhelmsruh,0,1960181
1581,1960114,Lindauer Strasse,1,1960722
1583,1960114,Emmentaler Strasse,2,1960325
1584,1960114,"Sch fersee, Pankower Allee",3,19601042
1585,1960114,"Letteplatz, Strassenbahnhof",4,1960711
1586,1960114,Provinzstrasse/Pankower Allee,5,1960926
1587,1960114,Ritterlandweg,6,1960983
1588,1960114,Prinzenallee/Soldiner Strasse,7,1960923
1589,1960114,Osloer Strasse,8,1960857
1591,1960114,Badstrasse/Prinzenallee,9,196075
1592,1960114,Bhf. Gesundbrunnen,10,1960131
1593,1960114,Ramlerstrasse,11,1960935
1594,1960114,Rügener Strasse,12,19601002
1595,1960114,Usedomer Strasse,13,19601274
1596,1960114,Bernauer Strasse/Brunnenstrasse,14,1960115
1597,1960114,Wolliner Strasse,15,19601375
1598,1960115,Waldesruh,0,19601289
1599,1960115,Malhlsdorfer Allee,1,1960759
1600,1960115,Fichtestrasse Ecke Schopenhauerstrasse,2,1960350
1601,1960115,Hultschiner Damme,3,1960547
1602,1960115,Sadowastrasse,4,19601035
1603,1960115,Chemnitzer Ecke Ulmenstrasse,5,1960266
1604,1960115,Eichenallee,6,1960313
1605,1960115,"Alt-Biesdorf, Oberfeldstrasse",7,196017
1606,1960115,Schlossstrasse Ecke Alt-Friedrichsfelde,8,19601063
1607,1960115,U-Bhf. Friedrichsfelde,9,19601226
1608,1960116,Kinderheim,0,1960607
1609,1960116,Friedrich-Junge-Strasse,1,1960369
1610,1960116,Markgrafendamm,2,1960778
1611,1960117,Kurische Strasse,0,1960660
1612,1960117,Königstor,1,1960673
1613,1960117,S-Bhf. Alexanderplatz,2,19601005
1614,1960117,Marx-Engels-Platz,3,1960782
1615,1960117,Bhf. Friedrichstrasse,4,1960129
1616,1960117,Chausseestrasse Ecke Invalidenstrasse,5,1960264
1617,1960117,Scharnhorst- Ecke Kieler Strasse,6,19601046
1618,1960118,"Diepensee, Flughafen",0,1960290
1619,1960118,Waltersdorfer Chaussee (Spinne),1,19601298
1620,1960118,"Sch nefeld, Siedlung",2,19601043
1621,1960118,"Bohnsdorf, Kirche",3,1960210
1622,1960118,Gartenstadtweg,4,1960393
1623,1960118,S-Bhf. Grünau,5,19601011
1624,1960119,Neu-Lindenberg,0,1960812
1625,1960119,Lindenberg,1,1960724
1626,1960119,"Malchow, Dorfstrasse",2,1960757
1627,1960120,S-Bhf. Hohen Neuendorf,0,19601012
1628,1960120,"Bergfelde, Karl-Marx-Strasse",1,196096
1629,1960120,"Schönfließ, Kirche",2,19601080
1630,1960120,"Glienicke, Breitscheidstrasse",3,1960407
1631,1960120,"Glienicke, Kirche",4,1960408
1632,1960121,Bhf. Zoo,0,1960188
1633,1960121,U-Bhf. Ernst-Reuter-Platz,1,19601221
1634,1960121,Cauerstrasse,2,1960258
1635,1960121,Luisenplatz,3,1960735
1636,1960121,Fürstenbrunner Weg,4,1960384
1637,1960121,Schloss Ruhwald,5,19601057
1638,1960121,U-Bhf. Ruhleben,6,19601249
1639,1960121,Teltower Strasse,7,19601186
1640,1960121,Rathaus Spandau,8,1960947
1642,1960121,Hafenplatz,9,1960462
1643,1960121,Lynastrasse,10,1960741
1644,1960121,Klinkeplatz,11,1960621
1645,1960121,Hohenzollernring,12,1960536
1646,1960122,Bhf. Zoo,0,1960188
1647,1960122,HardenbergStrasse,1,1960474
1648,1960122,Kurfürstendamm,2,1960655
1649,1960122,"Rankeplatz, Bundeshaus",3,1960937
1653,1960122,Berliner Strasse,4,1960105
1654,1960122,Bundesplatz,5,1960248
1655,1960122,"Schlossstrasse, Wilhelm-Schreiber-Platz",6,19601065
1656,1960122,Canovastrasse,7,1960255
1657,1960122,Attilaplatz,8,196064
1658,1960122,Mariendorfer Damm,9,1960767
1659,1960122,Alt-Mariendorf,10,196022
1660,1960122,"Tauernallee, Adlerm hle",11,19601177
1661,1960122,Buckower Chaussee,12,1960240
1662,1960122,"Lichtenrade, Goethestrasse",13,1960716
1663,1960122,Goltzstrasse,14,1960417
1664,1960122,"Lichtenrade, Blohmstrasse Ecke W nsdorfer Strasse",15,1960715
1665,1960123,Bhf. Zoo,0,1960188
1666,1960123,HardenbergStrasse,1,1960474
1667,1960123,Kurfürstendamm,2,1960655
1668,1960123,Rankeplatz/Bundeshaus,3,1960938
1669,1960123,U-Bhf. Fehrbelliner Platz,4,19601223
1670,1960123,Bhf. Hohenzollerndamm,5,1960141
1671,1960123,"Berkaer Strasse, Elsterplatz",6,1960101
1672,1960123,Roseneck,7,1960987
1673,1960123,P cklerstrasse,8,1960872
1675,1960123,Königin-Luise-Strasse,9,1960671
1676,1960123,U-Bhf. Oskar-Helene-Heim,10,19601244
1678,1960123,Sundgauer Strasse,11,19601169
1679,1960123,Winfriedstrasse,12,19601360
1680,1960123,Clayallee/Teltower Damm,13,1960270
1681,1960123,Rathaus Zehlendorf,14,1960954
1682,1960124,Groß Ziethen,0,1960440
1683,1960124,Bhf. Groß Ziethen,1,1960133
1684,1960124,Klein Ziethen,2,1960613
1685,1960124,"Waßmannsdorf, Warteh.",3,19601311
1686,1960124,Selchow,4,19601096
1687,1960124,Waltersforder Chaussee (Spinne),5,19601299
1688,1960124,"Sch nefeld, Siedlung",6,19601043
1689,1960124,S-Bhf. Grünau,7,19601011
1690,1960125,Kosterstrasse,0,1960639
1691,1960125,Andreasstrasse,1,196054
1692,1960125,Küstriner Platz,2,1960687
1693,1960125,Warschauer Strasse,3,19601306
1694,1960125,Holteistrasse,4,1960539
1695,1960125,S-Bhf. Rummelsburg,5,19601023
1696,1960125,M nsterlandstrasse,6,1960748
1697,1960125,Bhf. Lichtenberg,7,1960145
1698,1960125,"BVG-Bf. Lichtenberg, Siegfriestrasse",8,196071
1699,1960125,Roederplatz,9,1960985
1700,1960125,Proskauer Ecke Dolziger Strasse,10,1960925
1701,1960125,Ebertystrasse Ecke Leninallee,11,1960306
1702,1960125,Greifswalderstrasse Ecke Dimitroffstrasse,12,1960432
1703,1960125,Königstor,13,1960673
1704,1960125,S-Bhf. Alexanderplatz,14,19601005
1705,1960125,Klosterstrasse,15,1960623
1706,1960126,Bürknersfelde,0,1960253
1707,1960126,"Alt-Marzahn, Kirche",1,196025
1708,1960126,Elisabethstrasse,2,1960319
1709,1960126,Cecilienstrasse Ecke Oberfeldstrasse,3,1960261
1710,1960126,S-Bhf. Biesdorf,4,19601007
1711,1960126,Schlossstrasse Ecke Alt-Friedrichsfelde,5,19601063
1712,1960126,Bhf. Lichtenberg,6,1960145
1713,1960127,Ostbahnhof,0,1960863
1714,1960127,Küstriner Platz,1,1960687
1715,1960127,Stalinallee,2,19601136
1716,1960127,Leninplatz,3,1960703
1717,1960127,Königstor,4,1960673
1718,1960127,Rosenthaler Platz,5,1960990
1719,1960127,Oranienburger Tor,6,1960846
1720,1960127,Robert-Koch-Platz,7,1960984
1721,1960128,Bürknersfelde,0,1960253
1722,1960128,Dingelstädter Strasse,1,1960296
1723,1960128,Siegfriestrasse,2,19601099
1724,1960128,Weißenseer Weg,3,19601325
1725,1960128,Oderbruchstrasse,4,1960837
1726,1960128,Dimitroffstrasse,5,1960292
1727,1960129,Alt-Schm ckwitz,0,196029
1728,1960129,"Eichwalde, Uhlandstrasse",1,1960316
1729,1960129,Bhf. Eichwalde,2,1960127
1730,1960130,Alt-Schm ckwitz,0,196029
1731,1960130,Konsum Wernsdorf,1,1960635
1732,1960130,Konsum Ziegenhals,2,1960636
1733,1960130,"Ziegenhals, VA Dienststelle",3,19601390
1734,1960131,Kladow,0,1960611
1735,1960131,Wannsee,1,19601300
1736,1960132,Pankow (Vinetastr.),0,1960875
1737,1960132,Schönhauser Allee,1,19601082
1738,1960132,Dimitroffstr.,2,1960291
1739,1960132,Senefelderplatz,3,19601097
1740,1960132,Luxemburgplatz,4,1960739
1741,1960132,Alexanderplatz,5,196013
1742,1960132,Klosterstr.,6,1960622
1743,1960132,Märkisches Museum,7,1960801
1744,1960132,Spittelmarkt,8,19601120
1745,1960132,Hausvogteiplatz,9,1960484
1746,1960132,Stadtmitte (Mohrenstr.),10,19601130
1747,1960132,Thälmannplatz,11,19601197
1748,1960132,Potsdamer Platz,12,1960907
1749,1960132,Gleisdreieck,13,1960405
1750,1960132,Bülowstr.,14,1960252
1751,1960132,Nollendorfplatz,15,1960825
1752,1960132,Wittenbergplatz,16,19601371
1753,1960132,Zoologischer Garten,17,19601395
1754,1960132,Ernst-Reuter-Platz,18,1960333
1755,1960132,Deutsches Opernhaus (Bismarckstr.),19,1960289
1756,1960132,Sophie-Charlotte-Platz,20,19601107
1757,1960132,Kaiserdamm (Messedamm),21,1960584
1758,1960132,Reichskanzlerplatz,22,1960964
1759,1960133,Pankow (Vinetastr.),0,1960875
1760,1960133,Schönhauser Allee,1,19601082
1761,1960133,Dimitroffstr.,2,1960291
1762,1960133,Senefelderplatz,3,19601097
1763,1960133,Luxemburgplatz,4,1960739
1764,1960133,Alexanderplatz,5,196013
1765,1960133,Klosterstr.,6,1960622
1766,1960133,Märkisches Museum,7,1960801
1767,1960133,Spittelmarkt,8,19601120
1768,1960133,Hausvogteiplatz,9,1960484
1769,1960133,Stadtmitte (Mohrenstr.),10,19601130
1770,1960133,Thälmannplatz,11,19601197
1771,1960133,Potsdamer Platz,12,1960907
1772,1960133,Gleisdreieck,13,1960405
1773,1960133,Bülowstr.,14,1960252
1774,1960133,Nollendorfplatz,15,1960825
1775,1960133,Wittenbergplatz,16,19601371
1776,1960133,Spichernstr. (Bundesallee),17,19601117
1777,1960133,Hohenzollernplatz,18,1960535
1778,1960133,Fehrbelliner Platz,19,1960346
1779,1960133,Heidelberger Platz,20,1960493
1780,1960133,Rüdesheimer Platz,21,19601001
1781,1960133,Breitenbachplatz,22,1960226
1782,1960133,Podbielskiallee,23,1960901
1783,1960133,Dahlem-Dorf,24,1960278
1784,1960133,Thielplatz,25,19601194
1785,1960133,Oskar-Helene-Heim,26,1960856
1786,1960133,Onkel Toms Hütte,27,1960840
1787,1960133,Krumme Lanke,28,1960654
1788,1960134,Deutsches Opernhaus (Bismarckstr.),0,1960289
1789,1960134,Richard-Wagner-Platz,1,1960977
1790,1960135,Warschauer Brücke,0,19601304
1791,1960135,Schlesisches Tor,1,19601055
1792,1960135,Görlitzer Bahnhof (Oranienstr.),2,1960456
1793,1960135,Kottbusser Tor,3,1960642
1794,1960135,Prinzenstr.,4,1960924
1795,1960135,Hallesches Tor,5,1960468
1796,1960135,Möckernbrücke,6,1960802
1797,1960135,Gleisdreieck,7,1960405
1798,1960135,Kurfürstenstr.,8,1960658
1799,1960135,Nollendorfplatz,9,1960825
1800,1960135,Wittenbergplatz,10,19601371
1801,1960135,Zoologischer Garten,11,19601395
1802,1960135,Ernst-Reuter-Platz,12,1960333
1803,1960135,Deutsches Opernhaus (Bismarckstr.),13,1960289
1804,1960135,Sophie-Charlotte-Platz,14,19601107
1805,1960135,Kaiserdamm (Messedamm),15,1960584
1806,1960135,Reichskanzlerplatz,16,1960964
1807,1960135,Neu-Westend,17,1960813
1808,1960135,Olympia-Stadion,18,1960839
1809,1960135,Ruhleben,19,1960994
1810,1960136,Warschauer Brücke,0,19601304
1811,1960136,Schlesisches Tor,1,19601055
1812,1960136,Görlitzer Bahnhof (Oranienstr.),2,1960456
1813,1960136,Kottbusser Tor,3,1960642
1814,1960136,Prinzenstr.,4,1960924
1815,1960136,Hallesches Tor,5,1960468
1816,1960136,Möckernbrücke,6,1960802
1817,1960136,Gleisdreieck,7,1960405
1818,1960136,Kurfürstenstr.,8,1960658
1819,1960136,Nollendorfplatz,9,1960825
1820,1960136,Wittenbergplatz,10,19601371
1821,1960136,Spichernstr. (Bundesallee),11,19601117
1822,1960136,Hohenzollernplatz,12,1960535
1823,1960136,Fehrbelliner Platz,13,1960346
1824,1960136,Heidelberger Platz,14,1960493
1825,1960136,Rüdesheimer Platz,15,19601001
1826,1960136,Breitenbachplatz,16,1960226
1827,1960136,Podbielskiallee,17,1960901
1828,1960136,Dahlem-Dorf,18,1960278
1829,1960136,Thielplatz,19,19601194
1830,1960136,Oskar-Helene-Heim,20,1960856
1831,1960136,Onkel Toms Hütte,21,1960840
1832,1960136,Krumme Lanke,22,1960654
1833,1960137,Nollendorfplatz,0,1960825
1834,1960137,Viktoria-Luise-Platz,1,19601280
1835,1960137,Bayerischer Platz,2,196089
1836,1960137,Rathaus Schöneberg,3,1960946
1837,1960137,Innsbrucker Platz (Hauptstr.),4,1960560
1838,1960138,Tegel,0,19601180
1839,1960138,Borsigwerke,1,1960215
1840,1960138,Holzhauser Str.,2,1960541
1841,1960138,Seidelstr. (Flugplatz Tegel),3,19601095
1842,1960138,Scharnweberstr. (Eichborndamm),4,19601047
1843,1960138,Kurt-Schumacher-Platz,5,1960665
1844,1960138,Afrikanische Str.,6,19604
1845,1960138,Rehberge,7,1960960
1846,1960138,Seestr.,8,19601093
1847,1960138,Leopoldplatz,9,1960708
1848,1960138,Bahnhof Wedding,10,196080
1849,1960138,Reinickendorfer Str.,11,1960968
1850,1960138,Schwartzkopffstr.,12,19601073
1851,1960138,Nordbahnhof,13,1960828
1852,1960138,Oranienburger Tor,14,1960848
1853,1960138,Bahnhof Friedrichstr. (Stadtbahn),15,196077
1854,1960138,Französische Str.,16,1960361
1855,1960138,Stadtmitte (Leipziger Str.),17,19601129
1856,1960138,Kochstr.,18,1960629
1857,1960138,Hallesches Tor,19,1960468
1858,1960138,Mehringdamm,20,1960789
1859,1960138,Gneisenaustr.,21,1960411
1860,1960138,Südstern,22,19601174
1861,1960138,Hermannplatz,23,1960505
1862,1960138,Rathaus Neukölln,24,1960942
1863,1960138,Karl-Marx-Str.,25,1960596
1864,1960138,Neukölln (Südring),26,1960817
1865,1960138,Grenzallee,27,1960434
1866,1960139,Tegel,0,19601180
1867,1960139,Borsigwerke,1,1960215
1868,1960139,Holzhauser Str.,2,1960541
1869,1960139,Seidelstr. (Flugplatz Tegel),3,19601095
1870,1960139,Scharnweberstr. (Eichborndamm),4,19601047
1871,1960139,Kurt-Schumacher-Platz,5,1960665
1872,1960139,Afrikanische Str.,6,19604
1873,1960139,Rehberge,7,1960960
1874,1960139,Seestr.,8,19601093
1875,1960139,Leopoldplatz,9,1960708
1876,1960139,Bahnhof Wedding,10,196080
1877,1960139,Reinickendorfer Str.,11,1960968
1878,1960139,Schwartzkopffstr.,12,19601073
1879,1960139,Nordbahnhof,13,1960828
1880,1960139,Oranienburger Tor,14,1960848
1881,1960139,Bahnhof Friedrichstr. (Stadtbahn),15,196077
1882,1960139,Französische Str.,16,1960361
1883,1960139,Stadtmitte (Leipziger Str.),17,19601129
1884,1960139,Kochstr.,18,1960629
1885,1960139,Hallesches Tor,19,1960468
1886,1960139,Mehringdamm,20,1960789
1887,1960139,Flughafen,21,1960355
1888,1960139,Paradestr.,22,1960885
1889,1960139,Tempelhof (Südring),23,19601189
1890,1960140,Gesundbrunnen,0,1960403
1891,1960140,Voltastr.,1,19601284
1892,1960140,Bernauer Str.,2,1960110
1893,1960140,Rosenthaler Platz,3,1960992
1894,1960140,Weinmeisterstr.,4,19601319
1895,1960140,Alexanderplatz,5,196013
1896,1960140,Jannowitzbrücke,6,1960568
1897,1960140,Neanderstr.,7,1960809
1898,1960140,Moritzplatz,8,1960798
1899,1960140,Kottbusser Tor,9,1960642
1900,1960140,Kottbusser Damm (Schönleinstr.),10,1960641
1901,1960140,Hermannplatz,11,1960505
1902,1960140,Boddinstr.,12,1960209
1903,1960140,Leinestr.,13,1960699
1904,1960141,Alexanderplatz,0,196013
1905,1960141,Schillingstr.,1,19601052
1906,1960141,Strausberger Platz,2,19601157
1907,1960141,Marchlewskistr.,3,1960762
1908,1960141,Bersarinstr. (Frankfurter Tor),4,1960117
1909,1960141,Samariterstr.,5,19601037
1910,1960141,Stalinallee (Ringbahn),6,19601139
1911,1960141,Magdalenenstr.,7,1960751
1912,1960141,Bahnhof Lichtenberg (Zentralfriedhof),8,196078
1913,1960141,Friedrichsfelde (Tierpark),9,1960374
1914,1960142,Gesundbrunnen,0,1960402
1915,1960142,Schönhauser Allee,1,19601081
1916,1960142,Prenzlauer Allee,2,1960915
1917,1960142,Greifswalder Str.,3,1960429
1918,1960142,Leninallee,4,1960701
1919,1960142,Zentralviehhof,5,19601387
1920,1960142,Stalinallee,6,19601137
1921,1960142,Ostkreuz,7,1960867
1922,1960142,Treptower Park,8,19601205
1923,1960142,Sonnenallee,9,19601105
1924,1960142,Neukölln,10,1960816
1925,1960142,Hermannstr.,11,1960506
1926,1960142,Tempelhof,12,19601188
1927,1960142,Papestr.,13,1960884
1928,1960142,Schöneberg,14,19601078
1929,1960142,Innsbrucker Platz,15,1960558
1930,1960142,Wilmersdorf,16,19601357
1931,1960142,Schmargendorf,17,19601067
1932,1960142,Hohenzollerndamm,18,1960534
1933,1960142,Halensee,19,1960467
1934,1960142,Westkreuz,20,19601331
1935,1960142,Witzleben,21,19601372
1936,1960142,Westend,22,19601330
1937,1960142,Jungfernheide,23,1960578
1938,1960142,Beusselstr.,24,1960120
1939,1960142,Putlitzstr.,25,1960928
1940,1960142,Wedding,26,19601312
1941,1960142,Gesundbrunnen,27,1960402
1942,1960143,Wilmersdorf,0,19601357
1943,1960143,Innsbrucker Platz,1,1960558
1944,1960143,Schöneberg,2,19601078
1945,1960143,Papestr.,3,1960884
1946,1960143,Tempelhof,4,19601188
1947,1960143,Hermannstr.,5,1960506
1948,1960143,Neukölln,6,1960816
1949,1960143,Köllnische Heide,7,1960666
1950,1960143,Baumschulenweg,8,196087
1951,1960143,Schöneweide,9,19601079
1952,1960143,Betriebsbahnhof Schöneweide,10,1960119
1953,1960143,Adlershof,11,19602
1954,1960143,Grünau,12,1960447
1955,1960144,Blankenburg,0,1960200
1956,1960144,Pankow-Heinersdorf,1,1960880
1957,1960144,Pankow,2,1960874
1958,1960144,Schönhauser Allee,3,19601081
1959,1960144,Prenzlauer Allee,4,1960915
1960,1960144,Greifswalder Str.,5,1960429
1961,1960144,Leninallee,6,1960701
1962,1960144,Zentralviehhof,7,19601387
1963,1960144,Stalinallee,8,19601137
1964,1960144,Ostkreuz,9,1960867
1965,1960144,Warschauer Str.,10,19601305
1966,1960145,Gartenfeld,0,1960390
1967,1960145,Siemensstadt,1,19601101
1968,1960145,Wernerwerk,2,19601329
1969,1960145,Jungfernheide,3,1960578
1970,1960145,Beusselstr.,4,1960120
1971,1960145,Putlitzstr.,5,1960928
1972,1960145,Wedding,6,19601312
1973,1960145,Gesundbrunnen,7,1960402
1974,1960145,Schönhauser Allee,8,19601081
1975,1960145,Prenzlauer Allee,9,1960915
1976,1960145,Greifswalder Str.,10,1960429
1977,1960145,Leninallee,11,1960701
1978,1960145,Zentralviehhof,12,19601387
1979,1960145,Stalinallee,13,19601137
1980,1960145,Ostkreuz,14,1960867
1981,1960145,Warschauer Str.,15,19601305
1982,1960146,Halensee,0,1960467
1983,1960146,Westkreuz,1,19601331
1984,1960146,Witzleben,2,19601372
1985,1960146,Westend,3,19601330
1986,1960146,Jungfernheide,4,1960578
1987,1960146,Beusselstr.,5,1960120
1988,1960146,Putlitzstr.,6,1960928
1989,1960146,Wedding,7,19601312
1990,1960146,Gesundbrunnen,8,1960402
1991,1960146,Schönhauser Allee,9,19601081
1992,1960146,Prenzlauer Allee,10,1960915
1993,1960146,Greifswalder Str.,11,1960429
1994,1960146,Leninallee,12,1960701
1995,1960146,Zentralviehhof,13,19601387
1996,1960146,Stalinallee,14,19601137
1997,1960146,Ostkreuz,15,1960867
1998,1960146,Warschauer Str.,16,19601305
1999,1960147,Jungfernheide,0,1960578
2000,1960147,Wernerwerk,1,19601329
2001,1960147,Siemensstadt,2,19601101
2002,1960147,Gartenfeld,3,1960390
2003,1960148,Staaken,0,19601125
2004,1960148,Spandau West,1,19601110
2005,1960148,Spandau,2,19601109
2006,1960148,Pichelsberg,3,1960894
2007,1960148,Reichssportfeld,4,1960965
2008,1960148,Heerstr.,5,1960489
2009,1960148,Eichkamp,6,1960314
2010,1960148,Westkreuz,7,19601331
2011,1960148,Charlottenburg,8,1960262
2012,1960148,Savignyplatz,9,19601040
2013,1960148,Zoologischer Garten,10,19601394
2014,1960148,Tiergarten,11,19601198
2015,1960148,Bellevue,12,196092
2016,1960148,Lehrter Stadtbahnhof,13,1960697
2017,1960148,Friedrichstr.,14,1960378
2018,1960148,Marx-Engels-Platz,15,1960783
2019,1960148,Alexanderplatz,16,196012
2020,1960148,Jannowitzbrücke,17,1960567
2021,1960148,Ostbahnhof,18,1960864
2022,1960148,Warschauer Str.,19,19601305
2023,1960148,Ostkreuz,20,1960867
2024,1960148,Nöldnerplatz,21,1960833
2025,1960148,Lichtenberg,22,1960713
2026,1960148,Friedrichsfelde Ost,23,1960375
2027,1960148,Biesdorf,24,1960191
2028,1960148,Kaulsdorf,25,1960605
2029,1960148,Mahlsdorf,26,1960754
2030,1960148,Hoppegarten (Mark),27,1960544
2031,1960148,Neuenhagen (b Bln),28,1960815
2032,1960148,Fredersdorf (b Bln),29,1960363
2033,1960148,Giebelsee,30,1960404
2034,1960148,Strausberg,31,19601154
2035,1960149,Strausberg,0,19601154
2036,1960149,Strausberg Stadt,1,19601156
2037,1960149,Strausberg Nord,2,19601155
2038,1960150,Potsdam,0,1960904
2039,1960150,Babelsberg,1,196073
2040,1960150,Griebnitzsee,2,1960436
2041,1960150,Wannsee,3,19601301
2042,1960150,Nikolassee,4,1960821
2043,1960150,Grunewald,5,1960445
2044,1960150,Westkreuz,6,19601331
2045,1960150,Charlottenburg,7,1960262
2046,1960150,Savignyplatz,8,19601040
2047,1960150,Zoologischer Garten,9,19601394
2048,1960150,Tiergarten,10,19601198
2049,1960150,Bellevue,11,196092
2050,1960150,Lehrter Stadtbahnhof,12,1960697
2051,1960150,Friedrichstr.,13,1960378
2052,1960150,Marx-Engels-Platz,14,1960783
2053,1960150,Alexanderplatz,15,196012
2054,1960150,Jannowitzbrücke,16,1960567
2055,1960150,Ostbahnhof,17,1960864
2056,1960150,Warschauer Str.,18,19601305
2057,1960150,Ostkreuz,19,1960867
2058,1960150,Rummelsburg,20,1960997
2059,1960150,Betriebsbahnhof Rummelsburg,21,1960118
2060,1960150,Karlshorst,22,1960597
2061,1960150,Wuhlheide,23,19601378
2062,1960150,Köpenick,24,1960678
2063,1960150,Hirschgarten,25,1960518
2064,1960150,Friedrichshagen,26,1960376
2065,1960150,Rahnsdorf,27,1960933
2066,1960150,Wilhelmshagen,28,19601352
2067,1960150,Erkner,29,1960330
2068,1960151,Falkensee,0,1960342
2069,1960151,Albrechtshof,1,19609
2070,1960151,Spandau West,2,19601110
2071,1960151,Spandau,3,19601109
2072,1960151,Pichelsberg,4,1960894
2073,1960151,Reichssportfeld,5,1960965
2074,1960151,Heerstr.,6,1960489
2075,1960151,Eichkamp,7,1960314
2076,1960151,Westkreuz,8,19601331
2077,1960151,Charlottenburg,9,1960262
2078,1960151,Savignyplatz,10,19601040
2079,1960151,Zoologischer Garten,11,19601394
2080,1960151,Tiergarten,12,19601198
2081,1960151,Bellevue,13,196092
2082,1960151,Lehrter Stadtbahnhof,14,1960697
2083,1960151,Friedrichstr.,15,1960378
2084,1960151,Marx-Engels-Platz,16,1960783
2085,1960151,Alexanderplatz,17,196012
2086,1960151,Jannowitzbrücke,18,1960567
2087,1960151,Ostbahnhof,19,1960864
2088,1960151,Warschauer Str.,20,19601305
2089,1960151,Ostkreuz,21,1960867
2090,1960151,Treptower Park,22,19601205
2091,1960151,Plänterwald,23,1960900
2092,1960151,Baumschulenweg,24,196087
2093,1960151,Schöneweide,25,19601079
2094,1960151,Betriebsbahnhof Schöneweide,26,1960119
2095,1960151,Adlershof,27,19602
2096,1960151,Grünau,28,1960447
2097,1960151,Eichwalde,29,1960315
2098,1960151,Zeuthen,30,19601389
2099,1960151,Wildau,31,19601345
2100,1960151,Königs Wusterhausen,32,1960672
2101,1960152,Spandau West,0,19601110
2102,1960152,Spandau,1,19601109
2103,1960152,Siemensstadt-Fürstenbrunn,2,19601102
2104,1960152,Jungfernheide,3,1960578
2105,1960152,Beusselstr.,4,1960120
2106,1960152,Putlitzstr.,5,1960928
2107,1960152,Wedding,6,19601312
2108,1960152,Gesundbrunnen,7,1960402
2109,1960152,Schönhauser Allee,8,19601081
2110,1960152,Prenzlauer Allee,9,1960915
2111,1960152,Greifswalder Str.,10,1960429
2112,1960152,Leninallee,11,1960701
2113,1960152,Zentralviehhof,12,19601387
2114,1960152,Stalinallee,13,19601137
2115,1960152,Ostkreuz,14,1960867
2116,1960152,Treptower Park,15,19601205
2117,1960152,Plänterwald,16,1960900
2118,1960152,Baumschulenweg,17,196087
2119,1960152,Schöneweide,18,19601079
2120,1960152,Oberspree,19,1960835
2121,1960152,Spindlersfeld,20,19601118
2122,1960153,Oranienburg,0,1960842
2123,1960153,Lehnitz,1,1960696
2124,1960153,Borgsdorf,2,1960212
2125,1960153,Birkenwerder,3,1960193
2126,1960153,Hohen-Neuendorf (b Bln),4,1960526
2127,1960153,Frohnau,5,1960382
2128,1960153,Hermsdorf,6,1960508
2129,1960153,Waidmannslust,7,19601286
2130,1960153,Wittenau (Nordbahn),8,19601368
2131,1960153,Wilhelmsruh,9,19601353
2132,1960153,Schönholz,10,19601083
2133,1960153,Wollankstr.,11,19601374
2134,1960153,Bornholmer Str.,12,1960213
2135,1960153,Gesundbrunnen,13,1960402
2136,1960153,Humboldthain,14,1960549
2137,1960153,Nordbahnhof,15,1960827
2138,1960153,Oranienburger Str.,16,1960843
2139,1960153,Friedrichstr.,17,1960378
2140,1960153,Unter den Linden,18,19601271
2141,1960153,Potsdamer Platz,19,1960905
2142,1960153,Anhalter Bahnhof,20,196056
2143,1960153,Großgörschenstr.,21,1960444
2144,1960153,Schöneberg,22,19601078
2145,1960153,Friedenau,23,1960365
2146,1960153,Feuerbachstr.,24,1960348
2147,1960153,Steglitz,25,19601141
2148,1960153,Botanischer Garten,26,1960218
2149,1960153,Lichterfelde West,27,1960721
2150,1960153,Sundgauer Str.,28,19601167
2151,1960153,Zehlendorf,29,19601385
2152,1960153,Lindenthaler Allee,30,1960730
2153,1960153,Schlachtensee,31,19601054
2154,1960153,Nikolassee,32,1960821
2155,1960153,Wannsee,33,19601301
2156,1960154,Zehlendorf,0,19601385
2157,1960154,Düppel-Kleinmachnow,1,1960305
2158,1960155,Wannsee,0,19601301
2159,1960155,Dreilinden,1,1960302
2160,1960155,Stahnsdorf,2,19601135
2161,1960156,Velten (Mark),0,19601275
2162,1960156,Hohenschöpping,1,1960531
2163,1960156,Hennigsdorf,2,1960501
2164,1960156,Hennigsdorf (b Bln),3,1960502
2165,1960156,Stolpe Süd,4,19601147
2166,1960156,Heiligensee,5,1960494
2167,1960156,Schulzendorf (b Tegel),6,19601071
2168,1960156,Tegel,7,19601179
2169,1960156,Eichbornstr.,8,1960310
2170,1960156,Wittenau (Kremmener Bahn),9,19601367
2171,1960156,Reinickendorf,10,1960967
2172,1960156,Schönholz,11,19601083
2173,1960156,Wollankstr.,12,19601374
2174,1960156,Bornholmer Str.,13,1960213
2175,1960156,Gesundbrunnen,14,1960402
2176,1960156,Humboldthain,15,1960549
2177,1960156,Nordbahnhof,16,1960827
2178,1960156,Oranienburger Str.,17,1960843
2179,1960156,Friedrichstr.,18,1960378
2180,1960156,Unter den Linden,19,19601271
2181,1960156,Potsdamer Platz,20,1960905
2182,1960156,Anhalter Bahnhof,21,196056
2183,1960156,Yorckstr.,22,19601379
2184,1960156,Papestr.,23,1960884
2185,1960156,Priesterweg,24,1960922
2186,1960156,Mariendorf,25,1960765
2187,1960156,Marienfelde,26,1960772
2188,1960156,Buckower Ch.,27,1960239
2189,1960156,Lichtenrade,28,1960714
2190,1960156,Mahlow,29,1960753
2191,1960156,Blankenfelde,30,1960203
2192,1960156,Dahlewitz,31,1960280
2193,1960156,Rangsdorf,32,1960936
2194,1960157,Bernau (b Bln),0,1960109
2195,1960157,Zepernick (Kr Niederbarnim),1,19601388
2196,1960157,Röntgental,2,19601000
2197,1960157,Buch,3,1960236
2198,1960157,Karow,4,1960600
2199,1960157,Blankenburg,5,1960200
2200,1960157,Pankow-Heinersdorf,6,1960880
2201,1960157,Pankow,7,1960874
2202,1960157,Bornholmer Str.,8,1960213
2203,1960157,Gesundbrunnen,9,1960402
2204,1960157,Humboldthain,10,1960549
2205,1960157,Nordbahnhof,11,1960827
2206,1960157,Oranienburger Str.,12,1960843
2207,1960157,Friedrichstr.,13,1960378
2208,1960157,Unter den Linden,14,19601271
2209,1960157,Potsdamer Platz,15,1960905
2210,1960157,Anhalter Bahnhof,16,196056
2211,1960157,Yorckstr.,17,19601379
2212,1960157,Papestr.,18,1960884
2213,1960157,Priesterweg,19,1960922
2214,1960157,Südende,20,19601171
2215,1960157,Lankwitz,21,1960691
2216,1960157,Lichterfelde Ost,22,1960718
2217,1960157,Lichterfelde Süd,23,1960719
2218,1960157,Teltow,24,19601183
