,stop_id,stop_name,type,location,in_lines,identifier
0,19600,4. Ring,bus,"52.42250630689789, 13.2869490566549",A53,nan
1,19601,Adamstrasse,bus,"52.521029117218866, 13.19780699419913","A34,A35",nan
2,19602,Adlershof,s-bahn,"52.434722222222,13.541388888889","KBS 103,KBS 100a",Q323551
3,19603,Adolf-Scheidt-Platz,strassenbahn,"52.478194856980814, 13.37836902238447",95,nan
4,19604,Afrikanische Str.,u-bahn,"52.560027777778,13.334633333333","C II,C I",Q559239
5,19605,Afrikanische Strasse,bus,"52.54630154020319, 13.343855247543928",A16,nan
6,19606,Afrikanische Strasse,bus,"52.56092107945643, 13.333499647590612",A64,nan
7,19607,"Ahrensfeld, Kirche",bus,"52.57532170199278, 13.576515606968998",A46,nan
8,19608,Albertstrasse,strassenbahn,"52.48441764584102, 13.352842591071507","74,73",nan
9,19609,Albrechtshof,s-bahn,"52.5494,13.1283",KBS 103,Q800470
10,196010,Albrechtstrasse,bus,"52.52325414751492, 13.383819128683713",A57,nan
11,196011,"Alexanderplats, Memhardstr.",strassenbahn,"52.5233439,13.4110773",1,Q65227406
12,196012,Alexanderplatz,s-bahn,"52.521388888889,13.411944444444","KBS 103,KBS 102,KBS 101",Q111324700
13,196013,Alexanderplatz,u-bahn,"52.5214,13.4119","A I,D,A II,E",Q17173458
14,196014,"Alexanderplatz, Grunerstrasse",strassenbahn,"52.52008326268696, 13.41408418961877","74,72,71,82,74E",nan
15,196015,"Alexanderplatz, Grunestrasse",strassenbahn,"52.52008326268696, 13.41408418961877",64,nan
16,196016,"Alexanderplatz, Memhardstrasse",strassenbahn,"52.5233439,13.4110773","69,11,63,22",Q65227406
17,196017,"Alt-Biesdorf, Oberfeldstrasse",bus,"52.50918606891929, 13.553347058493491",A8,nan
18,196018,Alt-Buch,bus,"52.63585516282156, 13.50090380436997",A42,nan
19,196019,Alt-Buckow,strassenbahn,"52.42369898147204, 13.43651094045107",27,nan
20,196020,Alt-Heiligensee,bus,"52.60616921042186, 13.210646859320935","A13,A14",nan
21,196021,Alt-Kladow,bus,"52.454591413254434, 13.144488043956764","A34,A35",nan
22,196022,Alt-Mariendorf,bus,"52.44015553185248, 13.387328254903215",AS2,nan
23,196023,Alt-Mariendorf,strassenbahn,"52.4401532176395, 13.387265005984174",99,nan
24,196024,Alt-Marienfelde,bus,"52.413385082183694, 13.36338063003787",A52,nan
25,196025,"Alt-Marzahn, Kirche",bus,"52.542423454435976, 13.564061751343658",O37,nan
26,196026,Alt-Moabit,bus,"52.524078460891005, 13.357069143313803",A24,nan
27,196027,Alt-Moabit,bus,"52.52437871670591, 13.350938481047272",A66,nan
28,196028,Alt-Müggelheim,bus,"52.41018331064196, 13.665897531850348",A27,nan
29,196029,Alt-Schm ckwitz,bus (Umlandlinie),"52.37536708814027, 13.649399886968025","Schmöckwitz<>Eichwalde (VEB Kraftverkehr Schöneiche-Rüdersdorf),Schmöckwitz<>Ziegenhals (VEB Kraftverkehr Schöneiche-Rüdersdorf)",nan
30,196030,Alt-Schmöckwitz,strassenbahn,"52.3752767,13.649549",86,Q66459540
31,196031,Alt-Tempelhof,strassenbahn,"52.4660774066416, 13.3856316379907","99,96,98",nan
32,196032,Alt-Wittenau,bus,"52.58972877186178, 13.334169215342472",A62,nan
33,196033,Alt-Wittenau,bus,"52.59166508975595, 13.326326895395114","A15,A21",nan
34,196034,Alte Wagenhalle,strassenbahn,"52.39228324366295, 13.224814455372194",96,nan
35,196035,"Altglienicke, Am Falkenberg",strassenbahn,"52.41079970042163, 13.570452931545786",84,nan
36,196036,"Altglienicke, Kirche",bus,"52.421845729296805, 13.539407702079252",A23,nan
37,196037,Am Beelitzhof,bus,"52.432202091928794, 13.186661564435827",A3,nan
38,196038,Am Dachsbau,bus,"52.60655284387061, 13.22984370797522",A13,nan
39,196039,Am Flie,bus,"52.6034575714732, 13.289613652822638",A15,nan
40,196040,Am Grossen Wannsee,bus,"52.420496581432594, 13.167192967572669","A3,A6,A18,A51",nan
41,196041,Am Kupfergraben,strassenbahn,"52.5194208,13.3953839",1,Q65055027
42,196042,Am Kupfergraben (Haus der Frau),strassenbahn,"52.51968436891945, 13.396249324607327",70,nan
43,196043,Am Nordhafen,bus,"52.53868315849872, 13.363248409190426",A70,nan
44,196044,Am Oberhafen,bus,"52.465017297775326, 13.450594183790596",A67,nan
45,196045,Am Rosenhag,bus,"52.52474356253909, 13.621775828105108","A44E,A44",nan
46,196046,Am Steinberg,bus,"52.55648144940878, 13.429306764151775","A45,A42",nan
47,196047,Am Steinberg,strassenbahn,"52.5585796,13.4333751",71,Q65103320
48,196048,Am Treptower Park Ecke Bulgarische Strasse,strassenbahn,"52.48147563483442, 13.472811198997826",87,nan
49,196049,Am Vierrutenbert,bus,"52.613698620824124, 13.344231823340426",A20,nan
50,196050,Am Volkspark,bus,"52.483222065143515, 13.32036833862448",A60,nan
51,196051,Amtsgerichsplatz,bus,"52.50685665976427, 13.295057483522156",A10,nan
52,196052,Amtsgericht,strassenbahn,"52.50682617853116, 13.297391449613752","75,76",nan
53,196053,Amtsgericht Charlottenburg,bus,"52.50571853839105, 13.295347400894903",A21,nan
54,196054,Andreasstrasse,bus,"52.51797306914227, 13.432895480772247",O30,nan
55,196055,Andreasstrasse,strassenbahn,"52.51085823996067, 13.430402171026154",82,nan
56,196056,Anhalter Bahnhof,s-bahn,"52.503055555556,13.381944444444","KBS 105,KBS 106,KBS 104",Q111324573
57,196057,Anhalter Bahnhof,strassenbahn,"52.50453275122, 13.382326534592197",88,nan
58,196058,Anhalter Bhf.,bus,"52.504693895352524, 13.381969502572149","A24,A29",nan
59,196059,Antonplatz,strassenbahn,"52.5484803,13.4517416","74,72,70,3,74E",Q65548849
60,196060,Arnimallee,bus,"52.45789378609326, 13.299570204130864",A68,nan
61,196061,Aroser Allee,bus,"52.57376245122369, 13.351970705456408","A61,A14",nan
62,196062,Askanierring,bus,"52.545679974269035, 13.194267325495874","A35,A63",nan
63,196063,Askanierring,bus,"52.54891706140618, 13.193495587303872",A34,nan
64,196064,Attilaplatz,bus,"52.45590179888225, 13.376512495751076","A25,AS2",nan
65,196065,Attilaplatz,strassenbahn,"52.455498340147045, 13.375619638525905","96,95",nan
66,196066,Auguste-Viktoria-Allee,bus,"52.569268504658915, 13.329801350092811",A62,nan
67,196067,Augustenburger Platz,strassenbahn,"52.54195473048106, 13.349004434392675",25,nan
68,196068,B hler Weg,bus,"52.41724643282917, 13.412638052235238",A52,nan
69,196069,BSC-Sportplatz,bus,"52.48590335523557, 13.284366733504768",A29,nan
70,196070,"BVG-Bf. Lichtenberg, Siegfriedstrasse",strassenbahn,"52.5206411,13.4994454","69,69E",Q66014798
71,196071,"BVG-Bf. Lichtenberg, Siegfriestrasse",bus,"52.52004640241046, 13.499373630980266",O30,nan
72,196072,BVG-Bf. Weißensee,strassenbahn,"52.557019987591296, 13.4676689116181",74,nan
73,196073,Babelsberg,s-bahn,"52.3914,13.0928",KBS 102,Q801326
74,196074,Badstrasse,bus,"52.55228040855936, 13.381394276023574",A70,nan
75,196075,Badstrasse/Prinzenallee,bus,"52.55231378388406, 13.381413167559051",A71,nan
76,196076,Baerwaldstrasse,strassenbahn,"52.49390938472972, 13.403182384220054",95,nan
77,196077,Bahnhof Friedrichstr. (Stadtbahn),u-bahn,"52.520111111111,13.388305555556","C II,C I",Q3753274
78,196078,Bahnhof Lichtenberg (Zentralfriedhof),u-bahn,"52.510556,13.496389",E,Q3831986
79,196079,Bahnhof Tempelhof,strassenbahn,"52.46587999632718, 13.38561353594905",98,nan
80,196080,Bahnhof Wedding,u-bahn,"52.5425,13.366111","C II,C I",Q4018733
81,196081,Bahnhofstrasse,strassenbahn,"52.40244986860125, 13.512704137216817",47,nan
82,196082,Bahnhofstrasse Ecke Lindenstrasse,bus,"52.45096281111, 13.572146868709519",A27,nan
83,196083,Bahnhofstrasse Ecke Lindenstrasse,strassenbahn,"52.4505094,13.572684","87,82",Q66095701
84,196084,Barfusstrasse,bus,"52.554307201956135, 13.345153941265151","A12,A12S",nan
85,196085,Baumschulenstrasse,strassenbahn,"52.469081846595664, 13.491329912138305",92,nan
86,196086,Baumschulenstrasse Ecke Südostallee,bus,"52.46095841731415, 13.481191835004426",A47,nan
87,196087,Baumschulenweg,s-bahn,"52.4675,13.489722","KBS 103,KBS 100a,KBS 103a",Q324336
88,196088,"Baumschulenweg, Sonnenallee",strassenbahn,"52.46729434178432, 13.489094025693007",95,nan
89,196089,Bayerischer Platz,u-bahn,"52.488333333333,13.340277777778",B III,Q668574
90,196090,Beeskowdamm,bus,"52.40965850195346, 13.267308742502374",A1,nan
91,196091,Behring-Krankenhaus,bus,"52.42410894567823, 13.251764544509987",A10,nan
92,196092,Bellevue,s-bahn,"52.52,13.348055555556","KBS 103,KBS 102,KBS 101",Q374018
93,196093,Belziger Strasse,strassenbahn,"52.48469759121592, 13.34547616644445",66,nan
94,196094,Benschallee,bus,"52.42959261918116, 13.22400013419735","A3,A18",nan
95,196095,Benzolwerk,strassenbahn,"52.426414690299055, 13.546444409734137",84,nan
96,196096,"Bergfelde, Karl-Marx-Strasse",bus,"52.665111405939506, 13.307446011435928",AN,nan
97,196097,Bergstrasse,bus,"52.458183734651705, 13.329753854060407",A68,nan
98,196098,Bergstrasse,bus,"52.45863201901168, 13.339308585029036",A2,nan
99,196099,Bergstrasse,strassenbahn,"52.45916314067555, 13.34768142911793",66,nan
100,1960100,Berkaer Strasse,bus,"52.48209270683341, 13.281182952838728",A29,nan
101,1960101,"Berkaer Strasse, Elsterplatz",bus,"52.479592141367654, 13.285296936169493",AS3,nan
102,1960102,Berliner Strasse,bus,"52.430812764146886, 13.317504947138493",A11,nan
103,1960103,Berliner Strasse,bus,"52.43506128153174, 13.260479781039699",A53,nan
104,1960104,Berliner Strasse,bus,"52.48647817230135, 13.32051384057218",A60,nan
105,1960105,Berliner Strasse,bus,"52.48732335019939, 13.330965094326162","AS2,A2",nan
106,1960106,Berliner Strasse,strassenbahn,"52.42581131985521, 13.316760031991025",96,nan
107,1960107,Berlinickeplatz,bus,"52.46607292094852, 13.378516406213421",A65,nan
108,1960108,Berlinickeplatz,strassenbahn,"52.466329675590764, 13.378144688199017",95,nan
109,1960109,Bernau (b Bln),s-bahn,"52.6763,13.5931",KBS 106,Q479789
110,1960110,Bernauer Str.,u-bahn,"52.5375,13.396666666667",D,Q689293
111,1960111,Bernauer Strasse,bus,"52.53341403688134, 13.387603209024276",A64,nan
112,1960112,Bernauer Strasse,bus,"52.538252555466876, 13.396009073652834",A61,nan
113,1960113,Bernauer Strasse,bus,"52.57629905299874, 13.294692761311245",A13,nan
114,1960114,Bernauer Strasse Ecke Gartenstrasse,bus,"52.53339472474513, 13.387460450356432",A64,nan
115,1960115,Bernauer Strasse/Brunnenstrasse,bus,"52.53829556916397, 13.396023771544826",A71,nan
116,1960116,Bersarinplatz,strassenbahn,"52.519215,13.4525257","13,4",Q65706258
117,1960117,Bersarinstr. (Frankfurter Tor),u-bahn,"52.515833333333,13.454166666667",E,Q568627
118,1960118,Betriebsbahnhof Rummelsburg,s-bahn,"52.4939,13.4978",KBS 102,Q829009
119,1960119,Betriebsbahnhof Schöneweide,s-bahn,"52.44676,13.52391","KBS 103,KBS 100a",Q4526101
120,1960120,Beusselstr.,s-bahn,"52.534444444444,13.329166666667","KBS 100,KBS 103a,KBS 100c",Q323219
121,1960121,Bezirksamt,bus,"52.54146443211212, 13.200850156157355",A63,nan
122,1960122,Bhf. Bellevue,bus,"52.52009880656925, 13.34717428282986",A66,nan
123,1960123,Bhf. Beusselstrasse,strassenbahn,"52.53430684410127, 13.32833762655072",3,nan
124,1960124,Bhf. Botanischer Garten,strassenbahn,"52.44730098506532, 13.3083006582632","78,77",nan
125,1960125,Bhf. Buckower Chaussee,bus,"52.41109589500145, 13.382466497921738",A52,nan
126,1960126,Bhf. Eichbornstrasse,bus,"52.57760143817809, 13.31554154716","A15,A21",nan
127,1960127,Bhf. Eichwalde,bus (Umlandlinie),"52.371950560017005, 13.614447144096058",Schmöckwitz<>Eichwalde (VEB Kraftverkehr Schöneiche-Rüdersdorf),nan
128,1960128,Bhf. Feuerbachstrasse,bus,"52.46385037171255, 13.332255352360685",A2,nan
129,1960129,Bhf. Friedrichstrasse,bus,"52.5205606637086, 13.388231915342985","A57,A9",nan
130,1960130,Bhf. Frohnau,bus,"52.63311782571585, 13.28947655939645","A15,A12,A12S",nan
131,1960131,Bhf. Gesundbrunnen,bus,"52.548738600413905, 13.387745851632966","A61,A71",nan
132,1960132,Bhf. Gesundbrunnen,strassenbahn,"52.54913505997412, 13.38715173368261",25,nan
133,1960133,Bhf. Groß Ziethen,bus,"52.39427199849872, 13.442667394442617",AZ,nan
134,1960134,Bhf. Grunewald,bus,"52.488010147803465, 13.26315524644143",A17,nan
135,1960135,Bhf. Grünau,strassenbahn,"52.413493,13.5746802",86,Q62470512
136,1960136,Bhf. Halensee,bus,"52.496865585452014, 13.289557340809273","A29,A66,A19,A10,A4,A69",nan
137,1960137,Bhf. Heerstrasse,strassenbahn,"52.50857975740797, 13.258353900023156","75,76",nan
138,1960138,Bhf. Heiligensee,bus,"52.625151238346696, 13.229659068045944",A14,nan
139,1960139,Bhf. Hermannstrasse,strassenbahn,"52.4676866643192, 13.431210901516543",27,nan
140,1960140,Bhf. Hermsdorf,bus,"52.61953939324446, 13.30416069232153",A15,nan
141,1960141,Bhf. Hohenzollerndamm,bus,"52.48832716566947, 13.301436926268025","A65,AS3,A50,A21",nan
142,1960142,Bhf. JannowitzBrücke,strassenbahn,"52.51478599600389, 13.418056238742702",11,nan
143,1960143,Bhf. Jungfernheide,bus,"52.530138785889896, 13.296018817180764","A62,A65,A21",nan
144,1960144,Bhf. Jungfernheide,strassenbahn,"52.53103413649224, 13.300559481238167","55,35",nan
145,1960145,Bhf. Lichtenberg,bus,"52.5112875601879, 13.499591119128855","O30,O37",nan
146,1960146,Bhf. Lichtenberg,strassenbahn,"52.5123603,13.4977547","69,69E",Q66013733
147,1960147,Bhf. Lichtenrade,strassenbahn,"52.38669305818232, 13.39694576786419",99,nan
148,1960148,Bhf. Lichterfelde-Ost,bus,"52.42911680950547, 13.329847267881705",A11,nan
149,1960149,Bhf. Lichterfelde-Ost,strassenbahn,"52.4289149405705, 13.329002919186095","96,73",nan
150,1960150,Bhf. Lichterfelde-West,bus,"52.44397675869793, 13.295628699942629",A11,nan
151,1960151,Bhf. Lichterfelde-West,strassenbahn,"52.442695165817675, 13.297046489476738","78,77",nan
152,1960152,Bhf. Lindenthaler Allee,bus,"52.43102570943782, 13.229881678326638",A3,nan
153,1960153,Bhf. Mariendorf,bus,"52.446757741789085, 13.360550212856184",A33,nan
154,1960154,Bhf. Mariendorf,strassenbahn,"52.447078310256, 13.361439800164863",96,nan
155,1960155,Bhf. Marienfelde,bus,"52.42342246533686, 13.374664175181172",A32,nan
156,1960156,Bhf. Marienfelde,strassenbahn,"52.42613307832105, 13.375057660174704",15,nan
157,1960157,Bhf. Neukölln,strassenbahn,"52.469429556071695, 13.441761396090287",6,nan
158,1960158,Bhf. Nikolassee,bus,"52.43378197004219, 13.193152057415048",A3,nan
159,1960159,Bhf. Oberspree,strassenbahn,"52.4528394661769, 13.537375168003551",92,nan
160,1960160,Bhf. Papestrasse,strassenbahn,"52.474088737380455, 13.363804736501839","60,6",nan
161,1960161,Bhf. PutlitzStrasse,bus,"52.53620612444645, 13.34371268088147",A16,nan
162,1960162,Bhf. Rosenthal,strassenbahn,"52.598664,13.3726652",22,Q65364041
163,1960163,Bhf. Sch neberg,bus,"52.47998202930639, 13.352548515779949",A65,nan
164,1960164,Bhf. Schulzendorf,bus,"52.61386001623567, 13.245879660333635",A14,nan
165,1960165,Bhf. Schöneweide,bus,"52.45374952013775, 13.510200397684477",A47,nan
166,1960166,Bhf. Schöneweide,strassenbahn,"52.45640818289644, 13.509916574756422","69,69E,92,87",nan
167,1960167,Bhf. Sonnenallee,bus,"52.473861610807525, 13.455874121666916",A67,nan
168,1960168,Bhf. Sonnenallee,strassenbahn,"52.47414312526527, 13.455499525035636","95,15",nan
169,1960169,Bhf. Spandau-West,bus,"52.53497194201396, 13.198460334945361","A5,A63",nan
170,1960170,Bhf. Stalineallee,strassenbahn,"52.5138037,13.4773772",3,Q65948557
171,1960171,Bhf. Steglitz,bus,"52.4567389564548, 13.32114701824465","A68,A33",nan
172,1960172,Bhf. Steglitz,strassenbahn,"52.45628485348418, 13.322383851748043",44,nan
173,1960173,Bhf. Südende,bus,"52.44906892859584, 13.354097834514832",A33,nan
174,1960174,Bhf. Teltowkanal,strassenbahn,"52.45739188437929, 13.412438576146661",26,nan
175,1960175,Bhf. Tempelhof,bus,"52.47084694496318, 13.385638120230526",A65,nan
176,1960176,Bhf. Waidmannslust,bus,"52.60711750606285, 13.32022370793147",A20,nan
177,1960177,Bhf. Wannsee,bus,"52.42151302311533, 13.17810256503659","A3,A6,A51",nan
178,1960178,Bhf. Warschauer Brücke,strassenbahn,"52.5080429,13.4505973","3,4",Q65706190
179,1960179,Bhf. Wedding,bus,"52.544296601785504, 13.369913083294957",A70,nan
180,1960180,Bhf. Westend,bus,"52.51866044969405, 13.28427669582671",A65,nan
181,1960181,Bhf. Wilhelmsruh,bus,"52.58102921945559, 13.363635067647111",A71,nan
182,1960182,Bhf. Wilhelmsruh,strassenbahn,"52.581085096062374, 13.3634387891469",35,nan
183,1960183,Bhf. Wittenau,bus,"52.59721246906266, 13.332631469768408",A15,nan
184,1960184,Bhf. Wollankstrasse,bus,"52.56453849178735, 13.393420272477442",A70,nan
185,1960185,Bhf. Yorckstrasse,bus,"52.49297747613118, 13.369530914840707",A19,nan
186,1960186,Bhf. Yorckstrasse,strassenbahn,"52.49299429081086, 13.369189318291125",2,nan
187,1960187,Bhf. Zehlendorf,bus,"52.43121177777893, 13.259164408129196","A1,A53",nan
188,1960188,Bhf. Zoo,bus,"52.506232782829265, 13.332362081097921","AS1,A62,AS3,A25,AS2,A2",nan
189,1960189,Bhf. Zoo,strassenbahn,"52.50719345524868, 13.332629878993917","6,25,78,2,77,54,55,53",nan
190,1960190,"Bhf. Zoo, Kantstrasse",strassenbahn,"52.50540350310839, 13.330367559360592",75,nan
191,1960191,Biesdorf,s-bahn,"52.5131,13.5554",KBS 101,Q4892357
192,1960192,Birkbuschstrasse,strassenbahn,"52.442435762081416, 13.332071963933217",44,nan
193,1960193,Birkenwerder,s-bahn,"52.6885,13.2888",KBS 104,Q2343634
194,1960194,BismarckStrasse,bus,"52.42810525201655, 13.325401344478106",A17,nan
195,1960195,Bismarckplatz,bus,"52.492064537089135, 13.28493897027407","A66,A69,A29",nan
196,1960196,Bismarckstrasse,bus,"52.42807192993347, 13.325509812749845",A11,nan
197,1960197,Bismarckstrasse,bus,"52.45105788558934, 13.337947293504078",A33,nan
198,1960198,Bismarckstrasse,bus,"52.458629268184715, 13.33930401807899",A68,nan
199,1960199,Bj rnsonstrasse,strassenbahn,"52.5544232,13.4030585",3,Q65920495
200,1960200,Blankenburg,s-bahn,"52.5915,13.4435","KBS 106,KBS 100b",Q800469
201,1960201,"Blankenburg, Bahnhofstrasse",bus,"52.591380472079955, 13.453512267562314",A42,nan
202,1960202,Blankenburger Weiche,strassenbahn,"52.59393771117341, 13.432128114084042",49,nan
203,1960203,Blankenfelde,s-bahn,"52.3376,13.4158",KBS 105,Q111311372
204,1960204,"Blankenfelde, Hauptstrasse",bus,"52.63002534735451, 13.38262328371393",A7,nan
205,1960205,Bleibtreustrasse,bus,"52.50162717169989, 13.319466346593028",A69,nan
206,1960206,Blockdammweg Ecke Köpenicker Chaussee,strassenbahn,"52.4832902,13.5016748",82,Q66085176
207,1960207,Blumenstrasse/Schicklerstrasse,strassenbahn,"52.5165758248604, 13.418211869015078",82,nan
208,1960208,Blöcherplatz,strassenbahn,"52.49594433158441, 13.390772806521472",95,nan
209,1960209,Boddinstr.,u-bahn,"52.48,13.425277777778",D,Q819495
210,1960210,"Bohnsdorf, Kirche",bus,"52.39948771402893, 13.555574431978044",AD/36,nan
211,1960211,"Bohnsdorf, Waldstrasse",bus,"52.389397192754984, 13.570666562153916",A38,nan
212,1960212,Borgsdorf,s-bahn,"52.7155,13.2764",KBS 104,Q4093486
213,1960213,Bornholmer Str.,s-bahn,"52.554287,13.397985","KBS 105,KBS 106,KBS 104",Q32662318
214,1960214,Borsigwalder Weg,bus,"52.58482847787268, 13.29793542584195",A15,nan
215,1960215,Borsigwerke,u-bahn,"52.5819,13.2907","C II,C I",Q525185
216,1960216,Bosestrasse,strassenbahn,"52.46316918099263, 13.369979739293505",60,nan
217,1960217,Botanischer Garten,bus,"52.458598799471524, 13.303436055459807","A68,A1",nan
218,1960218,Botanischer Garten,s-bahn,"52.44806,13.30722",KBS 104,Q800498
219,1960219,Boxhagener Strasse,strassenbahn,"52.50705770251508, 13.468302201729777",3,nan
220,1960220,Brabanter Platz,bus,"52.48200661448961, 13.316219175470072",A60,nan
221,1960221,Brandenburger Tor,bus,"52.51776764730101, 13.370281416321609",A69,nan
222,1960222,Brauerei,strassenbahn,"52.44699265840037, 13.624251999339991",84,nan
223,1960223,Breite Strasse,bus,"52.45435057367761, 13.328307509759025","A68,A33",nan
224,1960224,Breite Strasse,bus,"52.53613613360638, 13.20450629947795","A5,A31",nan
225,1960225,Breitenbachplatz,bus,"52.467219717443385, 13.309473490660878","A32,A1,A16",nan
226,1960226,Breitenbachplatz,u-bahn,"52.466388888889,13.308055555556","B II,A II",Q571339
227,1960227,Breitscheidplatz,bus,"52.504438063129996, 13.33564615707506","A60,A29,A66,A19,A69",nan
228,1960228,Bristolstrasse,bus,"52.558311542070335, 13.351189355013176",A12,nan
229,1960229,Britzer Damm,strassenbahn,"52.45263649686008, 13.438488977108278",6,nan
230,1960230,Britzer Strasse,strassenbahn,"52.45407075126685, 13.51932686914549",92,nan
231,1960231,Brixplatz,bus,"52.51907944117457, 13.25699370576959",A4,nan
232,1960232,Brunnen Ecke Invalidenstrasse,strassenbahn,"52.5324542,13.3974236","11,1",Q65691740
233,1960233,Brunnenstrasse,strassenbahn,"52.5324542,13.3974236","70,46E,46",Q65691740
234,1960234,Brunneplatz,bus,"52.549541217271994, 13.376971008597554",A70,nan
235,1960235,Brunsb tteler Damm,bus,"52.53297092580436, 13.19828647148509",A31,nan
236,1960236,Buch,s-bahn,"52.6359,13.4917",KBS 106,Q4892359
237,1960237,"Buch, Zepernicker Strasse",bus,"52.64161725444106, 13.515575706154056",A42,nan
238,1960238,"Buchholz, Hauptstrasse",strassenbahn,"52.619072064369824, 13.393383358408967",49,nan
239,1960239,Buckower Ch.,s-bahn,"52.4103,13.3829",KBS 105,Q800499
240,1960240,Buckower Chaussee,bus,"52.414558044256225, 13.401161035852658",AS2,nan
241,1960241,Buckower Damm,bus,"52.42368329841466, 13.436638725763267",A52,nan
242,1960242,Buckower Friedhof,bus,"52.42151537347778, 13.43036950960343",A52,nan
243,1960243,Bulgarische Strasse,strassenbahn,"52.48142358933512, 13.473067363351124",92,nan
244,1960244,Bundesallee,bus,"52.46493052962428, 13.32853185257923","A17,A48",nan
245,1960245,Bundesallee,strassenbahn,"52.46492119902574, 13.32837406654589","74,73",nan
246,1960246,Bundesallee Ecke Badensche Strasse,bus,"52.48613795045858, 13.33110029774997",A4,nan
247,1960247,Bundesallee Ecke Berliner Strasse,strassenbahn,"52.48733630342845, 13.331014163134173","60,3,78,77",nan
248,1960248,Bundesplatz,bus,"52.478678991134835, 13.32860278411238","A16,A65,A25,AS2,A2",nan
249,1960249,Bundesplatz,strassenbahn,"52.4777799057296, 13.328566193541166","44,77,78",nan
250,1960250,Buschallee Ecke Klement-Gottwald-Allee,strassenbahn,"52.5537598,13.4691966",70,Q65546661
251,1960251,Buschkrug,strassenbahn,"52.452470895695484, 13.450748195174354","6,47",nan
252,1960252,Bülowstr.,u-bahn,"52.497552777778,13.363419444444","A I,A II",Q374881
253,1960253,Bürknersfelde,bus,"52.549540493749184, 13.586689708671303","O41,A43,O37",nan
254,1960254,Bütower Strasse,strassenbahn,"52.4861026,13.6039833",83,Q66364552
255,1960255,Canovastrasse,bus,"52.46306323889937, 13.342852729949465",AS2,nan
256,1960256,Canovastrasse (Krankenhaus),strassenbahn,"52.4631967931949, 13.344688692199414",66,nan
257,1960257,Carl-Schurz-Strasse,strassenbahn,"52.53759585854496, 13.203799788543511","53,54",nan
258,1960258,Cauerstrasse,bus,"52.51470519737728, 13.315222708879112",AS1,nan
259,1960259,Cauerstrasse,strassenbahn,"52.514690629578695, 13.315200881022642",55,nan
260,1960260,Cecilieng rten,strassenbahn,"52.47524662783869, 13.343026357607668",66,nan
261,1960261,Cecilienstrasse Ecke Oberfeldstrasse,bus,"52.52969034405679, 13.558001583982886",O37,nan
262,1960262,Charlottenburg,s-bahn,"52.504722222222,13.303333333333","KBS 103,KBS 102,KBS 101",Q111326217
263,1960263,Chausseehaus,bus,"52.430090871325774, 13.614694292071622",A27,nan
264,1960264,Chausseestrasse Ecke Invalidenstrasse,bus,"52.53058679882093, 13.38309848189674",A9,nan
265,1960265,Chemische Fabrik,strassenbahn,"52.42696432509712, 13.573540465650169",86,nan
266,1960266,Chemnitzer Ecke Ulmenstrasse,bus,"52.48730504728054, 13.5749460378103",A8,nan
267,1960267,Chemnitzer Strasse,bus,"52.5051288553116, 13.581585054064426",A27,nan
268,1960268,Clara-Zetkin-Strasse,strassenbahn,"52.5194208,13.3953839",46,Q65055027
269,1960269,Clayallee,bus,"52.46042333572993, 13.274946148765821","A68,A1",nan
270,1960270,Clayallee/Teltower Damm,bus,"52.4350547405869, 13.260361762838802",AS3,nan
271,1960271,Colomierstrasse,bus,"52.42928675585897, 13.164090298875724",A51,nan
272,1960272,Columbiadamm,bus,"52.48398171737193, 13.394418749054523",A24,nan
273,1960273,Corrensplatz,bus,"52.446014012041694, 13.284264679815902",A11,nan
274,1960274,Cunostrasse,bus,"52.485632143913, 13.296298367587678",A50,nan
275,1960275,Cyclopstrasse,bus,"52.60208376924525, 13.32483857919441","A12,A12S",nan
276,1960276,D nhoffplatz,strassenbahn,"52.509950568117645, 13.398144081918815",64,nan
277,1960277,Dacchdeckerweg,strassenbahn,"52.43211564894163, 13.435148695160876",27,nan
278,1960278,Dahlem-Dorf,u-bahn,"52.456944444444,13.289444444444","B II,A II",Q668585
279,1960279,Dahlemer Weg,bus,"52.44179805042347, 13.282699371472702","A10,A48,A53",nan
280,1960280,Dahlewitz,s-bahn,"52.326389,13.419722",KBS 105,Q5208886
281,1960281,Daimlerstrasse,strassenbahn,"52.423949959899865, 13.380145054879522",15,nan
282,1960282,Daimlerstrasse Ecke Birnhornweg,strassenbahn,"52.42214076766627, 13.384616153471871",98,nan
283,1960283,Dammweg,bus,"52.47029082500845, 13.464688258814357",A67,nan
284,1960284,Dammweg,strassenbahn,"52.47070358256429, 13.46392233215299",15,nan
285,1960285,Dankmarsteig,bus,"52.412460454887416, 13.528705230313825",A23,nan
286,1960286,Daumstrasse,bus,"52.540609965802126, 13.232264733228831",A13,nan
287,1960287,Degnerstrasse,strassenbahn,"52.54488036635163, 13.493949954029993","64,63",nan
288,1960288,Detmolder Strasse,bus,"52.478864734081434, 13.320330304177688",A1,nan
289,1960289,Deutsches Opernhaus (Bismarckstr.),u-bahn,"52.511944444444,13.310555555556","A III,A I,B I",Q869501
290,1960290,"Diepensee, Flughafen",bus,"52.362110314401846, 13.548585893916993",AD/36,nan
291,1960291,Dimitroffstr.,u-bahn,"52.541666666667,13.412222222222","A I,A II",Q571382
292,1960292,Dimitroffstrasse,bus,"52.52644944679887, 13.447574773361476",O41,nan
293,1960293,Dimitroffstrasse,strassenbahn,"52.5264303512303, 13.447596791543624","69,64,69E,63",nan
294,1960294,Dimitroffstrasse,strassenbahn,"52.53617065447549, 13.433035147691381","74,74E",nan
295,1960295,Dimitroffstrasse,strassenbahn,"52.53918901477695, 13.42424530247013","72,71",nan
296,1960296,Dingelstädter Strasse,bus,"52.53587676296107, 13.522058626010088",O41,nan
297,1960297,Dominicusstrasse,bus,"52.481845594274056, 13.348295976204904","A48,A4",nan
298,1960298,Dominicusstrasse,strassenbahn,"52.48182811502358, 13.348369024265194","74,73,88",nan
299,1960299,Dominikus-Krankenhaus,bus,"52.626196524368744, 13.294495665499268",A15,nan
300,1960300,Donnersmarckplatz,bus,"52.62982465046043, 13.28047497184123","A15,A12",nan
301,1960301,Drakestrasse,bus,"52.445733691746746, 13.293722374035292",A48,nan
302,1960302,Dreilinden,s-bahn,"52.40334210617422, 13.175963626814108",KBS 104b,Q96473908
303,1960303,Dudenstrasse,bus,"52.485078406979376, 13.376567552300232",A28,nan
304,1960304,Dyotzer Strasse,bus,"52.541513574478394, 13.168806761501132",A63,nan
305,1960305,Düppel-Kleinmachnow,s-bahn,"52.421388888889,13.226666666667",KBS 104a,Q44763529
306,1960306,Ebertystrasse Ecke Leninallee,bus,"52.52722237261361, 13.450799684654514",O30,nan
307,1960307,Efeuweg,bus,"52.42961975739112, 13.47788675809725",A52,nan
308,1960308,Egelpfuhlstrasse,bus,"52.53353984351533, 13.169416926784528",A31,nan
309,1960309,Ehrenmal,bus,"52.57958419912971, 13.375974716701414","A45,A55",nan
310,1960310,Eichbornstr.,s-bahn,"52.5776,13.3169",KBS 105,Q800500
311,1960311,Eichbuschallee,bus,"52.47574296676633, 13.487312571777435",A47,nan
312,1960312,Eichbuschplatz,bus,"52.39366126137233, 13.582046308470128",A38,nan
313,1960313,Eichenallee,bus,"52.48983793631007, 13.56063262126986",A8,nan
314,1960314,Eichkamp,s-bahn,"52.4987,13.2702","KBS 103,KBS 101",Q800504
315,1960315,Eichwalde,s-bahn,"52.3715,13.6152",KBS 103,Q19274479
316,1960316,"Eichwalde, Uhlandstrasse",bus (Umlandlinie),"52.372634587228696, 13.62680242919348",Schmöckwitz<>Eichwalde (VEB Kraftverkehr Schöneiche-Rüdersdorf),nan
317,1960317,EinemStrasse,bus,"52.500023072644105, 13.35409116646997",A16,nan
318,1960318,Eisenacher Strasse,strassenbahn,"52.48461646895383, 13.353102387518025",88,nan
319,1960319,Elisabethstrasse,bus,"52.53409533705918, 13.55949915809485",O37,nan
320,1960320,Elisabethstrasse,strassenbahn,"52.51764985236767, 13.418046139104245","82,22",Q65364041
321,1960321,Els sser Strasse,bus,"52.63337294510061, 13.345103420124245",A7,nan
322,1960322,Elsenstrasse,strassenbahn,"52.48680919847142, 13.451162530161762","87,6",nan
323,1960323,Elsterplatz,bus,"52.47977982878401, 13.285507613099716","A10,A50",nan
324,1960324,Emmentaler Strasse,bus,"52.5675354709663, 13.351240165364471","A12,A12S",nan
325,1960325,Emmentaler Strasse,bus,"52.570420696850896, 13.360956869321077",A71,nan
326,1960326,Emser Platz,bus,"52.492072890007414, 13.319251387534207",A50,nan
327,1960327,Endestrasse,bus,"52.41965961978957, 13.160396994674473",A6,nan
328,1960328,Englerallee,bus,"52.46177802552459, 13.304473295414123",A16,nan
329,1960329,Erdener Strasse,bus,"52.490558314289494, 13.276360031005654",A19,nan
330,1960330,Erkner,s-bahn,"52.4296,13.7513",KBS 102,Q14434071
331,1960331,Erkstrasse,bus,"52.48167227551806, 13.440052048368255",A67,nan
332,1960332,Erkstrasse,strassenbahn,"52.481692182123005, 13.440150074145068",95,nan
333,1960333,Ernst-Reuter-Platz,u-bahn,"52.511944444444,13.322222222222","A I,B I",Q658361
334,1960334,Exerzierstrasse,bus,"52.553756646174705, 13.37716619556309",A61,nan
335,1960335,Eythstrasse,strassenbahn,"52.45988973432991, 13.36224461313015",60,nan
336,1960336,Fahlenbergstrasse Ecke Fürstenwalder Allee,bus,"52.431470149043314, 13.718708856639706",A22,nan
337,1960337,"Falkenberg, Schule",bus,"52.56880573894071, 13.549528314980424",A46,nan
338,1960338,Falkenberger Chaussee,bus,"52.565816857333125, 13.511913714753",A39,nan
339,1960339,Falkenberger Strasse,bus,"52.55648662489534, 13.486621227706236",A46,nan
340,1960340,Falkenbergerstrasse Ecke Wartenberger Strasse,strassenbahn,"52.55036672097044, 13.509915032138812",63,nan
341,1960341,Falkenplatz,bus,"52.58490937545724, 13.227619925618022",A20,nan
342,1960342,Falkensee,s-bahn,"52.559722,13.088889",KBS 103,Q5431918
343,1960343,Falkenseer Chaussee,bus,"52.54750354783305, 13.184668062763297","A5,A63",nan
344,1960344,Fehrbelliner Platz,bus,"52.49040638965375, 13.314204217177087",A50,nan
345,1960345,Fehrbelliner Platz,strassenbahn,"52.49032472677901, 13.314317300484289","3,44,60",nan
346,1960346,Fehrbelliner Platz,u-bahn,"52.490277777778,13.314444444444","B II,A II",Q663245
347,1960347,Feldtmannstrasse,bus,"52.56401588379611, 13.46980857664685",A46,nan
348,1960348,Feuerbachstr.,s-bahn,"52.463611111111,13.332777777778",KBS 104,Q800501
349,1960349,"Fichtenau, Stadtgrenze",bus,"52.45479242349705, 13.701499962608066",A22,nan
350,1960350,Fichtestrasse Ecke Schopenhauerstrasse,bus,"52.47979924975105, 13.617292306977053",A8,nan
351,1960351,Finckensteinallee,strassenbahn,"52.43264816323959, 13.294626828766564",74,nan
352,1960352,Finowstrasse,bus,"52.48111599303971, 13.441447712348797",A4,nan
353,1960353,Flinsberger Platz,bus,"52.483689942018465, 13.29268111645926",A50,nan
354,1960354,Flughafen,bus,"52.470965141866394, 13.385641462324475","A24,A19",nan
355,1960355,Flughafen,u-bahn,"52.485556, 13.385833",C II,Q557582
356,1960356,Flughafen Tempelhof,bus,"52.48504444099743, 13.386014416287884",A65,nan
357,1960357,Flughafen Tempelhof,strassenbahn,"52.470951203664136, 13.385647245869663",99,nan
358,1960358,Forckenbeckstrasse,bus,"52.482221394934605, 13.290044081376928",A50,nan
359,1960359,Frankfurter Tor/Stalinallee,strassenbahn,"52.5153903,13.4540172","13,4",Q65706246
360,1960360,Franz-K rner-Strasse,strassenbahn,"52.4558955570012, 13.437258108736897",27,nan
361,1960361,Französische Str.,u-bahn,"52.514722222222,13.389166666667","C II,C I",Q571479
362,1960362,Frauenklinik,strassenbahn,"52.463949908172545, 13.427509548910932",15,nan
363,1960363,Fredersdorf (b Bln),s-bahn,"52.5265,13.7625",KBS 101,Q15197387
364,1960364,Freie Scholle,bus,"52.599851537868666, 13.301736158422598",A20,nan
365,1960365,Friedenau,s-bahn,"52.47,13.341",KBS 104,Q800471
366,1960366,Friedenstrasse,bus,"52.417223782342035, 13.138950169993388",A6,nan
367,1960367,Friedhof Rudow,bus,"52.42113122136662, 13.503199151482875",A52,nan
368,1960368,Friedhof Ruhleben,bus,"52.527735865422024, 13.231788317801291","A5,A31",nan
369,1960369,Friedrich-Junge-Strasse,bus,"52.49382897072681, 13.471572865851856",A82P,nan
370,1960370,Friedrich-Karl-Strasse,strassenbahn,"52.455797262882406, 13.383934284553103","99,96,98",nan
371,1960371,Friedrich-Wilhelm-Platz,bus,"52.47128806242274, 13.328362126543809",A2,nan
372,1960372,Friedrich-Wilhelm-Platz,strassenbahn,"52.47132415928576, 13.328417218543715","78,77",nan
373,1960373,Friedriche-Wilhelm-Platz,bus,"52.471408713269064, 13.327952650518178",A17,nan
374,1960374,Friedrichsfelde (Tierpark),u-bahn,"52.506111111111,13.512777777778",E,Q429781
375,1960375,Friedrichsfelde Ost,s-bahn,"52.5141,13.5198",KBS 101,Q800473
376,1960376,Friedrichshagen,s-bahn,"52.4574,13.6233",KBS 102,Q800474
377,1960377,"Friedrichshagen, Wasserwerk",strassenbahn,"52.4560563,13.6419956",84,Q66362601
378,1960378,Friedrichstr.,s-bahn,"52.52027777777778,13.386944444444444","KBS 102,KBS 103,KBS 101,KBS 105,KBS 106,KBS 104",Q111219456
379,1960379,Friedrichstrasse,strassenbahn,"52.444196064485105, 13.354240299954318",96,nan
380,1960380,Friesenstrasse,bus,"52.483950604682775, 13.394359749805426",A4,nan
381,1960381,Fritz-Reuter Strasse,strassenbahn,"52.4069257249783, 13.285208270921327",96,nan
382,1960382,Frohnau,s-bahn,"52.6325,13.2902",KBS 104,Q800472
383,1960383,Fuldastrasse,bus,"52.483802510465225, 13.435884392882318",A67,nan
384,1960384,Fürstenbrunner Weg,bus,"52.518378845111386, 13.280184750778325",AS1,nan
385,1960385,Fürstenwalder Damm,strassenbahn,"52.4498638,13.661534",84,Q66361484
386,1960386,G ntzelstrasse,bus,"52.49154575346882, 13.323206588873013",A60,nan
387,1960387,G terau enring,bus,"52.599887239389226, 13.469297130431492",A42,nan
388,1960388,G terbahnhof Springpfuhl,bus,"52.52561231977731, 13.533687321893124",A43,nan
389,1960389,Gabelung,bus,"52.59988612656876, 13.25204128545515",A13,nan
390,1960390,Gartenfeld,s-bahn,"52.54695,13.24882","KBS 100d,KBS 100c",Q96080469
391,1960391,Gartenplatz,bus,"52.53887149101001, 13.383411331672582",A64,nan
392,1960392,"Gartenplatz, Feldstrasse",bus,"52.538565896675905, 13.384005277447793",A61,nan
393,1960393,Gartenstadtweg,bus,"52.412313913821045, 13.56660267841369",AD/36,nan
394,1960394,"Gatow, Kirche",bus,"52.48684680676539, 13.18215147844503","A34,A35",nan
395,1960395,Gatower Strasse,bus,"52.489436255649245, 13.180387588417426",A35,nan
396,1960396,Gehsener Strasse,bus,"52.46321577871702, 13.58365868698432",A27,nan
397,1960397,Gerichstrasse,bus,"52.543829769356805, 13.373374125859685",A64,nan
398,1960398,Germaniapromenade,strassenbahn,"52.460893594298135, 13.435054421301176",27,nan
399,1960399,Germaniastrasse,strassenbahn,"52.46053782557012, 13.418009045149528","26,15",nan
400,1960400,Germersheimer Platz,bus,"52.54433253766927, 13.187336363919895",A35,nan
401,1960401,Gerosteig,bus,"52.40977095398672, 13.52694351354655",A23,nan
402,1960402,Gesundbrunnen,s-bahn,"52.548611111111,13.389444444444","KBS 100c,KBS 103a,KBS 105,KBS 100,KBS 106,KBS 104",Q111239092
403,1960403,Gesundbrunnen,u-bahn,"52.548611,13.389444",D,Q3761416
404,1960404,Giebelsee,s-bahn,"52.5291,13.791",KBS 101,Q7178217
405,1960405,Gleisdreieck,u-bahn,"52.49952,13.37409","B II,A I,B I,A II",Q678372
406,1960406,Glesendorfer Strasse,strassenbahn,"52.42400540933915, 13.314406661268139",96,nan
407,1960407,"Glienicke, Breitscheidstrasse",bus,"52.63978443958746, 13.317697237812467",AN,nan
408,1960408,"Glienicke, Kirche",bus,"52.63062737184449, 13.312861916755343","A7,AN",nan
409,1960409,Glienicker Brücke,bus,"52.413474089031965, 13.091235881924467",A6,nan
410,1960410,Glogauer Strasse,strassenbahn,"52.493437003779434, 13.43739124697587",26,nan
411,1960411,Gneisenaustr.,u-bahn,"52.491388888889,13.395555555556",C I,Q668618
412,1960412,Gneisenaustrasse,bus,"52.491573255885584, 13.394331623371611",A24,nan
413,1960413,Gneisenaustrasse,strassenbahn,"52.49294825885205, 13.387719074166872",95,nan
414,1960414,Goebelplatz,bus,"52.53812718171093, 13.27991414794248",A65,nan
415,1960415,Goeben-/Pallasstrasse,bus,"52.49428616497335, 13.361054367554111",A48,nan
416,1960416,Goerzallee,strassenbahn,"52.421943941201924, 13.298506647186814","78,77",nan
417,1960417,Goltzstrasse,bus,"52.38667572084441, 13.407934498494095",AS2,nan
418,1960418,GorkiStrasse,bus,"52.59058892416102, 13.292054679927265",A15,nan
419,1960419,Gotenstrasse,strassenbahn,"52.4801279061896, 13.360274671318749",25,nan
420,1960420,Gottlieb-Dunkel-Strasse,bus,"52.46047500564911, 13.417979057824004",A25,nan
421,1960421,Gottlieb-Dunkel-Strasse,strassenbahn,"52.46039602352925, 13.418101877605094",6,nan
422,1960422,GotzkowskyBrücke,strassenbahn,"52.5225088623222, 13.329076513372739",2,nan
423,1960423,GotzkowskyStrasse,bus,"52.52718356053599, 13.330470683683586",A24,nan
424,1960424,Gotzkowskybrücke,bus,"52.52381238362036, 13.329729120795239",A25,nan
425,1960425,Gotzkowskystrasse,strassenbahn,"52.52567490695968, 13.330198327307098","25,44",nan
426,1960426,Gradestrasse,strassenbahn,"52.45261828426318, 13.438552708749976",27,nan
427,1960427,"Grazer Damm, OverbeckStrasse",bus,"52.46099592860633, 13.348436775587016",A68,nan
428,1960428,Grazer Platz,bus,"52.467636991817486, 13.347565807885369",A25,nan
429,1960429,Greifswalder Str.,s-bahn,"52.539722222222,13.439444444444","KBS 100,KBS 103a,KBS 100b,KBS 100c",Q439246
430,1960430,Greifswalder Strasse,bus,"52.53002871375482, 13.62681794411932","A44E,A44",nan
431,1960431,Greifswalder Strasse,strassenbahn,"52.5364975,13.4334045","13,4",Q65548960
432,1960432,Greifswalderstrasse Ecke Dimitroffstrasse,bus,"52.5362177572407, 13.433017500945247",O30,nan
433,1960433,Grenadierstrasse,bus,"52.530981925368565, 13.205371761701368","A5,A31",nan
434,1960434,Grenzallee,u-bahn,"52.463333333333,13.443888888889",C I,Q571836
435,1960435,Grenzstrasse,bus,"52.541822798579034, 13.378147647725354",A64,nan
436,1960436,Griebnitzsee,s-bahn,"52.3944,13.1272",KBS 102,Q315133
437,1960437,GritznerStrasse,bus,"52.464372021076116, 13.31646473581109",A32,nan
438,1960438,Grossbeerenstrasse Ecke Daimlerstrasse,strassenbahn,"52.42636680081003, 13.37431638254586",98,nan
439,1960439,Grottkauer Strasse,bus,"52.52796238368814, 13.600805280630896",A49,nan
440,1960440,Groß Ziethen,bus,"52.41404104155547, 13.438879163306126",AZ,nan
441,1960441,Große Seestrasse Ecke Klement-Gottwald-Allee,bus,"52.556978565191024, 13.466947877257388",A55,nan
442,1960442,Großer Stern,bus,"52.514524715463295, 13.349933192922938",A66,nan
443,1960443,Großglienicker Weg,bus,"52.483148805729485, 13.182630557348212","A34,A35",nan
444,1960444,Großgörschenstr.,s-bahn,"52.4922745,13.3678588",KBS 104,Q21776726
445,1960445,Grunewald,s-bahn,"52.4892,13.2614",KBS 102,Q457266
446,1960446,Grunewaldstrasse,strassenbahn,"52.489099571674906, 13.344928521367574","78,77",nan
447,1960447,Grünau,s-bahn,"52.4122,13.5746","KBS 103,KBS 100a",Q111307258
448,1960448,Grünberger Strasse,strassenbahn,"52.5122359,13.452609",4,Q65706239
449,1960449,Grüner Weg,bus,"52.42955863550208, 13.453590733350595","A52,A25",nan
450,1960450,Grünstrasse,strassenbahn,"52.44496766298328, 13.574157108147524",95,nan
451,1960451,Grüntaler Strasse,strassenbahn,"52.555331,13.3909979",3,Q65807452
452,1960452,Gutschmidstrasse,strassenbahn,"52.440388564703085, 13.434807011438394",27,nan
453,1960453,Gutschmidtstrasse,bus,"52.437076827846255, 13.444129425003135",A25,nan
454,1960454,Gutshof,bus,"52.47510904064348, 13.120710540203262",A34,nan
455,1960455,Gutshof Marienfelde,bus,"52.41088450558385, 13.373192649319066",A52,nan
456,1960456,Görlitzer Bahnhof (Oranienstr.),u-bahn,"52.4992,13.428","B II,B I",Q597759
457,1960457,H ndelplatz,strassenbahn,"52.450279094879285, 13.315466784727654","74,78,77,73",nan
458,1960458,Hackbuschstrasse,bus,"52.53959956967987, 13.150244533066292",A31,nan
459,1960459,Hackescher Markt,strassenbahn,"52.522700593509725, 13.401605863643521",69,nan
460,1960460,"Hackescher Markt, Große Präsidentenstrasse",strassenbahn,"52.523263864316995, 13.401094518381404","49,63",nan
461,1960461,Hafenplatz,bus,"52.50392083524772, 13.375479875476426",A24,nan
462,1960462,Hafenplatz,bus,"52.54215888169655, 13.206044861619935","A34,AS1",nan
463,1960463,Hafenplatz,strassenbahn,"52.542292547760184, 13.206201126048732","53,54,75,76",nan
464,1960464,Hagenplatz,bus,"52.483382973651, 13.265818700272884","A17,A19",nan
465,1960465,Hainbuchenstrasse,bus,"52.63427133418521, 13.274824021447571",A12,nan
466,1960466,Hakenfelde,strassenbahn,"52.57886009874865, 13.210057800310379","53,75",nan
467,1960467,Halensee,s-bahn,"52.4961,13.2906","KBS 100,KBS 100c",Q800476
468,1960468,Hallesches Tor,u-bahn,"52.497777777778,13.391111111111","B II,C II,C I,B I",Q658302
469,1960469,Halskestrasse,bus,"52.449975911659585, 13.34671540590703",A33,nan
470,1960470,Hamburger Platz,bus,"52.555394187589414, 13.438973139463632","A56,A45",nan
471,1960471,Hamburger Platz,strassenbahn,"52.39831680057728, 13.246541862041411",96,nan
472,1960472,"Hamburger Strasse, Rudolf-Mosse-Platz",bus,"52.475375170002664, 13.303566446005037",A60,nan
473,1960473,Hansaplatz,bus,"52.5179343319099, 13.342038193257153","A16,A66,A25",nan
474,1960474,HardenbergStrasse,bus,"52.506181479310335, 13.332318460113605","AS3,AS2",nan
475,1960475,Hartmannsweiler Weg,bus,"52.43871188132932, 13.248833836243495",A53,nan
476,1960476,"Haselhorst, Kirche",bus,"52.5468281751583, 13.237065889883622",A10,nan
477,1960477,Hasenheide,strassenbahn,"52.48634143319353, 13.424222115567844",27,nan
478,1960478,Hatzfeldallee,bus,"52.592072752436835, 13.28604590141529",A20,nan
479,1960479,Hauptkinderheim,bus,"52.52819346807093, 13.228649269163302",A5,nan
480,1960480,Hauptstrasse,strassenbahn,"52.48184785648144, 13.34836694193233","6,25",nan
481,1960481,Hauptstrasse (Sch neberg),strassenbahn,"52.48187232227649, 13.348270377910302","60,66",nan
482,1960482,Hauptstrasse Ecke Edelwei strasse,bus,"52.58639100900043, 13.367505696398357","A45,A55",nan
483,1960483,Hauptstrasse Ecke Karlshorster Strasse,strassenbahn,"52.50151144462545, 13.475233514493265",82,nan
484,1960484,Hausvogteiplatz,u-bahn,"52.513055555556,13.396666666667","A I,A II",Q656523
485,1960485,Havelstrasse,bus,"52.539415684261826, 13.205940707326107",A13,nan
486,1960486,Havensteinstrasse,bus,"52.43193914217683, 13.346326964020843",A2,nan
487,1960487,Heckerdamm,bus,"52.53962816572025, 13.295048454368684","A62,A21",nan
488,1960488,Heckmannufer,bus,"52.49706082077895, 13.44923941809119",A28,nan
489,1960489,Heerstr.,s-bahn,"52.5086,13.2586","KBS 103,KBS 101",Q800502
490,1960490,Heerstrasse,bus,"52.51550447615084, 13.18456806294143","A34,A35",nan
491,1960491,Heerstrasse,bus,"52.51662457723462, 13.179022303033726",A13,nan
492,1960492,Heidebergplan,bus,"52.541074133887626, 13.147338727333166",A31,nan
493,1960493,Heidelberger Platz,u-bahn,"52.479808333333,13.313236111111","B II,A II",Q21777872
494,1960494,Heiligensee,s-bahn,"52.6247,13.2292",KBS 105,Q800475
495,1960495,Heiligenseestrasse,bus,"52.59796193636089, 13.275098894138587","A20,A14",nan
496,1960496,"Heilst tten, Wittenau",bus,"52.58153387498222, 13.333850049151073",A62,nan
497,1960497,"Heinersdorf, Kirche",bus,"52.56826376476754, 13.440601903603064","A55,A42",nan
498,1960498,"Heinersdorf, Kirche",strassenbahn,"52.5686908,13.4389053",71,Q65096107
499,1960499,"Heinersdorf, Romain-Rolland-Str.",strassenbahn,"52.5725511,13.4371063",71,Q65096052
500,1960500,Heinrich-Mann-Platz,bus,"52.57297246262195, 13.392146133350426",A45,nan
501,1960501,Hennigsdorf,s-bahn,"52.638,13.2057",KBS 105,Q800909
502,1960502,Hennigsdorf (b Bln),s-bahn,"52.638,13.2057",KBS 105,Q800909
503,1960503,Hermannplatz,bus,"52.48778872855567, 13.425393480017616",A67,nan
504,1960504,Hermannplatz,strassenbahn,"52.487085572732276, 13.424752445258537","2,95,26,47",nan
505,1960505,Hermannplatz,u-bahn,"52.48629,13.42455","D,C I",Q658929
506,1960506,Hermannstr.,s-bahn,"52.4675,13.431111111111","KBS 100a,KBS 100",Q111263802
507,1960507,Hermannstrasse,strassenbahn,"52.46476232618638, 13.432818109719008","26,15",nan
508,1960508,Hermsdorf,s-bahn,"52.6178,13.3069",KBS 104,Q263189
509,1960509,Hermsdorfer Damm,bus,"52.600011860666825, 13.281303213246002",A15,nan
510,1960510,Hermsdorfer Damm,bus,"52.62242143698805, 13.31287835380073","A12,A12S",nan
511,1960511,Hertzbergplatz,bus,"52.477487105395774, 13.448598156816837",A67,nan
512,1960512,Hertzbergplatz,strassenbahn,"52.4773735457893, 13.448843811492495",95,nan
513,1960513,"Hessenwinkel, Lindenstrasse",bus,"52.42653518647879, 13.728458969026482",A22,nan
514,1960514,Hildburghauser Strasse,bus,"52.416650746748985, 13.338144038711128",A11,nan
515,1960515,Hildegardstrasse,strassenbahn,"52.48182290823898, 13.320379354651374",44,nan
516,1960516,Hindenburgdamm,bus,"52.45352507850236, 13.315671490206539",A48,nan
517,1960517,Hindenburgdamm,strassenbahn,"52.44956203989038, 13.315244235516836","78,77",nan
518,1960518,Hirschgarten,s-bahn,"52.4579,13.6032",KBS 102,Q4892435
519,1960519,Hirschgarten,strassenbahn,"52.4518533,13.6006245","87,84",Q66360740
520,1960520,Hobrechtstrasse,strassenbahn,"52.48856144710197, 13.426724565240065","3,27",nan
521,1960521,Hochgerichtstrasse,bus,"52.53838037062423, 13.183009198076522","A5,A63",nan
522,1960522,Hochmeisterplatz,bus,"52.49468637986547, 13.301254684721862",A4,nan
523,1960523,Hochschule f r konomie,strassenbahn,"52.4927681,13.5266059","69,69E",Q65952866
524,1960524,Hoeppnerstrasse,strassenbahn,"52.472457936832924, 13.377907348111798",95,nan
525,1960525,Hohefeldstrasse,bus,"52.626261954707644, 13.299373462820876",A12S,nan
526,1960526,Hohen-Neuendorf (b Bln),s-bahn,"52.6684,13.287",KBS 104,Q4500489
527,1960527,"Hohensch nhausen, Falkenberger Strasse",bus,"52.550229554941964, 13.509585042301534",A39,nan
528,1960528,"Hohensch nhausen, Falkenberger Strasse",strassenbahn,"52.5508672,13.5094994","70,64",Q65555882
529,1960529,"Hohensch nhausen, Gartenstadt",strassenbahn,"52.5508672,13.5094994",63,Q65555882
530,1960530,Hohensch nhauser Strasse,strassenbahn,"52.5359329,13.4729468",3,Q65553684
531,1960531,Hohenschöpping,s-bahn,"52.67,13.1945",KBS 105,Q19274489
532,1960532,Hohenstaufenplatz,bus,"52.49085480753271, 13.423419999335453",A67,nan
533,1960533,Hohenzollerndamm,bus,"52.476835205459196, 13.28097752710442",A50,nan
534,1960534,Hohenzollerndamm,s-bahn,"52.4885,13.3004",KBS 100,Q800503
535,1960535,Hohenzollernplatz,u-bahn,"52.493888888889,13.325","B II,A II",Q571570
536,1960536,Hohenzollernring,bus,"52.55569430282622, 13.207589665448262",AS1,nan
537,1960537,Hohenzollernring,strassenbahn,"52.55534806923232, 13.198657615343986","54,76",nan
538,1960538,Hohenzollernring,strassenbahn,"52.55569292602298, 13.20744492422738","53,75",nan
539,1960539,Holteistrasse,bus,"52.50859353995203, 13.466288145839554",O30,nan
540,1960540,Holteistrasse,strassenbahn,"52.5088235,13.465969",13,Q65675805
541,1960541,Holzhauser Str.,u-bahn,"52.575833333333,13.296111111111","C II,C I",Q557566
542,1960542,Holzhauser Strasse,bus,"52.581973276504755, 13.305409380050108",A15,nan
543,1960543,Holzhauser Strasse,bus,"52.59178549505881, 13.326377240287412","A12,A14",nan
544,1960544,Hoppegarten (Mark),s-bahn,"52.5183,13.6734",KBS 101,Q15197357
545,1960545,Hottengrund,bus,"52.44597765000425, 13.126251393745859",A35,nan
546,1960546,Hubertus,strassenbahn,"52.4741663,13.5991443",83,Q66368466
547,1960547,Hultschiner Damme,bus,"52.477084965622495, 13.600602959390953",A8,nan
548,1960548,Humannplatz,strassenbahn,"52.5493627,13.4213646",70,Q65962652
549,1960549,Humboldthain,s-bahn,"52.5451,13.3796","KBS 105,KBS 106,KBS 104",Q481276
550,1960550,Humboldtstrasse,bus,"52.56929443788896, 13.32995611157798",A61,nan
551,1960551,Hundekehlestrasse,bus,"52.47548162130776, 13.290308772196097",A10,nan
552,1960552,"Hönow, Dorfstrasse",bus,"52.54884927869554, 13.63648687804691",A44,nan
553,1960553,Ihnestrasse,bus,"52.44831039409289, 13.276355065531465",A11,nan
554,1960554,Im Fischgrund,bus,"52.62965843509205, 13.294335908368284",A12S,nan
555,1960555,Imbrosweg,strassenbahn,"52.443541863050356, 13.398564688322455",15,nan
556,1960556,Industriestrasse,strassenbahn,"52.455350229930445, 13.409794385645863","26,15",nan
557,1960557,Innsbrucker Platz,bus,"52.478545508234895, 13.34405868604117","A16,A48,A65,A4",nan
558,1960558,Innsbrucker Platz,s-bahn,"52.4786,13.3439","KBS 100a,KBS 100",Q111263876
559,1960559,Innsbrucker Platz,strassenbahn,"52.47804266204959, 13.343446877940893","66,74,73,88",nan
560,1960560,Innsbrucker Platz (Hauptstr.),u-bahn,"52.4786,13.3439",B III,Q10275871
561,1960561,Invaliden- Ecke Chausseestrasse,strassenbahn,"52.5304158,13.3827302","11,46E,1,46",Q65552697
562,1960562,Invalidenstrasse Ecke Chausseestrasse,strassenbahn,"52.5304158,13.3827302","69,70",Q65552697
563,1960563,"J denstrasse, Mokenmarkt",strassenbahn,"52.516142213164905, 13.410591792750504",71,nan
564,1960564,"J denstrasse, Molkenmarkt",strassenbahn,"52.516142213164905, 13.410591792750504","74,74E,72",nan
565,1960565,J nickestrasse,bus,"52.427213941734294, 13.271659447787256",A53,nan
566,1960566,Jacobystrasse,strassenbahn,"52.520012454725794, 13.416252598118593",64,nan
567,1960567,Jannowitzbrücke,s-bahn,"52.514822222222,13.41795","KBS 103,KBS 102,KBS 101",Q27955427
568,1960568,Jannowitzbrücke,u-bahn,"52.515656,13.418185",D,Q27955418
569,1960569,"Jerusalems-Kirche, Lindenstrasse",bus,"52.507080658279015, 13.398349137947935",A67,nan
570,1960570,Joachim-Friedrich-Strasse,bus,"52.49796465694724, 13.296270941417216","A66,A69,A29",nan
571,1960571,Joachimstaler Strasse,bus,"52.50444348896255, 13.335628270538354","A60,A29,A66,A19,A69",nan
572,1960572,Joachimstrasse,bus,"52.40316589631168, 13.57664158970399",A38,nan
573,1960573,Johannesstift,strassenbahn,"52.56762416524039, 13.191782610265674",54,nan
574,1960574,"Johannisthal, Haeckelstrasse",strassenbahn,"52.4402944,13.5052638","69,69E",Q66225573
575,1960575,Johannisthaler Chaussee,bus,"52.45136033294721, 13.488299619950027",A47,nan
576,1960576,Johannisthaler Chaussee,strassenbahn,"52.43434580082342, 13.469025837805159",47,nan
577,1960577,John-Foster-Dulles-Allee,bus,"52.517085214536316, 13.354609198247653",A24,nan
578,1960578,Jungfernheide,s-bahn,"52.53035,13.299433333333","KBS 100,KBS 100d,KBS 103a,KBS 100c",Q110977325
579,1960579,K rtingstrasse,strassenbahn,"52.43481849058747, 13.378266822562516",15,nan
580,1960580,Kaiser-Friedrich-Strasse,strassenbahn,"52.50672109809353, 13.302260476022617",60,nan
581,1960581,Kaiser-Wilhelm-Platz,bus,"52.486329247981715, 13.35655627172785","A48,A4",nan
582,1960582,Kaiser-Wilhelm-Platz,strassenbahn,"52.486331659025346, 13.356584679052645","74,73,88",nan
583,1960583,Kaiser-Wilhelm-Strasse,bus,"52.45976946404443, 13.308246645893039",A68,nan
584,1960584,Kaiserdamm (Messedamm),u-bahn,"52.51,13.2822","A I,B I",Q656409
585,1960585,Kaisereiche,bus,"52.46896806014468, 13.332614886077709","A48,A25",nan
586,1960586,Kaisereiche,strassenbahn,"52.468942127334586, 13.332672961457298","74,73,88",nan
587,1960587,Kaiserin-Augusta-Strasse,strassenbahn,"52.4593658645353, 13.384489423034925","99,96,98",nan
588,1960588,Kaiserstrasse,bus,"52.445569639174806, 13.385736727448023",A33,nan
589,1960589,Kaiserstrasse,strassenbahn,"52.44556344693812, 13.385808423835684","99,98",nan
590,1960590,Kaiserstrasse/Ringstrasse,bus,"52.44449600134536, 13.372233806361567",A33,nan
591,1960591,Kanalstrasse,bus,"52.42383870085989, 13.514466425990765",A52,nan
592,1960592,Kanststrasse Ecke Joachimsthaler Strasse,strassenbahn,"52.505326149170315, 13.331542012085032",76,nan
593,1960593,Kantstrasse,bus,"52.50678794910284, 13.302320269833038",A21,nan
594,1960594,Kantstrasse,strassenbahn,"52.5066581876951, 13.306688471208883",44,nan
595,1960595,Karl-Marx-Platz,strassenbahn,"52.47358382682129, 13.44070604138443","26,47",nan
596,1960596,Karl-Marx-Str.,u-bahn,"52.476111111111,13.439166666667",C I,Q519494
597,1960597,Karlshorst,s-bahn,"52.4808,13.5258",KBS 102,Q111327045
598,1960598,Karlshorster Strasse,strassenbahn,"52.502334098187674, 13.475466875195085",13,nan
599,1960599,Karolinenstrasse,bus,"52.59678679258494, 13.276661373436578",A20,nan
600,1960600,Karow,s-bahn,"52.615,13.4692",KBS 106,Q111324168
601,1960601,"Karow, Bahnhofstrasse",bus,"52.60931228539711, 13.481265848599735",A42,nan
602,1960602,Kaserne Südtor,bus,"52.55685969560147, 13.3084342409763",A21,nan
603,1960603,"Kaserne, Südtor",bus,"52.55688433775636, 13.308474689835576",A62,nan
604,1960604,Katzbachstrasse,bus,"52.491584280543336, 13.376725460315825",A19,nan
605,1960605,Kaulsdorf,s-bahn,"52.5121,13.5904",KBS 101,Q800478
606,1960606,"Kaulsdorf, Bausdorfstrasse",bus,"52.51256368150751, 13.601906818686038",A49,nan
607,1960607,Kinderheim,bus,"52.4898153097415, 13.481404230737937",A82P,nan
608,1960608,Kinderheim Ruhleben,bus,"52.52796709321304, 13.230713275419049",A31,nan
609,1960609,Kirchstrasse,bus,"52.61485248170046, 13.317034418727145",A12,nan
610,1960610,Kirschenallee,strassenbahn,"52.52037354122697, 13.267241546337495","53,54",nan
611,1960611,Kladow,bus,"52.45156751539905, 13.147837826277277",Wannsee<>Kladow (Betrieb durch Stern und Kreisschiffahrt),nan
612,1960612,Klausenerplatz,strassenbahn,"52.519202008553854, 13.291867366490655",60,nan
613,1960613,Klein Ziethen,bus,"52.379580499215606, 13.44656986522325",AZ,nan
614,1960614,Kleinbahn,strassenbahn,"52.43807132314782, 13.434972230288995",27,nan
615,1960615,Klement-Gottwald-Allee,strassenbahn,"52.55692922136002, 13.466986575595088",74E,nan
616,1960616,Klement-Gottwald-Allee Ecke Bernkasteler Strasse,bus,"52.556890194751446, 13.466997407258916","A46,A45",nan
617,1960617,Klement-Gottwald-Allee Ecke Bernkasteler Strasse,strassenbahn,"52.557020581568636, 13.466903185329526","74,72",nan
618,1960618,Klement-Gottwald-Allee/Lichtenberger Strasse,strassenbahn,"52.55197851771295, 13.465492657377409",3,nan
619,1960619,"Klingenberg, Blockdammweg",strassenbahn,"52.4842462,13.5104609",13,Q66085182
620,1960620,Klingsorstrasse,bus,"52.45309021884074, 13.33121103955973",A33,nan
621,1960621,Klinkeplatz,bus,"52.555551464661846, 13.198549783852652",AS1,nan
622,1960622,Klosterstr.,u-bahn,"52.516111111111,13.412222222222","A I,A II",Q657893
623,1960623,Klosterstrasse,bus,"52.51798604342281, 13.412126746747086",O30,nan
624,1960624,Klubhaus VEB Elektrokohle,strassenbahn,"52.5265974,13.4897656","69,69E",Q65685127
625,1960625,Knesebeckstrasse,bus,"52.428912094809505, 13.267664971836647",A53,nan
626,1960626,Kniprodestrasse,strassenbahn,"52.5325286,13.4406868","13,69E,4",Q65707391
627,1960627,Kniprodestrasse Ecke Erml ndische Strasse,bus,"52.53412263578274, 13.444622763935293",A57,nan
628,1960628,KoblanckStrasse,bus,"52.426175417562064, 13.161460962278303",A51,nan
629,1960629,Kochstr.,u-bahn,"52.505897222222,13.390611111111","C II,C I",Q201849
630,1960630,Kohlhasenbr ck,bus,"52.397602179732665, 13.143663292364124",A18,nan
631,1960631,"Kolonie ""Daheim""",bus,"52.59913791742047, 13.402821383403936",A7,nan
632,1960632,"Kolonie ""Land in Sonne""",bus,"52.55462883361286, 13.511870302373488",A39,nan
633,1960633,Kongre halle,bus,"52.51763253396976, 13.363196975404886",A69,nan
634,1960634,Konstanzer Strasse,bus,"52.48857876641685, 13.308077083720315",A50,nan
635,1960635,Konsum Wernsdorf,bus (Umlandlinie),"52.36448396303661, 13.698441127852544",Schmöckwitz<>Ziegenhals (VEB Kraftverkehr Schöneiche-Rüdersdorf),nan
636,1960636,Konsum Ziegenhals,bus (Umlandlinie),"52.353014165379946, 13.671672670712805",Schmöckwitz<>Ziegenhals (VEB Kraftverkehr Schöneiche-Rüdersdorf),nan
637,1960637,Kopenhagener Strasse,bus,"52.574260461143574, 13.359154742049908",A14,nan
638,1960638,Kopenhagener Strasse,strassenbahn,"52.57425957923555, 13.359163922630154",35,nan
639,1960639,Kosterstrasse,bus,"52.51798604342281, 13.412126746747086",O30,nan
640,1960640,Kottbusser Brücke,bus,"52.496030844936435, 13.420070402767054",A67,nan
641,1960641,Kottbusser Damm (Schönleinstr.),u-bahn,"52.493055555556,13.421944444444",D,Q666868
642,1960642,Kottbusser Tor,u-bahn,"52.499166666667,13.418055555556","B II,D,B I",Q819768
643,1960643,Krampnitzer Weg,bus,"52.45227343259078, 13.13842230425098",A35,nan
644,1960644,Krankenhaus Havelh he,bus,"52.462919334280684, 13.15899083159388","A34,A35",nan
645,1960645,Krankenhaus Heckeshorn,bus,"52.43498872792054, 13.161716693825408",A51,nan
646,1960646,Krankenhaus Hohengatow,bus,"52.470449875602235, 13.169391604448148","A34,A35",nan
647,1960647,Krankenhaus Moabit,bus,"52.52631363859675, 13.347762408358612",A70,nan
648,1960648,Krankenhaus Tegel-Süd,bus,"52.57573397877684, 13.278749331662",A13,nan
649,1960649,Krankenhaus Wannsee,bus,"52.43102764694952, 13.164964517227903",A51,nan
650,1960650,Krankenhause Neukölln,strassenbahn,"52.43977054074335, 13.459359057866306",47,nan
651,1960651,Kreuzbergstrasse,bus,"52.48940663862394, 13.376689964763667",A28,nan
652,1960652,Kronprinzessinen Weg,bus,"52.41994047416807, 13.17530094854083",A18,nan
653,1960653,Krumme Lanke,bus,"52.44306722365605, 13.24053434190107",A53,nan
654,1960654,Krumme Lanke,u-bahn,"52.443333333333,13.241388888889","B II,A II",Q663945
655,1960655,Kurfürstendamm,bus,"52.498023305214666, 13.296217571157966","AS3,A60,A21,AS2,A10",nan
656,1960656,Kurfürstendamm,strassenbahn,"52.500053170346966, 13.306918433906269","3,44,60",nan
657,1960657,Kurfürstendamm Ecke Konstanzer Strasse,bus,"52.500599097108285, 13.31304940813286",A1,nan
658,1960658,Kurfürstenstr.,u-bahn,"52.5,13.361944444444","B II,B I",Q690203
659,1960659,Kurfürstenstrasse,bus,"52.445643034300396, 13.36805209564975",A33,nan
660,1960660,Kurische Strasse,bus,"52.53541468899389, 13.439085794623837",A9,nan
661,1960661,Kurt-Fischer-Platz,bus,"52.57973292845757, 13.398330728468228",A7,nan
662,1960662,Kurt-Fischer-Platz,strassenbahn,"52.578668,13.3983016","46E,22,46",Q65032974
663,1960663,Kurt-Schumacher-Damme,bus,"52.53691363313431, 13.29370181789795",A65,nan
664,1960664,Kurt-Schumacher-Platz,bus,"52.563438249109005, 13.32713028618972",A21,nan
665,1960665,Kurt-Schumacher-Platz,u-bahn,"52.563555555556,13.326572222222","C II,C I",Q555916
666,1960666,Köllnische Heide,s-bahn,"52.4694,13.4675",KBS 100a,Q800505
667,1960667,Köllnischer Platz,strassenbahn,"52.4447189,13.5686225","86,84",Q66363379
668,1960668,Königin-Elisabeth-Strasse,bus,"52.51841060617521, 13.280216309480307",A65,nan
669,1960669,Königin-Elisabeth-Strasse,strassenbahn,"52.51841661774004, 13.280185271122395","60,53,54",nan
670,1960670,Königin-Luise-Strasse,bus,"52.45831794711095, 13.287027476333241",A10,nan
671,1960671,Königin-Luise-Strasse,bus,"52.46046250414625, 13.274837141314253",AS3,nan
672,1960672,Königs Wusterhausen,s-bahn,"52.2966,13.6311",KBS 103,Q178002
673,1960673,Königstor,bus,"52.52520269485428, 13.419834994127731","O40,O30,A57,A9",nan
674,1960674,Königstor,strassenbahn,"52.52821600265539, 13.423869016265495","74,74E",nan
675,1960675,Königstrasse,bus,"52.41987226002477, 13.175332944592043",A6,nan
676,1960676,Königstrasse/Kronprinzessinnenweg,bus,"52.41989533124603, 13.17532169204708",A51,nan
677,1960677,Königsweide,strassenbahn,"52.4467799,13.5066707","69,69E",Q66236157
678,1960678,Köpenick,s-bahn,"52.4586,13.5808",KBS 102,Q800479
679,1960679,"Köpenick, Krankenhaus",bus,"52.43861200573594, 13.592411258792163",A27,nan
680,1960680,"Köpenick, Krankenhaus",strassenbahn,"52.4388396,13.5920763",95,Q66091900
681,1960681,Köpenicker Landstrasse Ecke Baumschulenstrasse,strassenbahn,"52.46913201072182, 13.491340045687773",87,nan
682,1960682,Köpenicker Strasse,bus,"52.417188859212956, 13.493835883883817",A52,nan
683,1960683,Köpenicker Strasse,strassenbahn,"52.420483475304536, 13.538745338445915","84,47",nan
684,1960684,Köpenicker Strasse Ecke Adalbertstrasse,strassenbahn,"52.50851870094253, 13.425367474591651",11,nan
685,1960685,Köpenicker Strasse Ecke Manteuffelstrasse,bus,"52.505752241611106, 13.431927610647389",A28,nan
686,1960686,Köpenicker landstrasse,strassenbahn,"52.464462017739535, 13.49806222885837",95,nan
687,1960687,Küstriner Platz,bus,"52.51324778107561, 13.439333192026231","O40,O30",nan
688,1960688,Landgericht,bus,"52.52698925988807, 13.297167647658592",A65,nan
689,1960689,Lange Strasse,bus,"52.42401188883506, 13.333131159875414",A11,nan
690,1960690,Langhans Strasse Ecke Gustav-Adolf-Strasse,bus,"52.55362785776103, 13.434716400018274",A45,nan
691,1960691,Lankwitz,s-bahn,"52.4386,13.3417",KBS 106,Q800481
692,1960692,"Lankwitz, Kirche",bus,"52.43629186979271, 13.345745387354132","A32,A2",nan
693,1960693,"Lankwitz, Kirche",strassenbahn,"52.43629411008752, 13.34577793920493",96,nan
694,1960694,Lauenburger Platz,strassenbahn,"52.46143498949673, 13.339359587543699",88,nan
695,1960695,Lauterplatz,strassenbahn,"52.475528954378376, 13.340160154844037","74,73",nan
696,1960696,Lehnitz,s-bahn,"52.7411,13.2635",KBS 104,Q4258498
697,1960697,Lehrter Stadtbahnhof,s-bahn,"52.5253,13.3694","KBS 103,KBS 102,KBS 101",Q821299
698,1960698,Leibnizstrasse,bus,"52.500627503224926, 13.313055212502604",A69,nan
699,1960699,Leinestr.,u-bahn,"52.472777777778,13.428333333333",D,Q668563
700,1960700,Leipziger Platz,strassenbahn,"52.509702294625804, 13.37945987267241",74,nan
701,1960701,Leninallee,s-bahn,"52.5295,13.4548","KBS 100,KBS 103a,KBS 100b,KBS 100c",Q800507
702,1960702,Leninallee,strassenbahn,"52.5259343,13.4462368","13,4",Q65553230
703,1960703,Leninplatz,bus,"52.523238998562235, 13.433594583798834",O40,nan
704,1960704,Leninplatz,strassenbahn,"52.5232658,13.4326457","69,64,63,1",Q65553105
705,1960705,Lenzener Platz,bus,"52.54313288032456, 13.37637516456218",A64,nan
706,1960706,LeonorenStrasse,bus,"52.444386837647556, 13.338876103590831","A17,A32",nan
707,1960707,Leonorenstrasse,bus,"52.444367159567626, 13.338879863390057",A2,nan
708,1960708,Leopoldplatz,u-bahn,"52.5465,13.3591","C II,C I",Q1960809
709,1960709,Lepsiusstrasse,bus,"52.45883023513571, 13.315599065479873",A68,nan
710,1960710,Lerbacher Weg,bus,"52.42568078153998, 13.34761442595845",A2,nan
711,1960711,"Letteplatz, Strassenbahnhof",bus,"52.56410522486749, 13.371107480641978",A71,nan
712,1960712,Leuthingerweg,bus,"52.54180680726089, 13.163727103711182",A63,nan
713,1960713,Lichtenberg,s-bahn,"52.5106,13.4964",KBS 101,Q634247
714,1960714,Lichtenrade,s-bahn,"52.3876,13.3963",KBS 105,Q6543354
715,1960715,"Lichtenrade, Blohmstrasse Ecke W nsdorfer Strasse",bus,"52.38867479174066, 13.39433396909652",AS2,nan
716,1960716,"Lichtenrade, Goethestrasse",bus,"52.40437993547595, 13.406198387437845",AS2,nan
717,1960717,Lichtenrader Damm,bus,"52.41457407591286, 13.401100479114065",A52,nan
718,1960718,Lichterfelde Ost,s-bahn,"52.43,13.3289",KBS 106,Q111311299
719,1960719,Lichterfelde Süd,s-bahn,"52.41,13.3086",KBS 106,Q800482
720,1960720,Lichterfelde Süd Lindenstrasse,strassenbahn,"52.41370384479345, 13.30156889737024",78,nan
721,1960721,Lichterfelde West,s-bahn,"52.4433,13.2947",KBS 104,Q111327103
722,1960722,Lindauer Strasse,bus,"52.573378512244474, 13.359026284637647",A71,nan
723,1960723,Lindauer Strasse Ecke Aroser Allee,bus,"52.573719929631665, 13.351912686321713","A12,A12S",nan
724,1960724,Lindenberg,bus,"52.602597712625055, 13.5250306401055",AL,nan
725,1960725,Lindenberger Weg,bus,"52.63267168488251, 13.500299102148412",A42,nan
726,1960726,Lindenstrasse,bus,"52.41754704184675, 13.306637505969373",A1,nan
727,1960727,Lindenstrasse,strassenbahn,"52.50703628824205, 13.398245194666595",99,nan
728,1960728,Lindenstrasse Ecke Bahnhofstrasse,strassenbahn,"52.4505094,13.572684","86,84,83",Q66095701
729,1960729,"Lindenstrasse, Bahnhofstrasse",strassenbahn,"52.4505094,13.572684",95,Q66095701
730,1960730,Lindenthaler Allee,s-bahn,"52.4375,13.2325",KBS 104,Q315891
731,1960731,Lindenweg,bus,"52.58320838924275, 13.343677581838621","A12,A14",nan
732,1960732,Loewenhardtdamm,bus,"52.48165790097863, 13.374453287679744",A28,nan
733,1960733,Louise-Schroeder-Platz,bus,"52.55713317342601, 13.365513694540711",A16,nan
734,1960734,Ludwigkirchstrasse/Pariser Strasse,bus,"52.497535465268555, 13.324328066962357",A60,nan
735,1960735,Luisenplatz,bus,"52.52005408723936, 13.2995133852506","A62,A65,A21,AS1",nan
736,1960736,Luisenplatz,strassenbahn,"52.51951940474329, 13.300024347605849","55,53,54",nan
737,1960737,Lupsteiner Weg,bus,"52.40950895120702, 13.251647735398342",A10,nan
738,1960738,Lutherstrasse,bus,"52.50104544166847, 13.34692193817342","A69,A29",nan
739,1960739,Luxemburgplatz,u-bahn,"52.528333333333,13.410277777778","A I,A II",Q658790
740,1960740,Luzerner Strasse,bus,"52.42399460780493, 13.293333572320618",A53,nan
741,1960741,Lynastrasse,bus,"52.54898935768741, 13.210225795636823",AS1,nan
742,1960742,"Lübars, Dorfaue",bus,"52.62095733281459, 13.358934481999336",A20,nan
743,1960743,Lübarser Strasse,bus,"52.602792196244636, 13.335729351721078",A15,nan
744,1960744,Lützowplatz,bus,"52.505029017314186, 13.351822867208506","A16,A69,A24",nan
745,1960745,Lützowstrasse,bus,"52.5030789103706, 13.36561126569968",A48,nan
746,1960746,Lützowstrasse,bus,"52.50531004879477, 13.35374234810531",A29,nan
747,1960747,Lützowstrasse,strassenbahn,"52.503071437757164, 13.365720679612895","74,73,88",nan
748,1960748,M nsterlandstrasse,bus,"52.50383417220682, 13.494663579681129",O30,nan
749,1960749,Machandelweg,bus,"52.52483519555124, 13.24567177943413","A5,A31",nan
750,1960750,Machnower Schleuse,strassenbahn,"52.39513316459733, 13.20831380290797",96,nan
751,1960751,Magdalenenstr.,u-bahn,"52.5125,13.486388888889",E,Q473901
752,1960752,Magistratsweg,bus,"52.5331201414446, 13.158067208455051",A31,nan
753,1960753,Mahlow,s-bahn,"52.3602,13.4085",KBS 105,Q2641431
754,1960754,Mahlsdorf,s-bahn,"52.5121,13.6106",KBS 101,Q800484
755,1960755,Mahlsdorf-Süd,strassenbahn,"52.4741663,13.5991443",83,Q66368466
756,1960756,"Mahlsdorf-Süd, Hubertus",strassenbahn,"52.4741663,13.5991443","86,82",Q66368466
757,1960757,"Malchow, Dorfstrasse",bus,"52.580462270708544, 13.482797576255583","AL,A46",nan
758,1960758,Malchower Weg,bus,"52.56152031238405, 13.500485897507804",A46,nan
759,1960759,Malhlsdorfer Allee,bus,"52.48487246674627, 13.628942223225485",A8,nan
760,1960760,Marburger Strasse,bus,"52.50371964602222, 13.337728344178407",A62,nan
761,1960761,Marchandstrasse,bus,"52.423049326436605, 13.357354547531147",A32,nan
762,1960762,Marchlewskistr.,u-bahn,"52.516794444444,13.444991666667",E,Q551768
763,1960763,Margaretenstrasse,bus,"52.50894074108115, 13.36866960388795",A48,nan
764,1960764,Mariannenplatz,bus,"52.50228674193422, 13.42408622658593",A28,nan
765,1960765,Mariendorf,s-bahn,"52.4478,13.3609",KBS 105,Q800497
766,1960766,Mariendorfer Allee,strassenbahn,"52.44417698631804, 13.433567533504721",27,nan
767,1960767,Mariendorfer Damm,bus,"52.445604468950826, 13.385816551199863",AS2,nan
768,1960768,Mariendorfer Damm,strassenbahn,"52.44016299080784, 13.387234623097394",15,nan
769,1960769,Mariendorfer Damm Ecke Alt-Mariendorf,strassenbahn,"52.4401803123353, 13.38732780334823",98,nan
770,1960770,Mariendorfer Friedhof,strassenbahn,"52.44953069256824, 13.404755931664896",15,nan
771,1960771,Mariendorfer Weg,strassenbahn,"52.46469434328643, 13.432932867671957",27,nan
772,1960772,Marienfelde,s-bahn,"52.4242,13.3747",KBS 105,Q800485
773,1960773,Marienfelder Allee,bus,"52.413790430379194, 13.362098895780415",A32,nan
774,1960774,Marienfelder Chaussee,strassenbahn,"52.4146041420917, 13.40113672565082",99,nan
775,1960775,Marienfelder Strasse,bus,"52.43338754214616, 13.353023554563793",A32,nan
776,1960776,Marienfelder Strasse,strassenbahn,"52.392463281396054, 13.406662016554435",99,nan
777,1960777,Marienstrasse,bus,"52.42960010456386, 13.321303543636025",A11,nan
778,1960778,Markgrafendamm,bus,"52.49919969372071, 13.465742293248686",A82P,nan
779,1960779,Marktplatz,strassenbahn,"52.43777454049099, 13.54773332680887",84,nan
780,1960780,Martin-Luther-Friedhof,bus,"52.598400543805816, 13.298350500981082",A20,nan
781,1960781,Martin-Luther-Strasse,strassenbahn,"52.488858993840374, 13.344921966484465","60,3",nan
782,1960782,Marx-Engels-Platz,bus,"52.51617617310524, 13.400937413635054","A57,A9",nan
783,1960783,Marx-Engels-Platz,s-bahn,"52.5226,13.4022","KBS 103,KBS 102,KBS 101",Q689312
784,1960784,"Marzahn, Berliner Chaussee",bus,"52.54469782123951, 13.564560329042491",A43,nan
785,1960785,Masurenallee,bus,"52.50642938866968, 13.280405207863838",A65,nan
786,1960786,Mattenbuder Pfad,bus,"52.61696067657215, 13.220550425237422",A14,nan
787,1960787,Mehringdamm,bus,"52.49293917608851, 13.38772030059097","A28,A19",nan
788,1960788,Mehringdamm,strassenbahn,"52.49298792323627, 13.387950331490586","3,2",nan
789,1960789,Mehringdamm,u-bahn,"52.493888888889,13.388333333333","C II,C I",Q657905
790,1960790,Mehringplatz,strassenbahn,"52.4979249057416, 13.39108106831653",99,nan
791,1960791,Mehringplatz (Hallesches Tor),strassenbahn,"52.4979249057416, 13.39108106831653",98,nan
792,1960792,Messedamm,bus,"52.50446814877144, 13.279412101845791",A4,nan
793,1960793,Messedamm,strassenbahn,"52.50641938570246, 13.280392436943686","75,76",nan
794,1960794,Mimosenweg,bus,"52.42675928719203, 13.506179808906213",A52,nan
795,1960795,Mittelstrasse,bus,"52.43475141442549, 13.249262104251452",A18,nan
796,1960796,Moltkestrasse,strassenbahn,"52.440407040891834, 13.316309800686549","74,73",nan
797,1960797,Moritzplatz,bus,"52.50387355112676, 13.409983330065609",A67,nan
798,1960798,Moritzplatz,u-bahn,"52.503611111111,13.410833333333",D,Q374225
799,1960799,Moritzstrasse,bus,"52.538616245338716, 13.20068787610921",A63,nan
800,1960800,Munsterdamm,bus,"52.45912869204209, 13.348683628449525",A68,nan
801,1960801,Märkisches Museum,u-bahn,"52.511944444444,13.408888888889","A I,A II",Q657871
802,1960802,Möckernbrücke,u-bahn,"52.499166666667,13.382777777778","B II,B I",Q704716
803,1960803,Mühlenstrasse,bus,"52.59350028783369, 13.248862690560857",A20,nan
804,1960804,Mühlenstrasse,strassenbahn,"52.508543937506005, 13.43489757970717","3,4",nan
805,1960805,Nassauische Strasse,bus,"52.4911618772095, 13.326528822264246",A50,nan
806,1960806,Nauener Platz,strassenbahn,"52.55153667645967, 13.367355320761433","35,25",nan
807,1960807,Nauener Strasse,bus,"52.5340443007014, 13.18167584141312",A31,nan
808,1960808,Nauener Strasse,strassenbahn,"52.5384290651878, 13.182388284496431",55,nan
809,1960809,Neanderstr.,u-bahn,"52.510833333333,13.416388888889",D,Q663204
810,1960810,Nettelbeckplatz,bus,"52.54467606570895, 13.370138361814583",A64,nan
811,1960811,Nettelbeckplatz,strassenbahn,"52.54423653105294, 13.369853072459598",35,nan
812,1960812,Neu-Lindenberg,bus,"52.600885625411856, 13.554794085696633",AL,nan
813,1960813,Neu-Westend,u-bahn,"52.515555555556,13.261111111111",B I,Q656431
814,1960814,Neue Wagenhalle,strassenbahn,"52.39221410393183, 13.231155595625713",96,nan
815,1960815,Neuenhagen (b Bln),s-bahn,"52.5208,13.7003",KBS 101,Q7001614
816,1960816,Neukölln,s-bahn,"52.469166666667,13.441666666667","KBS 100a,KBS 100",Q111325412
817,1960817,Neukölln (Südring),u-bahn,"52.469444,13.442222",C I,Q21272767
818,1960818,Neuköllnische Allee,bus,"52.468152065072715, 13.460620591028498",A67,nan
819,1960819,"Niedersch nhausen, Idastrasse bzw. Nordend",strassenbahn,"52.5826456245908, 13.412764320279857",46E,nan
820,1960820,"Niedersch nhausen, Schillerstrasse",strassenbahn,"52.5923051,13.41088",46,Q65032581
821,1960821,Nikolassee,s-bahn,"52.4317,13.1933","KBS 102,KBS 104",Q637052
822,1960822,Nikolskoer Weg,bus,"52.41405938531216, 13.109270752484141",A6,nan
823,1960823,Nollendorfplatz,bus,"52.49968843634292, 13.353086438468269",A19,nan
824,1960824,Nollendorfplatz,strassenbahn,"52.49974136660471, 13.352878927585127","55,53,54",nan
825,1960825,Nollendorfplatz,u-bahn,"52.499166666667,13.353888888889","B III,A II,B II,A I,B I",Q571039
826,1960826,Nonnendammallee,strassenbahn,"52.538012066324, 13.24976268119185",35,nan
827,1960827,Nordbahnhof,s-bahn,"52.5319,13.3878","KBS 105,KBS 106,KBS 104",Q673721
828,1960828,Nordbahnhof,u-bahn,"52.531111111111,13.3825","C II,C I",Q554399
829,1960829,Nordend,bus,"52.59006569360479, 13.401740566033476",A7,nan
830,1960830,Nordend,strassenbahn,"52.5902104,13.4027524",46,Q65032696
831,1960831,Nordendstrasse,strassenbahn,"52.588534,13.3882952",22,Q65428345
832,1960832,Nordgraben,bus,"52.588002933439746, 13.339787574099258",A14,nan
833,1960833,Nöldnerplatz,s-bahn,"52.5038,13.4853",KBS 101,Q4892447
834,1960834,Oberhofer Platz,bus,"52.42410259117963, 13.328170432694991",A17,nan
835,1960835,Oberspree,s-bahn,"52.4525,13.5382",KBS 103a,Q15192700
836,1960836,Oderberger Strasse,strassenbahn,"52.54058395613876, 13.404619006480333","13,4",nan
837,1960837,Oderbruchstrasse,bus,"52.52965617389457, 13.461022889581898",O41,nan
838,1960838,Olivaer Platz,bus,"52.50060275704949, 13.313110622018645","A66,A19,A29",nan
839,1960839,Olympia-Stadion,u-bahn,"52.517222222222,13.25",B I,Q656441
840,1960840,Onkel Toms Hütte,u-bahn,"52.450277777778,13.253333333333","B II,A II",Q389214
841,1960841,Onkel-Herse-Strasse,strassenbahn,"52.44827036160263, 13.453893782713148",47,nan
842,1960842,Oranienburg,s-bahn,"52.7536,13.2496",KBS 104,Q2341669
843,1960843,Oranienburger Str.,s-bahn,"52.525,13.3929","KBS 105,KBS 106,KBS 104",Q480249
844,1960844,Oranienburger Strasse,bus,"52.59544415987805, 13.333037366087483",A21,nan
845,1960845,Oranienburger Strasse,bus,"52.60503286544952, 13.32624696983276",A12S,nan
846,1960846,Oranienburger Tor,bus,"52.52716314203455, 13.38710905184874",O40,nan
847,1960847,Oranienburger Tor,strassenbahn,"52.5256031,13.3872745","69,70,46",Q65095375
848,1960848,Oranienburger Tor,u-bahn,"52.524886111111,13.387477777778","C II,C I",Q571485
849,1960849,"Oranienburger Tor, Hannoversche Strasse",strassenbahn,"52.52693581242043, 13.384570821924626","46E,11",nan
850,1960850,Oraniendamm,bus,"52.607835611203505, 13.323834478403686",A20,nan
851,1960851,Oranienplatz,bus,"52.50232370505019, 13.415510129463975",A67,nan
852,1960852,Oranienstrasse,bus,"52.501310708954215, 13.419224612073883",A28,nan
853,1960853,Oranienstrasse,strassenbahn,"52.507080492429274, 13.3982819224346",88,nan
854,1960854,Ortsgrenze Gatow,bus,"52.4981601705565, 13.180014416479423","A34,A35",nan
855,1960855,Osdorfer Strasse,strassenbahn,"52.42121990188002, 13.310681971655695",96,nan
856,1960856,Oskar-Helene-Heim,u-bahn,"52.450277777778,13.269722222222","B II,A II",Q681336
857,1960857,Osloer Strasse,bus,"52.55587669510938, 13.38424421097371","A70,A71",nan
858,1960858,Osloer Strasse,bus,"52.55671381712504, 13.373732523202998",A61,nan
859,1960859,Osloer Strasse,strassenbahn,"52.5570174,13.3659987",35,Q65767112
860,1960860,OsnaBrücker Strasse,strassenbahn,"52.52655659018374, 13.297414453709727","55,3",nan
861,1960861,Ossietzkyplatz,bus,"52.58150700684141, 13.404249587640239",A7,nan
862,1960862,Ossietzkyplatz,strassenbahn,"52.58100580136794, 13.404014807678767","46E,46",nan
863,1960863,Ostbahnhof,bus,"52.50976670730252, 13.43372198235041",O40,nan
864,1960864,Ostbahnhof,s-bahn,"52.51,13.4347","KBS 103,KBS 102,KBS 101",Q111325075
865,1960865,Ostbahnhof,strassenbahn,"52.509107635417394, 13.43550619008533",82,nan
866,1960866,Osteweg,bus,"52.42102198114528, 13.281135801011326",A53,nan
867,1960867,Ostkreuz,s-bahn,"52.5031,13.4689","KBS 100c,KBS 103,KBS 101,KBS 100b,KBS 103a,KBS 100,KBS 102",Q111251530
868,1960868,Ostseestrasse (Spitze),bus,"52.551051109585906, 13.430303771242599",A42,nan
869,1960869,Oswinsteig,bus,"52.624992235029175, 13.300834017106252",A12S,nan
870,1960870,Otto-Suhr-Allee,strassenbahn,"52.51801027861401, 13.304399353259491",3,nan
871,1960871,Otto-Surh-Allee,bus,"52.51469791251031, 13.315136925389936",A1,nan
872,1960872,P cklerstrasse,bus,"52.468566643885005, 13.27835662512682",AS3,nan
873,1960873,Pacelli-/Thielallee,bus,"52.45819383818934, 13.287096949272522",A1,nan
874,1960874,Pankow,s-bahn,"52.5667,13.4111","KBS 106,KBS 100b",Q111273850
875,1960875,Pankow (Vinetastr.),u-bahn,"52.559166666667,13.413333333333","A I,A II",Q570906
876,1960876,"Pankow, Kirche",bus,"52.57124680898358, 13.410670715665145","A45,A55",nan
877,1960877,"Pankow, Kirche",strassenbahn,"52.5706452,13.4103115","49,46E,22,46",Q65055066
878,1960878,"Pankow, Rathaus",bus,"52.56953908840178, 13.404186437171612","A7,A45,A55",nan
879,1960879,"Pankow, Rathaus",strassenbahn,"52.5694816,13.4038045","46E,22,46",Q65055060
880,1960880,Pankow-Heinersdorf,s-bahn,"52.5780653,13.4295093","KBS 106,KBS 100b",Q4892366
881,1960881,Pankower Allee,bus,"52.564667911185886, 13.378087639243981",A14,nan
882,1960882,Pankower Allee,strassenbahn,"52.5638192979938, 13.36426816706299",35,nan
883,1960883,Pankstrasse,bus,"52.55229407958284, 13.38145934777098","A61,A14",nan
884,1960884,Papestr.,s-bahn,"52.4756,13.3644","KBS 105,KBS 100a,KBS 100,KBS 106",Q111323139
885,1960885,Paradestr.,u-bahn,"52.478055555556,13.386111111111",C II,Q557543
886,1960886,Parchimer Allee,strassenbahn,"52.44544295914785, 13.455088787662136",47,nan
887,1960887,Parkfriedhof Neukölln,strassenbahn,"52.4287655422534, 13.434984329128367",27,nan
888,1960888,Parkstrasse,strassenbahn,"52.45876522318908, 13.53993545855609","87,82",nan
889,1960889,Paulsternstrasse,bus,"52.54415774195884, 13.247126131065503","A10,A13",nan
890,1960890,Paulsternstrasse,strassenbahn,"52.538114851173546, 13.248435943349298",55,nan
891,1960891,Perleberger Strasse,bus,"52.53077396792751, 13.347177821256501",A66,nan
892,1960892,Petersallee (Freilichtbühne Rehberge),bus,"52.55871831481775, 13.337458424139857",A64,nan
893,1960893,Pfaueninsel-Chaussee,bus,"52.41883762088876, 13.153039190703318","A3,A18,A6",nan
894,1960894,Pichelsberg,s-bahn,"52.5103,13.2271","KBS 103,KBS 101",Q800488
895,1960895,Pichelsdorfer Strasse,bus,"52.52914294070602, 13.195638801936928",A13,nan
896,1960896,Pichelsdorfer Strasse,strassenbahn,"52.51307046642958, 13.196871153391022","75,76",nan
897,1960897,Pionierrepublik,strassenbahn,"52.4575779,13.5436031",95,Q66104117
898,1960898,Pionierstrasse,bus,"52.551529603690966, 13.185506987271339",A63,nan
899,1960899,Pistoriusstrasse Ecke Klement-Gottwald-Allee,bus,"52.55009435565474, 13.45900710843341",A45,nan
900,1960900,Plänterwald,s-bahn,"52.4786,13.4733","KBS 103,KBS 103a",Q7205917
901,1960901,Podbielskiallee,u-bahn,"52.464444444444,13.296388888889","B II,A II",Q571324
902,1960902,Postamt,bus,"52.48905066177084, 13.322770368720937",A60,nan
903,1960903,"Postamt, Museum Dahlem",bus,"52.4580469214445, 13.291771531599098",A68,nan
904,1960904,Potsdam,s-bahn,"52.3917,13.0667",KBS 102,Q647973
905,1960905,Potsdamer Platz,s-bahn,"52.5094,13.3766","KBS 105,KBS 106,KBS 104",Q106086519
906,1960906,Potsdamer Platz,strassenbahn,"52.50948236131137, 13.375988156399634","74,73",nan
907,1960907,Potsdamer Platz,u-bahn,"52.5092,13.3782","A I,A II",Q3909578
908,1960908,Potsdamer Strasse,bus,"52.43581242860363, 13.256098874509126",A53,nan
909,1960909,Potsdamer Strasse,bus,"52.497900834061184, 13.362004472211375",A19,nan
910,1960910,Potsdamer Strasse,bus,"52.50310985391171, 13.365680511254423","A24,A29",nan
911,1960911,Potsdamer Strasse,strassenbahn,"52.497947693481, 13.362087448651582","3,2",nan
912,1960912,Potsdamer Strasse Ecke Clayallee,bus,"52.43504800046437, 13.260425575475969","A1,A18",nan
913,1960913,Potsdamer Strasse Ecke Fischerh ttenstrasse,bus,"52.43576860452355, 13.256070911731433",A48,nan
914,1960914,Prager Platz,bus,"52.49294694854429, 13.332964219632272",A50,nan
915,1960915,Prenzlauer Allee,s-bahn,"52.544775,13.426116","KBS 100,KBS 103a,KBS 100b,KBS 100c",Q32661483
916,1960916,Prenzlauer Allee,strassenbahn,"52.5396522,13.4244789","13,4",Q65222180
917,1960917,Prenzlauer Allee (Spitze),bus,"52.544670526661974, 13.427455280947829",A56,nan
918,1960918,Prenzlauer Allee Ecke Wisbyer Strasse,strassenbahn,"52.551183836372815, 13.43013561837268",71,nan
919,1960919,Prenzlauer Promenade,strassenbahn,"52.55155536618067, 13.43032253030515","70,3,72",nan
920,1960920,Prenzlauer Promenade Ecke Kissingenstrasse,bus,"52.56795804833996, 13.427734373319213",A45,nan
921,1960921,Prenzlauer Tor,strassenbahn,"52.52709114016772, 13.415809370320808","71,72",nan
922,1960922,Priesterweg,s-bahn,"52.4601,13.3563","KBS 105,KBS 106",Q800508
923,1960923,Prinzenallee/Soldiner Strasse,bus,"52.55871759464676, 13.386248511741826",A71,nan
924,1960924,Prinzenstr.,u-bahn,"52.498333333333,13.406111111111","B II,B I",Q689797
925,1960925,Proskauer Ecke Dolziger Strasse,bus,"52.519874079766325, 13.463289228834057",O30,nan
926,1960926,Provinzstrasse/Pankower Allee,bus,"52.56468777207285, 13.378063096396454",A71,nan
927,1960927,Prühßstrasse,strassenbahn,"52.443274813352325, 13.38622115632198",98,nan
928,1960928,Putlitzstr.,s-bahn,"52.536,13.344","KBS 100,KBS 103a,KBS 100c",Q465972
929,1960929,Päwesiner Weg,bus,"52.52633953639178, 13.181877502746046",A13,nan
930,1960930,Quantzstrasse,bus,"52.423135671729796, 13.202253537880683",A18,nan
931,1960931,Quellweg,strassenbahn,"52.53666578461771, 13.268432707290442","55,35",nan
932,1960932,Radelandstrasse,bus,"52.55650975276803, 13.188691756681173",A63,nan
933,1960933,Rahnsdorf,s-bahn,"52.4516372,13.6899776",KBS 102,Q800489
934,1960934,Rahnsdorf,strassenbahn,"52.443531694444445,13.685038",87,Q66361311
935,1960935,Ramlerstrasse,bus,"52.547125761071456, 13.389174502621508",A71,nan
936,1960936,Rangsdorf,s-bahn,"52.294444,13.430278",KBS 105,Q801345
937,1960937,"Rankeplatz, Bundeshaus",bus,"52.4977881279831, 13.330731790169496",AS2,nan
938,1960938,Rankeplatz/Bundeshaus,bus,"52.497826190133736, 13.330710978777121",AS3,nan
939,1960939,Rathaus Mariendorf,bus,"52.44527453682428, 13.379492384246559",A33,nan
940,1960940,Rathaus Neukölln,bus,"52.48152537358512, 13.434381079123925",A4,nan
941,1960941,Rathaus Neukölln,strassenbahn,"52.48159489526684, 13.434274903483136","6,26,47",nan
942,1960942,Rathaus Neukölln,u-bahn,"52.481666666667,13.434166666667",C I,Q628770
943,1960943,Rathaus Reinickendorf,bus,"52.591657836908254, 13.32633527572607",A12S,nan
944,1960944,Rathaus Sch neberg,bus,"52.48515473887597, 13.345086596743203","A16,A4",nan
945,1960945,Rathaus Sch neberg,strassenbahn,"52.484790956462334, 13.345086356437134","60,6,25",nan
946,1960946,Rathaus Schöneberg,u-bahn,"52.483116666667,13.341930555556",B III,Q570926
947,1960947,Rathaus Spandau,bus,"52.53480744415333, 13.199505517192808","A5,A13,A31,A63,A34,AS1,A35",nan
948,1960948,Rathaus Spandau,strassenbahn,"52.53488081670858, 13.199058849732252","55,75,76",nan
949,1960949,Rathaus Steglitz,bus,"52.45683244954579, 13.320757398114617","A17,A32,A48,A68",nan
950,1960950,Rathaus Steglitz,strassenbahn,"52.45691682931275, 13.320745348424166","74,78,44,73,77",nan
951,1960951,Rathaus Tempelhof,strassenbahn,"52.462494115868374, 13.38523087984914",99,nan
952,1960952,Rathaus Tiergarten,bus,"52.52649085974541, 13.338358982634196",A70,nan
953,1960953,Rathaus Wannsee,bus,"52.418440129670444, 13.148872492834737","A3,A18,A6",nan
954,1960954,Rathaus Zehlendorf,bus,"52.433207520111885, 13.259531923613192","A3,AS3,A53",nan
955,1960955,Rathenauplatz,bus,"52.49561134930413, 13.286573746568635","A65,A69",nan
956,1960956,Rathenower Strasse,bus,"52.52673250798154, 13.355275614926985",A24,nan
957,1960957,Rathenower Strasse,bus,"52.53252987726616, 13.350576073195072",A70,nan
958,1960958,Rathenower Strasse,strassenbahn,"52.52356,13.35779","35,2",Q121863902
959,1960959,Regattahäuser,strassenbahn,"52.4114287,13.5880881",86,Q66490561
960,1960960,Rehberge,u-bahn,"52.5567,13.3412","C II,C I",Q253850
961,1960961,Reichenberger Strasse,strassenbahn,"52.495535248263636, 13.430362951622532",26,nan
962,1960962,Reichskanzlerplatz,bus,"52.50929184084697, 13.27265693784035",A4,nan
963,1960963,Reichskanzlerplatz,strassenbahn,"52.5089140766086, 13.272251406623242","75,76",nan
964,1960964,Reichskanzlerplatz,u-bahn,"52.509722222222,13.273055555556","A I,B I",Q657857
965,1960965,Reichssportfeld,s-bahn,"52.511,13.2416","KBS 103,KBS 101",Q800506
966,1960966,Reichssportfeldstrasse,strassenbahn,"52.507514731015824, 13.242086696344282","75,76",nan
967,1960967,Reinickendorf,s-bahn,"52.5779,13.3506",KBS 105,Q800496
968,1960968,Reinickendorfer Str.,u-bahn,"52.539911111111,13.370377777778","C II,C I",Q559249
969,1960969,Rembrandtstrasse,strassenbahn,"52.47116466720471, 13.343688369656276",66,nan
970,1960970,Rennbahn,strassenbahn,"52.430060594099295, 13.39244351468167",99,nan
971,1960971,Rennbahnstrasse Ecke Gustav-Adolf-Strasse,bus,"52.56218648050474, 13.454267038723398",A56,nan
972,1960972,Retzbacher Weg,bus,"52.570942535830284, 13.422907898864429",A55,nan
973,1960973,Reuchlinstrasse,bus,"52.5278079827492, 13.324842775070394",A70,nan
974,1960974,Reuterstrasse,bus,"52.48654240757135, 13.428977740572138",A67,nan
975,1960975,Richard-Wagner-Platz,bus,"52.517490990443804, 13.306397097578404",A62,nan
976,1960976,Richard-Wagner-Platz,strassenbahn,"52.517570616857, 13.306248118529135","55,53,54",nan
977,1960977,Richard-Wagner-Platz,u-bahn,"52.5175,13.306388888889",A III,Q662201
978,1960978,Richardstrasse,strassenbahn,"52.47097391592754, 13.446301038467002",15,nan
979,1960979,Richtershorn,strassenbahn,"52.40105,13.6248473",86,Q66481215
980,1960980,Ridbacher Strasse,bus,"52.527457204488485, 13.606447755554132",A49,nan
981,1960981,Ringstrasse,bus,"52.439772810020266, 13.300175076283422",A11,nan
982,1960982,Rittberg-Krankenhaus,strassenbahn,"52.42987951650218, 13.288961460110901","78,77",nan
983,1960983,Ritterlandweg,bus,"52.56036399935592, 13.36907949823327",A71,nan
984,1960984,Robert-Koch-Platz,bus,"52.527570508835595, 13.37877230286134","O40,A57",nan
985,1960985,Roederplatz,bus,"52.52671388514014, 13.479662353432392",O30,nan
986,1960986,Roederplatz,strassenbahn,"52.5266001,13.479068","69,3,69E",Q65685373
987,1960987,Roseneck,bus,"52.47580089902253, 13.282411270445099","A50,AS3,A19,A29",nan
988,1960988,"Roseneck, Hundekehl",bus,"52.47640250997692, 13.281611267179592",A60,nan
989,1960989,Rosenecke,bus,"52.47578489322442, 13.282306517997712",A17,nan
990,1960990,Rosenthaler Platz,bus,"52.5296729549826, 13.401428926082492",O40,nan
991,1960991,Rosenthaler Platz,strassenbahn,"52.5301769,13.4016121","1,49,22,11",Q65093945
992,1960992,Rosenthaler Platz,u-bahn,"52.53,13.401111111111",D,Q663231
993,1960993,Rudower Strasse,bus,"52.43428237477314, 13.469124205215895",A52,nan
994,1960994,Ruhleben,u-bahn,"52.525555555556,13.241388888889",B I,Q656401
995,1960995,Ruhlsdorfer Platz,strassenbahn,"52.40085341513547, 13.268853571967181",96,nan
996,1960996,Ruhrstrasse,bus,"52.48988277984805, 13.312456459919812",A50,nan
997,1960997,Rummelsburg,s-bahn,"52.501244,13.478545",KBS 102,Q15107132
998,1960998,Ruppiner Chaussee,bus,"52.59792202028554, 13.275075196373528",A13,nan
999,1960999,Röblingstrasse,strassenbahn,"52.44966812373649, 13.366852447351357",96,nan
1000,19601000,Röntgental,s-bahn,"52.6487,13.5136",KBS 106,Q801386
1001,19601001,Rüdesheimer Platz,u-bahn,"52.473333333333,13.314444444444","B II,A II",Q167147
1002,19601002,Rügener Strasse,bus,"52.544791277773946, 13.391067616355128","A61,A71,A14",nan
1003,19601003,Rügener Strasse,strassenbahn,"52.544766906982396, 13.39098830610686",25,nan
1004,19601004,S-Bhf. Adlershof,strassenbahn,"52.435251,13.5408489",84,Q66363728
1005,19601005,S-Bhf. Alexanderplatz,bus,"52.52074877770386, 13.412147230655155","O30,A57,A9",nan
1006,19601006,S-Bhf. Baumschulenweg,bus,"52.4674967534767, 13.489379882069517",A47,nan
1007,19601007,S-Bhf. Biesdorf,bus,"52.513432593832405, 13.555387279249894",O37,nan
1008,19601008,S-Bhf. Friedrichsfelde-Ost,bus,"52.51324537165634, 13.524030584354616",A43,nan
1009,19601009,S-Bhf. Friedrichshagen,strassenbahn,"52.4564126,13.6253656","87,84",Q66360784
1010,19601010,S-Bhf. Greifswalder Strasse,strassenbahn,"52.5407234,13.4382904","74,74E",Q65548932
1011,19601011,S-Bhf. Grünau,bus,"52.41361515857581, 13.573796290663196","A38,AZ,AD/36",nan
1012,19601012,S-Bhf. Hohen Neuendorf,bus,"52.66955116686502, 13.286967415942232",AN,nan
1013,19601013,S-Bhf. Karlshorst,strassenbahn,"52.481331,13.5254433","69,69E",Q65952829
1014,19601014,"S-Bhf. Kaulsdorf, Planitzstrasse",bus,"52.51113864301491, 13.58755467300039",A27,nan
1015,19601015,S-Bhf. Köpenick,bus,"52.45882190200453, 13.579564677172508",A27,nan
1016,19601016,S-Bhf. Köpenick,strassenbahn,"52.4582153,13.5790435","86,82,83",Q66370784
1017,19601017,S-Bhf. Mahlsdorf,bus,"52.51234908870327, 13.61221793610957","A44E,A44",nan
1018,19601018,S-Bhf. Mahlsdorf,strassenbahn,"52.51221826761895, 13.612190748726157",83,nan
1019,19601019,S-Bhf. Ostkreuz,strassenbahn,"52.50243021718411, 13.469020052690205",82,nan
1020,19601020,S-Bhf. Pankow-Heinersdorf,strassenbahn,"52.577507820515834, 13.427853061920917",49,nan
1021,19601021,S-Bhf. Prenzlauer Allee,strassenbahn,"52.5448075,13.427408","71,72",Q65219791
1022,19601022,S-Bhf. Rahnsdorf,bus,"52.451628368326396, 13.691579101298974",A22,nan
1023,19601023,S-Bhf. Rummelsburg,bus,"52.50179539105723, 13.478028581044718",O30,nan
1024,19601024,S-Bhf. Sch nhauser Allee,strassenbahn,"52.5493619,13.4135734","49,46E,22,46",Q65088013
1025,19601025,S-Bhf. Schöneweide,strassenbahn,"52.4553413,13.5110449",95,Q65950245
1026,19601026,S-Bhf. Spindlersfeld,strassenbahn,"52.4457311,13.5624298",84,Q66363397
1027,19601027,S-Bhf. Treptow,strassenbahn,"52.492888929278756, 13.459229771020295",92,nan
1028,19601028,S-Bhf. Treptower Park,bus,"52.49403640886682, 13.460762565516704",A47,nan
1029,19601029,S-Bhf. Wilhelmshagen,bus,"52.43886122089184, 13.721060252199655",A22,nan
1030,19601030,S-Bhf. Wollkanstrasse,bus,"52.564761382051245, 13.39377998446197",A55,nan
1031,19601031,Saaleckplatz,bus,"52.41629158246214, 13.323941962356194",A17,nan
1032,19601032,SaarBrücker Strasse,strassenbahn,"52.5285309565747, 13.417113687314579","71,72",nan
1033,19601033,Saargem nder Strasse,bus,"52.450918082089416, 13.270922488527036","A18,A11",nan
1034,19601034,Saatwinkler Damm,bus,"52.54802938567344, 13.300569461587116",A62,nan
1035,19601035,Sadowastrasse,bus,"52.482675472271694, 13.584833068425244",A8,nan
1036,19601036,Saltykowstrasse,strassenbahn,"52.47670468546067, 13.439116319771621",26,nan
1037,19601037,Samariterstr.,u-bahn,"52.514722222222,13.464444444444",E,Q552891
1038,19601038,Sandkrugbrücke,strassenbahn,"52.5264969,13.3694391",44,Q65552616
1039,19601039,Sansibarstrasse,bus,"52.55519162213508, 13.34350843324585",A64,nan
1040,19601040,Savignyplatz,s-bahn,"52.5051746,13.3190659","KBS 103,KBS 102,KBS 101",Q554382
1041,19601041,Sch ferberg,bus,"52.41562661861071, 13.12630868100336",A6,nan
1042,19601042,"Sch fersee, Pankower Allee",bus,"52.56403098912502, 13.36417150367161",A71,nan
1043,19601043,"Sch nefeld, Siedlung",bus,"52.38835097546488, 13.564205018328355","AZ,AD/36",nan
1044,19601044,Sch nhauser Allee,strassenbahn,"52.5493619,13.4135734",3,Q65088013
1045,19601045,Scharfestrasse,bus,"52.43828828643976, 13.262213345971533",A18,nan
1046,19601046,Scharnhorst- Ecke Kieler Strasse,bus,"52.534352691939105, 13.370302521463962",A9,nan
1047,19601047,Scharnweberstr. (Eichborndamm),u-bahn,"52.566944444444,13.312777777778","C II,C I",Q557586
1048,19601048,Scharnweberstrasse,bus,"52.567891242257375, 13.31193029694028",A21,nan
1049,19601049,"Schildow, Kirche",bus,"52.63581867397586, 13.377719168374458",A7,nan
1050,19601050,Schildower Strasse,bus,"52.617692355403776, 13.315814094976371",A12S,nan
1051,19601051,SchillingBrücke (Ostbahnhof),strassenbahn,"52.50956365130009, 13.429517625327765",1,nan
1052,19601052,Schillingstr.,u-bahn,"52.5203281262719, 13.421918670116558",E,Q552899
1053,19601053,Schillingstrasse,bus,"52.56595360108564, 13.320255053064429",A61,nan
1054,19601054,Schlachtensee,s-bahn,"52.4401,13.2153",KBS 104,Q800509
1055,19601055,Schlesisches Tor,u-bahn,"52.500833333333,13.441666666667","B II,B I",Q602282
1056,19601056,Schloss Glienicke,bus,"52.41321315212787, 13.096214143840962",A6,nan
1057,19601057,Schloss Ruhwald,bus,"52.521567840298836, 13.260569641184494",AS1,nan
1058,19601058,Schloss Ruhwald,strassenbahn,"52.52160139428261, 13.260396465216335","53,54",nan
1059,19601059,SchlossBrücke,bus,"52.52277864874118, 13.300093422040403",A65,nan
1060,19601060,SchlossStrasse,bus,"52.456909123066914, 13.320715400125325",A32,nan
1061,19601061,Schlossstrasse,bus,"52.46502319139203, 13.328512641123645",A2,nan
1062,19601062,Schlossstrasse,strassenbahn,"52.4649279288063, 13.328420834164818","74,78,44,73,77",nan
1063,19601063,Schlossstrasse Ecke Alt-Friedrichsfelde,bus,"52.50943477223745, 13.518813938774796","A8,A43,O37",nan
1064,19601064,Schlossstrasse Ecke Alt-Friedrichsfelde,strassenbahn,"52.50962902699515, 13.518687787679205","69,69E",nan
1065,19601065,"Schlossstrasse, Wilhelm-Schreiber-Platz",bus,"52.46497175478016, 13.328534991548652",AS2,nan
1066,19601066,Schloßstrasse Ecke Spandauer Damm,strassenbahn,"52.519450730147675, 13.295992115231417",60,nan
1067,19601067,Schmargendorf,s-bahn,"52.479672222222,13.312441666667",KBS 100,Q302810
1068,19601068,Schopenhauerstrasse,bus,"52.433980607704285, 13.212025322862429",A3,nan
1069,19601069,Schulenburgpark,strassenbahn,"52.466660612786704, 13.470292593214328","95,15",nan
1070,19601070,Schulstrasse,bus,"52.54642643480478, 13.359232857179148","A12,A12S",nan
1071,19601071,Schulzendorf (b Tegel),s-bahn,"52.6128,13.2462",KBS 105,Q800487
1072,19601072,Schulzendorfer Strasse,bus,"52.61057476279662, 13.295480649416259",A15,nan
1073,19601073,Schwartzkopffstr.,u-bahn,"52.535277777778,13.377222222222","C II,C I",Q554360
1074,19601074,Schwarzer Weg,strassenbahn,"52.47404160436518, 13.455540454175738",95,nan
1075,19601075,Schwedenstrasse,strassenbahn,"52.5566956,13.3732618",3,Q65767136
1076,19601076,Schwelmer Strasse,strassenbahn,"52.41218489799642, 13.299052814203694",96,nan
1077,19601077,Schwiezerhaus,bus,"52.46177834654878, 13.133492629933269",A34,nan
1078,19601078,Schöneberg,s-bahn,"52.4794,13.3517","KBS 100a,KBS 100,KBS 104",Q543855
1079,19601079,Schöneweide,s-bahn,"52.455,13.509444444444","KBS 103,KBS 100a,KBS 103a",Q111323931
1080,19601080,"Schönfließ, Kirche",bus,"52.65542824931846, 13.339252408377327",AN,nan
1081,19601081,Schönhauser Allee,s-bahn,"52.549329,13.413706","KBS 100,KBS 103a,KBS 100b,KBS 100c",Q111264493
1082,19601082,Schönhauser Allee,u-bahn,"52.549328888889,13.413706111111","A I,A II",Q47014936
1083,19601083,Schönholz,s-bahn,"52.5714,13.3814","KBS 105,KBS 104",Q800490
1084,19601084,Schützenstrasse,strassenbahn,"52.4518159507727, 13.320824351045882",44,nan
1085,19601085,Schüßlerplatz,strassenbahn,"52.44553303566032, 13.576935078888754","86,84,83",nan
1086,19601086,Sebastianfriedhof,bus,"52.571002500013684, 13.336360943589446",A61,nan
1087,19601087,SedanStrasse,bus,"52.451462388098534, 13.33534176193218",A32,nan
1088,19601088,Sedanstrasse,bus,"52.45143021733514, 13.335289250392284",A33,nan
1089,19601089,Seeburger Strasse,strassenbahn,"52.52919074855153, 13.195613280527734","75,76",nan
1090,19601090,Seegefelder Weg,bus,"52.549813200063646, 13.128679816115987",A63,nan
1091,19601091,Seehofstrasse,bus,"52.43283190806482, 13.264994537854385",A53,nan
1092,19601092,Seelenbinderstrasse,strassenbahn,"52.4554632,13.5769303",84,Q66324934
1093,19601093,Seestr.,u-bahn,"52.55056,13.35194","C II,C I",Q554391
1094,19601094,Seestrasse,bus,"52.55049580648446, 13.351890902404168",A64,nan
1095,19601095,Seidelstr. (Flugplatz Tegel),u-bahn,"52.571111111111,13.302777777778","C II,C I",Q557582
1096,19601096,Selchow,bus,"52.35758122167604, 13.471955883887944",AZ,nan
1097,19601097,Senefelderplatz,u-bahn,"52.53242,13.412743","A I,A II",Q32661454
1098,19601098,Seydlitzstrasse,strassenbahn,"52.43194337149705, 13.338145709235352",96,nan
1099,19601099,Siegfriestrasse,bus,"52.53435088055727, 13.499697796899122",O41,nan
1100,19601100,Siemensplatz,strassenbahn,"52.53383462771808, 13.282552661519206",55,nan
1101,19601101,Siemensstadt,s-bahn,"52.53923,13.26365","KBS 100d,KBS 100c",Q96080453
1102,19601102,Siemensstadt-Fürstenbrunn,s-bahn,"52.528,13.2695",KBS 103a,Q18747940
1103,19601103,Silbersteinstrasse,strassenbahn,"52.46723844998069, 13.438467144199928","26,47",nan
1104,19601104,Skalitzer Strasse,strassenbahn,"52.499266545091395, 13.427683785013587",88,nan
1105,19601105,Sonnenallee,s-bahn,"52.473,13.4558",KBS 100,Q481364
1106,19601106,Sonnenallee,strassenbahn,"52.48613359502478, 13.430239659364373",26,nan
1107,19601107,Sophie-Charlotte-Platz,u-bahn,"52.510833333333,13.296666666667","A I,B I",Q657879
1108,19601108,Sophie-Charlotten-Strasse,bus,"52.44594955353092, 13.267788405970709",A18,nan
1109,19601109,Spandau,s-bahn,"52.532, 13.2089","KBS 103,KBS 103a,KBS 101",Q800491
1110,19601110,Spandau West,s-bahn,"52.5347,13.1958","KBS 103,KBS 103a,KBS 101",Q111325678
1111,19601111,"Spandau, Friedhof",bus,"52.553136286584845, 13.179674445908985",A34,nan
1112,19601112,"Spandau, Johannesstift",strassenbahn,"52.567653498027326, 13.191830361576441",76,nan
1113,19601113,"Spandau, Markt",strassenbahn,"52.53784349532438, 13.204135429364628","75,54,76,55,53",nan
1114,19601114,Spandauer Damm,bus,"52.51838420899177, 13.280076964056246",A10,nan
1115,19601115,Spandauer Damm,strassenbahn,"52.51839517954807, 13.280375306388953",60,nan
1116,19601116,Spandauer Strasse,bus,"52.535940922541684, 13.156793426342295",A31,nan
1117,19601117,Spichernstr. (Bundesallee),u-bahn,"52.496388888889,13.330555555556","B II,A II",Q667046
1118,19601118,Spindlersfeld,s-bahn,"52.4472,13.5613",KBS 103a,Q4892371
1119,19601119,Spittelmarkt,strassenbahn,"52.511243321361405, 13.40494539543245","64,74,72",nan
1120,19601120,Spittelmarkt,u-bahn,"52.511111111111,13.403611111111","A I,A II",Q569489
1121,19601121,Spreewaldplatz,strassenbahn,"52.49792227545992, 13.430617008810609","2,26,88",nan
1122,19601122,St dtische Frauenklinik,strassenbahn,"52.465664066744466, 13.434206221880236",26,nan
1123,19601123,St enseeBrücke,strassenbahn,"52.508905514881846, 13.217438333440223",75,nan
1124,19601124,St lpchensee,bus,"52.409430239790396, 13.14381794619846",A18,nan
1125,19601125,Staaken,s-bahn,"52.5378,13.1414",KBS 101,Q477545
1126,19601126,Staakener Strasse,bus,"52.536487084911975, 13.190823566060091",A63,nan
1127,19601127,Stadion Buschallee,strassenbahn,"52.5566718,13.4869834",70,Q65504715
1128,19601128,Stadion Lichterfelde,bus,"52.43867922703144, 13.325050443019501",A17,nan
1129,19601129,Stadtmitte (Leipziger Str.),u-bahn,"52.5122,13.3894","C II,C I",Q660066
1130,19601130,Stadtmitte (Mohrenstr.),u-bahn,"52.5122,13.3894","A I,A II",Q660066
1131,19601131,Stadtpark,bus,"52.44890555557147, 13.338827669086982",A17,nan
1132,19601132,Stadtpark,strassenbahn,"52.45106715288867, 13.337967917367436",88,nan
1133,19601133,Stadtrandsiedlung,bus,"52.573369662221204, 13.56744978653018",A46,nan
1134,19601134,Stadtrandstrasse,bus,"52.553426999619965, 13.153585430700852",A5,nan
1135,19601135,Stahnsdorf,s-bahn,"52.38972222,13.19",KBS 104b,Q23787450
1136,19601136,Stalinallee,bus,"52.51715128685504, 13.440640767102789",O40,nan
1137,19601137,Stalinallee,s-bahn,"52.514166666667,13.474722222222","KBS 100,KBS 103a,KBS 100b,KBS 100c",Q111250033
1138,19601138,Stalinallee,strassenbahn,"52.51808306742478, 13.432938339097822",1,nan
1139,19601139,Stalinallee (Ringbahn),u-bahn,"52.514166666667,13.474722222222",E,Q552872
1140,19601140,Stegerwaldstrasse,bus,"52.42073935358918, 13.369265336797783",A32,nan
1141,19601141,Steglitz,s-bahn,"52.4562,13.3216",KBS 104,Q111264179
1142,19601142,Steglitzer Damm,bus,"52.45105449993721, 13.337974502579238",A2,nan
1143,19601143,Stephanplatz,bus,"52.533700234029276, 13.34712215648683",A66,nan
1144,19601144,Sterndamm,bus,"52.44658674940087, 13.506534865142585",A47,nan
1145,19601145,Steuerhaus,strassenbahn,"52.530493,13.4614989","69,64,69E,63",Q65553632
1146,19601146,StindeStrasse,bus,"52.44812122178611, 13.340103869265922",A32,nan
1147,19601147,Stolpe Süd,s-bahn,"52.63018,13.22333",KBS 105,Q19274514
1148,19601148,Stralauer Allee Ecke Markgrafendamm,strassenbahn,"52.49740745019046, 13.46463650693144",82,nan
1149,19601149,Strasse 393,bus,"52.54346134229288, 13.156333109553433",A63,nan
1150,19601150,Strasse des 17. Juni,bus,"52.51271130765139, 13.323003400102502",A2,nan
1151,19601151,Strasse nach Staatwinkel,bus,"52.561964827739885, 13.254588036270711",A13,nan
1152,19601152,Strasse nach Wartenberg,bus,"52.56866269126953, 13.520582099858125",A46,nan
1153,19601153,Strassenbahnhof Köpenick,strassenbahn,"52.4399134,13.5817824",83,Q66370900
1154,19601154,Strausberg,s-bahn,"52.531933,13.836933","KBS 101a,KBS 101",Q7622326
1155,19601155,Strausberg Nord,s-bahn,"52.5902,13.9084",KBS 101a,Q7622324
1156,19601156,Strausberg Stadt,s-bahn,"52.5766,13.8878",KBS 101a,Q7622325
1157,19601157,Strausberger Platz,u-bahn,"52.518055555556,13.430833333333",E,Q570999
1158,19601158,Stresowplatz,bus,"52.53362877636616, 13.206781830760963","A5,A31",nan
1159,19601159,StromStrasse,bus,"52.52632226250912, 13.34326443872038",A24,nan
1160,19601160,Stromstrasse,bus,"52.52631690374401, 13.343146315837002",A70,nan
1161,19601161,Stromstrasse,strassenbahn,"52.525392130952426, 13.342921518835107","35,44,2",nan
1162,19601162,Stubenrauchstrasse,strassenbahn,"52.42422390261997, 13.485461375958135",47,nan
1163,19601163,Stuttgarter Platz,bus,"52.50551610729052, 13.302923303561508",A21,nan
1164,19601164,Stuttgarter Platz,strassenbahn,"52.50566810519856, 13.306864497506904",60,nan
1165,19601165,Stölpchensee,bus,"52.41228329093362, 13.141800667623677",A3,nan
1166,19601166,Stössenseebrücke,strassenbahn,"52.508894368243524, 13.217475972829826",76,nan
1167,19601167,Sundgauer Str.,s-bahn,"52.436291,13.273772",KBS 104,Q800513
1168,19601168,Sundgauer Strasse,bus,"52.43838201264951, 13.271447959003352",A48,nan
1169,19601169,Sundgauer Strasse,bus,"52.4455796617832, 13.267631906214019","A3,AS3",nan
1170,19601170,Sven-Hedin-Strasse,bus,"52.44044491814346, 13.244750958691851",A53,nan
1171,19601171,Südende,s-bahn,"52.4481,13.3536",KBS 106,Q800511
1172,19601172,Südstern,bus,"52.488958649509335, 13.40781379557614",A28,nan
1173,19601173,Südstern,strassenbahn,"52.489200004098294, 13.407589825806399",2,nan
1174,19601174,Südstern,u-bahn,"52.489444444444,13.407777777778",C I,Q656081
1175,19601175,T rkenstrasse,bus,"52.55326868982377, 13.347158257015531",A64,nan
1176,19601176,Taubenstrasse,strassenbahn,"52.51306493755938, 13.391398735901545",72,nan
1177,19601177,"Tauernallee, Adlerm hle",bus,"52.42337464834511, 13.396185392179197",AS2,nan
1178,19601178,Tauroggener Strasse,strassenbahn,"52.525832421277336, 13.301928782162818",35,nan
1179,19601179,Tegel,s-bahn,"52.5886,13.2894",KBS 105,Q800493
1180,19601180,Tegel,u-bahn,"52.58944,13.28389","C II,C I",Q656090
1181,19601181,Tegelort,bus,"52.5705390073051, 13.231220862666484",A20,nan
1182,19601182,Teichstrasse,bus,"52.57435884050963, 13.34777330742025",A61,nan
1183,19601183,Teltow,s-bahn,"52.388056,13.299444",KBS 106,Q7697868
1184,19601184,"Teltow, Paul-Gerhardt-Strasse",strassenbahn,"52.41175171527543, 13.297893346256327",96,nan
1185,19601185,Teltower Damm,bus,"52.43504474561002, 13.2604425311939","A10,A48,A53",nan
1186,19601186,Teltower Strasse,bus,"52.52691807826059, 13.215807069988056","A5,A31,AS1",nan
1187,19601187,Teltower Strasse,strassenbahn,"52.52691412538678, 13.215987693499372","53,54",nan
1188,19601188,Tempelhof,s-bahn,"52.4708,13.3854","KBS 100a,KBS 100",Q111264368
1189,19601189,Tempelhof (Südring),u-bahn,"52.47075,13.385361111111",C II,Q3983109
1190,19601190,Tempelhofer Damm,bus,"52.48422430539437, 13.385891408286207","A25,A24",nan
1191,19601191,Tempelhofer Damm,strassenbahn,"52.46584374970472, 13.385470187093661",6,nan
1192,19601192,Tempelhofer Weg,strassenbahn,"52.448900802776095, 13.436210910779328",27,nan
1193,19601193,Thielallee/Pacelliallee,bus,"52.458161495962216, 13.28707254649315",A68,nan
1194,19601194,Thielplatz,u-bahn,"52.451111111111,13.282222222222","B II,A II",Q571331
1195,19601195,Thorwaldsenstrasse,strassenbahn,"52.46136534165126, 13.345121264246712",66,nan
1196,19601196,Thuner Platz,bus,"52.42375896990032, 13.296184869051308",A53,nan
1197,19601197,Thälmannplatz,u-bahn,"52.51167,13.38472","A I,A II",Q658391
1198,19601198,Tiergarten,s-bahn,"52.5144,13.3365","KBS 103,KBS 102,KBS 101",Q572112
1199,19601199,Tiergartenstrasse,bus,"52.50960312444174, 13.351320889801638","A16,A69,A24",nan
1200,19601200,Tierpark Berlin,strassenbahn,"52.50297204519277, 13.520916474066839","69,69E",nan
1201,19601201,Tor 5,bus,"52.58357682284558, 13.320522582904216",A15,nan
1202,19601202,Traegerstrasse,strassenbahn,"52.476296219875636, 13.341188525686016",66,nan
1203,19601203,"Treptow, Flutgraben",strassenbahn,"52.49652089552196, 13.450211854195379",92,nan
1204,19601204,"Treptow, Rathaus",bus,"52.48358899866382, 13.480324760498638",A47,nan
1205,19601205,Treptower Park,s-bahn,"52.4938,13.4618","KBS 103,KBS 100,KBS 103a",Q559274
1206,19601206,Treskowallee Ecke Ehrlichstrasse,strassenbahn,"52.4789566,13.5234316",82,Q65951921
1207,19601207,Triftstrasse,bus,"52.54479384581092, 13.361911169867636",A64,nan
1208,19601208,Triftweg,bus,"52.431024618021745, 13.45739670616807",A52,nan
1209,19601209,Trippsteinstrasse,bus,"52.41893958981137, 13.346149658204126","A11,A2",nan
1210,19601210,TurmStrasse,bus,"52.52628495236362, 13.343149398961996",A16,nan
1211,19601211,Turmstrasse,bus,"52.52639995421508, 13.35171729538701",A66,nan
1212,19601212,Turmstrasse,strassenbahn,"52.52637,13.34044",25,Q121907140
1213,19601213,Turmstrasse/Rathenower Strasse,bus,"52.52677998083022, 13.355183467556872",A70,nan
1214,19601214,U-Bhf Kottbusser Tor,bus,"52.499051258453434, 13.418359009880978",A28,nan
1215,19601215,U-Bhf. Boddinstrasse,bus,"52.48028651973042, 13.425279574612379",A4,nan
1216,19601216,U-Bhf. Boddinstrasse,strassenbahn,"52.48027865367161, 13.4251690465859",27,nan
1217,19601217,U-Bhf. Bülowstrasse,bus,"52.49787469517453, 13.362124599310649",A48,nan
1218,19601218,U-Bhf. Bülowstrasse,strassenbahn,"52.4977947071403, 13.362041491653272","74,73,88",nan
1219,19601219,U-Bhf. Dahlem-Dorf,bus,"52.45807069736877, 13.289706947871178",A68,nan
1220,19601220,U-Bhf. Dimitroffstrasse,strassenbahn,"52.5401928,13.4113979","46E,70,4,49,22,13,46",Q65088313
1221,19601221,U-Bhf. Ernst-Reuter-Platz,bus,"52.51164603099566, 13.322290858670174","A62,A25,AS1,A2",nan
1222,19601222,U-Bhf. Ernst-Reuter-Platz,strassenbahn,"52.511726576083134, 13.32260139821175","6,25,44,2,54,55",nan
1223,19601223,U-Bhf. Fehrbelliner Platz,bus,"52.490390927187676, 13.31417745809863","A1,AS3,A4,A21",nan
1224,19601224,U-Bhf. Flughafen,bus,"52.48488595983176, 13.38599654703171","A4,A19",nan
1225,19601225,U-Bhf. Flughafen,strassenbahn,"52.484779980367215, 13.385962227231367","99,95,98",nan
1226,19601226,U-Bhf. Friedrichsfelde,bus,"52.50624112361932, 13.512853060220209","A8,A43",nan
1227,19601227,U-Bhf. Gesundbrunnen,bus,"52.548660755358114, 13.387873629581087",A14,nan
1228,19601228,U-Bhf. Grenzallee,bus,"52.46369510254238, 13.444231731166557",A67,nan
1229,19601229,U-Bhf. Grenzallee,strassenbahn,"52.46348178875844, 13.444377273631815","6,47",nan
1230,19601230,U-Bhf. Hallesches Tor,bus,"52.497910015148264, 13.391307667735301",A24,nan
1231,19601231,U-Bhf. Heidelberg Platz,bus,"52.48042873572808, 13.31278632857391",A65,nan
1232,19601232,U-Bhf. Heidelberger Platz,bus,"52.48006162214815, 13.312159920359697",A60,nan
1233,19601233,U-Bhf. Kaiserdamm,bus,"52.50999451351762, 13.28180313022396","A10,A65",nan
1234,19601234,U-Bhf. Kochstrasse,strassenbahn,"52.50671104890453, 13.39050917018471",88,nan
1235,19601235,U-Bhf. Kottbusser Tor,bus,"52.499122758255055, 13.4182411702772",A67,nan
1236,19601236,U-Bhf. Krumme Lanke,bus,"52.44308074990891, 13.24046555211665",A3,nan
1237,19601237,U-Bhf. Kurt-Schumacher-Platz,bus,"52.56338157214657, 13.32719915637487","A62,A64,A61",nan
1238,19601238,U-Bhf. Leinestrasse,strassenbahn,"52.473591021401894, 13.428015562483331",27,nan
1239,19601239,U-Bhf. Leopoldplatz,bus,"52.54638728410018, 13.359182634014466",A64,nan
1240,19601240,U-Bhf. Moritzplatz,strassenbahn,"52.503642228347914, 13.410708942561621",88,nan
1241,19601241,U-Bhf. Neanderstrasse,strassenbahn,"52.511034507689814, 13.41638558442145",64,nan
1242,19601242,U-Bhf. Neukölln,strassenbahn,"52.46965567921364, 13.441614939772098","47,15",nan
1243,19601243,U-Bhf. Onkel-Toms-H tte,bus,"52.450068186477765, 13.251215083296572",A3,nan
1244,19601244,U-Bhf. Oskar-Helene-Heim,bus,"52.450279005868815, 13.270361987159156","A3,AS3,A18,A11,A1",nan
1245,19601245,U-Bhf. Paradesstrasse,bus,"52.478191637509916, 13.385831195383249",A65,nan
1246,19601246,U-Bhf. Paradestrasse,strassenbahn,"52.478209745217, 13.385797973983829",98,nan
1247,19601247,U-Bhf. Prinzenstrasse,bus,"52.49844153838657, 13.406643837212261",A28,nan
1248,19601248,U-Bhf. Reuter-Platz,strassenbahn,"52.51159848537007, 13.322566719414151",53,nan
1249,19601249,U-Bhf. Ruhleben,bus,"52.52596833151868, 13.241478578696297","A5,A31,AS1",nan
1250,19601250,U-Bhf. Ruhleben,strassenbahn,"52.52595776615238, 13.241371866188729","53,54",nan
1251,19601251,U-Bhf. Rüdesheimer Platz,bus,"52.4720831087791, 13.314909778144818",A17,nan
1252,19601252,"U-Bhf. Scharnweberstrasse, Sportplatz",bus,"52.56792223040469, 13.311949805424875",A61,nan
1253,19601253,U-Bhf. Schlesisches Tor,bus,"52.50108419874335, 13.441971259873345",A28,nan
1254,19601254,U-Bhf. Seestrasse,bus,"52.550315408708514, 13.352298502985231","A16,A12,A12S,A64",nan
1255,19601255,U-Bhf. Spichernstrasse,bus,"52.49661912400034, 13.330712965202862","A25,A2",nan
1256,19601256,U-Bhf. Strausberger Platz,strassenbahn,"52.51808306742478, 13.432938339097822",1,nan
1257,19601257,U-Bhf. Südstern,strassenbahn,"52.48899443353793, 13.40800672025058",3,nan
1258,19601258,U-Bhf. Tegel,bus,"52.589503132547385, 13.283630715732999","A13,A15,A20,A14",nan
1259,19601259,U-Bhf. Tempelhof,strassenbahn,"52.465913635809336, 13.385525190230428",96,nan
1260,19601260,U-Bhf. Thielplatz,bus,"52.45104520805668, 13.281736418792137",A10,nan
1261,19601261,U-Bhf. Vinestrasse,strassenbahn,"52.5596168,13.413232",22,Q65075426
1262,19601262,U-Bhf. Vinetastrasse,bus,"52.55981894046453, 13.413208628380339",A7,nan
1263,19601263,U-Bhf. Vinetastrasse,strassenbahn,"52.5596168,13.413232","49,46E,46",Q65075426
1264,19601264,Uckermarkstrasse,bus,"52.52145144349922, 13.596724604247981",A49,nan
1265,19601265,Uhlandstrasse,bus,"52.49368292097469, 13.323611381015645",A50,nan
1266,19601266,Uhlandstrasse,bus,"52.50252020955797, 13.325204349014482","A66,A69,A29",nan
1267,19601267,Uhlenhorst,strassenbahn,"52.468276850494775, 13.5867542618861","86,83",nan
1268,19601268,Ulmenstrasse,bus,"52.48730877811447, 13.574932033917504",A27,nan
1269,19601269,Under den Eichen,bus,"52.44564069754048, 13.293802457130425",A11,nan
1270,19601270,Unionplatz,bus,"52.533059397499464, 13.337278814540305",A25,nan
1271,19601271,Unter den Linden,s-bahn,"52.516388888889,13.380833333333","KBS 105,KBS 106,KBS 104",Q477185
1272,19601272,Urban-Krankenhaus,strassenbahn,"52.493170013997506, 13.407958861404088",95,nan
1273,19601273,Urban-Krankenhause,bus,"52.493469358698874, 13.406245116325284",A28,nan
1274,19601274,Usedomer Strasse,bus,"52.541120501957316, 13.393769565044664",A71,nan
1275,19601275,Velten (Mark),s-bahn,"52.685,13.172222",KBS 105,Q19274518
1276,19601276,Verwaltungs-Gebäude,bus,"52.537063326963775, 13.262285169635492",A10,nan
1277,19601277,Vetschauer Allee,strassenbahn,"52.3864124,13.633786",86,Q66459670
1278,19601278,Viersener Strasse,bus,"52.54020417705652, 13.17462661157195",A63,nan
1279,19601279,Viersener Strasse,bus,"52.54873823655914, 13.17802517662475",A5,nan
1280,19601280,Viktoria-Luise-Platz,u-bahn,"52.496161111111,13.342702777778",B III,Q178685
1281,19601281,Virchow-Krankenhaus,bus,"52.54371513062133, 13.339317916518894",A16,nan
1282,19601282,Vogelsang,bus,"52.45939482396207, 13.280296976660761",A68,nan
1283,19601283,Vollkropfgraben,strassenbahn,"52.4386665,13.5714889",86,Q66493847
1284,19601284,Voltastr.,u-bahn,"52.542093,13.393022",D,Q663308
1285,19601285,Voltastrasse,strassenbahn,"52.541478016132466, 13.389258272917548",2,nan
1286,19601286,Waidmannslust,s-bahn,"52.6064,13.321",KBS 104,Q800492
1287,19601287,Waldemarstrasse,bus,"52.50326279588436, 13.420631417701001",A28,nan
1288,19601288,Walderseestrasse,bus,"52.575655932178144, 13.228965833395124",A20,nan
1289,19601289,Waldesruh,bus,"52.48487246674627, 13.628942223225485",A8,nan
1290,19601290,Waldfriedhof,bus,"52.42599572508999, 13.209246048971062",A18,nan
1291,19601291,Waldkrankenhaus,bus,"52.56214542863615, 13.158340085815741",A5,nan
1292,19601292,Waldschänke,bus,"52.443318139967566, 13.68593963431219",A22,nan
1293,19601293,Waldstrasse,bus,"52.5289058489127, 13.330853260683844",A1,nan
1294,19601294,Waldstrasse Ecke Waidmannslust,bus,"52.60193428053164, 13.306047505406614",A20,nan
1295,19601295,Waldstrasse/Gotzkowskystrasse,bus,"52.52721622390326, 13.330524512340718",A70,nan
1296,19601296,Walter-Ulbricht-Stadion,strassenbahn,"52.535963327585435, 13.376321651970404",69,nan
1297,19601297,Waltersdorf,bus,"52.36492901110609, 13.555712408051676",A38,nan
1298,19601298,Waltersdorfer Chaussee (Spinne),bus,"52.394164684841336, 13.521784916658106",AD/36,nan
1299,19601299,Waltersforder Chaussee (Spinne),bus,"52.392853002264665, 13.522677096747554",AZ,nan
1300,19601300,Wannsee,bus,"52.42192223789253, 13.17584115774181",Wannsee<>Kladow (Betrieb durch Stern und Kreisschiffahrt),nan
1301,19601301,Wannsee,s-bahn,"52.4214,13.1792","KBS 104b,KBS 102,KBS 104",Q111325896
1302,19601302,Warnem nder Strasse,bus,"52.47539576569938, 13.290488880070722",A17,nan
1303,19601303,Warnem nder/Berkaer Strasse,bus,"52.47539682813685, 13.290437797038999",A60,nan
1304,19601304,Warschauer Brücke,u-bahn,"52.5051,13.4491","B II,B I",Q18380174
1305,19601305,Warschauer Str.,s-bahn,"52.506416666667,13.450955555556","KBS 100c,KBS 103,KBS 101,KBS 100b,KBS 102",Q111252298
1306,19601306,Warschauer Strasse,bus,"52.512432267445355, 13.452598837307189",O30,nan
1307,19601307,Warschauer Strasse,strassenbahn,"52.50502,13.44863",82,Q63490275
1308,19601308,Wartburgplatz,strassenbahn,"52.48753778413099, 13.34501784267965",25,nan
1309,19601309,"Wartenberg, Dorfstrasse",bus,"52.57484089632958, 13.518020972979759",A39,nan
1310,19601310,"Wartenberg, Siedlung",bus,"52.58393195902164, 13.53076033685478",A39,nan
1311,19601311,"Waßmannsdorf, Warteh.",bus,"52.37269773285082, 13.465032652682668",AZ,nan
1312,19601312,Wedding,s-bahn,"52.5425,13.3661","KBS 100,KBS 103a,KBS 100c",Q638604
1313,19601313,Weddingplatz,bus,"52.54113612364086, 13.368501029385115","A70,A12,A12S",nan
1314,19601314,Weddingplatz,strassenbahn,"52.54152535588228, 13.369198549039789","35,25,2",nan
1315,19601315,Weichselstrasse,strassenbahn,"52.48313752772782, 13.431480309407663","26,47",nan
1316,19601316,"WeidendammBrücke, Bhf. Friedrichstrasse",strassenbahn,"52.52168602376861, 13.388097732360343","70,1,46",nan
1317,19601317,Weinmeisterhornweg,bus,"52.50924681744358, 13.180314851039075","A34,A35",nan
1318,19601318,Weinmeisterhornweg,bus,"52.511043998847086, 13.171645488962428",A13,nan
1319,19601319,Weinmeisterstr.,u-bahn,"52.525833333333,13.403888888889",D,Q661876
1320,19601320,"Weißensee, Feldtmannstrasse",bus,"52.564009383174366, 13.469819807860086",A56,nan
1321,19601321,"Weißensee, Liebermannstrasse Ecke Piesporter Strasse",bus,"52.56102399602114, 13.477459977323056",A55,nan
1322,19601322,"Weißensee, Pasedagplatz",strassenbahn,"52.5594027,13.4609594",72,Q65954665
1323,19601323,"Weißensee, Rennbahnstrasse Ecke Gustav-Adolf-Strasse",bus,"52.56218648050474, 13.454267038723398",A55,nan
1324,19601324,"Weißensee, Schwarzelfenweg",bus,"52.566620142161746, 13.464140428405006",A45,nan
1325,19601325,Weißenseer Weg,bus,"52.53303479533508, 13.476121708352885",O41,nan
1326,19601326,Weißenseer Weg,strassenbahn,"52.532258,13.476705","64,63",Q65942700
1327,19601327,Wendenschloß Ecke Ekhofstrasse,strassenbahn,"52.41633000736971, 13.589690772826726",83,nan
1328,19601328,Wentowsteig,bus,"52.59694371557204, 13.360462949429833",A21,nan
1329,19601329,Wernerwerk,s-bahn,"52.534863,13.27599","KBS 100d,KBS 100c",Q96077001
1330,19601330,Westend,s-bahn,"52.5181,13.2844","KBS 100,KBS 100c",Q323214
1331,19601331,Westkreuz,s-bahn,"52.5011,13.2839","KBS 100c,KBS 103,KBS 101,KBS 100,KBS 102",Q678125
1332,19601332,"Weverstrasse, Strassenbahnhof",strassenbahn,"52.51946975407937, 13.19781896484702","75,76",nan
1333,19601333,Wicherstrasse,bus,"52.54871619453036, 13.420715020754026",A56,nan
1334,19601334,Wichmannstrasse,bus,"52.506628876773426, 13.345693889047093",A66,nan
1335,19601335,"Wie ensee, Pasedagplatz",strassenbahn,"52.5594027,13.4609594",74,Q65954665
1336,19601336,Wiebestrasse,bus,"52.53119512537686, 13.319063771537584",A24,nan
1337,19601337,Wiebestrasse,strassenbahn,"52.52581092392458, 13.318056678375148",3,nan
1338,19601338,"Wiebestrasse, Strassenbahnhof",bus,"52.53066666255053, 13.319314794959219",A70,nan
1339,19601339,Wiebestrasse/Huttenstrasse,strassenbahn,"52.528377524398394, 13.319408967722172",35,nan
1340,19601340,Wiener Brücke,strassenbahn,"52.49588477409083, 13.43650068505988","87,88",nan
1341,19601341,Wiesbadener Strasse,bus,"52.47164544021605, 13.319516803491332",A16,nan
1342,19601342,Wiesenbaude,bus,"52.430495242672045, 13.31180861060395",A11,nan
1343,19601343,Wiesenbaude,strassenbahn,"52.43330952304924, 13.307272184416341","74,73",nan
1344,19601344,Wiesenstrasse,bus,"52.54763571080132, 13.373871074090278",A70,nan
1345,19601345,Wildau,s-bahn,"52.32,13.634",KBS 103,Q8000974
1346,19601346,Wildmeisterdamm,bus,"52.425839839495815, 13.48325607958456",A52,nan
1347,19601347,Wildmeisterdamm,strassenbahn,"52.426124062490864, 13.48276594555747",47,nan
1348,19601348,Wilhelminenhof- Ecke Edisonstrasse,strassenbahn,"52.4619496,13.5139049",82,Q65951882
1349,19601349,Wilhelminenhofstrasse,strassenbahn,"52.460837970970566, 13.521054382869073","69,69E",nan
1350,19601350,Wilhelminenhofstrasse Ecke Edisonstrasse,strassenbahn,"52.4619496,13.5139049",87,Q65951882
1351,19601351,"Wilhelminenhofstrasse, Edisonstrasse",strassenbahn,"52.4619496,13.5139049",95,Q65951882
1352,19601352,Wilhelmshagen,s-bahn,"52.4386,13.7222",KBS 102,Q800494
1353,19601353,Wilhelmsruh,s-bahn,"52.5814,13.3631",KBS 104,Q800495
1354,19601354,"Wilhelmsruh, Fontanestrasse",bus,"52.58985938767378, 13.361193570257216","A45,A55",nan
1355,19601355,Wilhelmstrasse,bus,"52.43057879952989, 13.318592903820731",A17,nan
1356,19601356,Wilhelmstrasse Ecke Pichelsdorferstrasse,bus,"52.52799171469617, 13.19527000737161","A34,A35",nan
1357,19601357,Wilmersdorf,s-bahn,"52.477658333333,13.328525","KBS 100a,KBS 100",Q464094
1358,19601358,Wilmersdorfer Strasse,bus,"52.499967660537735, 13.306987838785277","A66,A69,A19,A29",nan
1359,19601359,Wilmersdorfer Strasse,strassenbahn,"52.506692000645316, 13.306692426875525","44,75,76",nan
1360,19601360,Winfriedstrasse,bus,"52.437562011852606, 13.269450173477841",AS3,nan
1361,19601361,Winifriedstrasse,bus,"52.43922811177887, 13.262911865460357",A3,nan
1362,19601362,Wintersteinstrasse,strassenbahn,"52.51803433122661, 13.30642871226906",6,nan
1363,19601363,Wismarer Strasse,bus,"52.42195191841697, 13.2985053942209",A1,nan
1364,19601364,Wismarer Strasse,strassenbahn,"52.417896574609436, 13.305198099285986",96,nan
1365,19601365,Wismarer Strasse,strassenbahn,"52.42195291492597, 13.29850599537737",77,nan
1366,19601366,Wittenau,bus,"52.596084138285406, 13.332857679505645",A62,nan
1367,19601367,Wittenau (Kremmener Bahn),s-bahn,"52.597013,13.334329",KBS 105,Q111264319
1368,19601368,Wittenau (Nordbahn),s-bahn,"52.597013,13.334329",KBS 104,Q111264319
1369,19601369,Wittenbergplatz,bus,"52.50188939146253, 13.342697883756577","A62,A60,A29,A19,A69",nan
1370,19601370,Wittenbergplatz,strassenbahn,"52.50185025953713, 13.343098350806866","6,25,78,2,77,54,55,53",nan
1371,19601371,Wittenbergplatz,u-bahn,"52.501944444444,13.343055555556","B II,A I,B I,A II",Q692727
1372,19601372,Witzleben,s-bahn,"52.5078,13.2836","KBS 100,KBS 100c",Q321266
1373,19601373,Wolburgsweg,bus,"52.550616013150325, 13.16810722103831",A5,nan
1374,19601374,Wollankstr.,s-bahn,"52.5651525,13.3923627","KBS 105,KBS 104",Q800515
1375,19601375,Wolliner Strasse,bus,"52.53982922743302, 13.401577799029111",A71,nan
1376,19601376,Wolliner Strasse,strassenbahn,"52.5399996,13.4020564","25,2",Q65719652
1377,19601377,Wolzogenstrasse,bus,"52.43229985926568, 13.235719207112487",A18,nan
1378,19601378,Wuhlheide,s-bahn,"52.4689,13.5533",KBS 102,Q800514
1379,19601379,Yorckstr.,s-bahn,"52.491777777778,13.372141666667","KBS 105,KBS 106",Q21776729
1380,19601380,Yorckstrasse,bus,"52.49358813377981, 13.384967556749217",A28,nan
1381,19601381,Yorckstrasse,strassenbahn,"52.492901206042376, 13.387766831697483",99,nan
1382,19601382,Yorckstrasse/Gneisenaustrasse,strassenbahn,"52.492962048633196, 13.387727495303821",98,nan
1383,19601383,Zabel-Krüger-Damm,bus,"52.60786610541416, 13.323845802997752","A12,A12S",nan
1384,19601384,Zappoter/Oeynhauser Strasse,bus,"52.47331132628728, 13.298669291589876",A60,nan
1385,19601385,Zehlendorf,s-bahn,"52.4309,13.2584","KBS 104a,KBS 104",Q737962
1386,19601386,Zentralschule,bus,"52.43465069286089, 13.703692212644038",A22,nan
1387,19601387,Zentralviehhof,s-bahn,"52.5238,13.4644","KBS 100,KBS 103a,KBS 100b,KBS 100c",Q800512
1388,19601388,Zepernick (Kr Niederbarnim),s-bahn,"52.6598,13.5342",KBS 106,Q801657
1389,19601389,Zeuthen,s-bahn,"52.3486,13.6274",KBS 103,Q8069824
1390,19601390,"Ziegenhals, VA Dienststelle",bus (Umlandlinie),"52.3470916280972, 13.664196000865504",Schmöckwitz<>Ziegenhals (VEB Kraftverkehr Schöneiche-Rüdersdorf),nan
1391,19601391,Ziekowstrasse,bus,"52.59059426195262, 13.292011153010927",A14,nan
1392,19601392,Zitadellenweg,strassenbahn,"52.5377758132997, 13.217204249093342",55,nan
1393,19601393,ZobeltitzStrasse,bus,"52.56898257894375, 13.317202802475165",A61,nan
1394,19601394,Zoologischer Garten,s-bahn,"52.507222222222,13.3325","KBS 103,KBS 102,KBS 101",Q111326238
1395,19601395,Zoologischer Garten,u-bahn,"52.5058669,13.3330236","A I,B I",Q4024764
1396,19601396,Zossener Strasse,bus,"52.49160676567746, 13.394443897793668",A28,nan
1397,19601397,Zum Heckeshorn,bus,"52.43307505069834, 13.164008736441371",A51,nan
1398,19601398,ZweiBrücker Strasse,bus,"52.54677409100436, 13.188764018875105",A63,nan
