,line_id,stop_name,stop_order,stop_id
0,19561,Schillingbrücke (Ostbahnhof),0,1956944
1,19561,Stalinallee,1,19561026
2,19561,Leninplatz,2,1956628
3,19561,"Leninallee, Kleine Frankfurterstrasse",3,1956625
4,19561,"Alexanderplatz, Memhardstr.",4,195611
5,19561,"Gipsstrasse, U-Bhf. Weinmeisterstrasse",5,1956359
6,19561,Rosenthaler Platz,6,1956891
7,19561,Brunnen Ecke Invalidenstrasse,7,1956204
8,19561,Invalidenstrasse Ecke Chausseestrasse,8,1956497
9,19561,Oranienburger Tor,9,1956754
10,19561,"Weidendammbrücke, Bhf. Friedrichstrasse",10,19561179
11,19561,Am Kupfergraben,11,195635
12,19562,"Wienerstrasse, Spreewaldplatz",0,19561201
13,19562,Hermannplatz,1,1956446
14,19562,Südstern,2,19561055
15,19562,Mehringdamm,3,1956695
16,19562,Goebenstrasse Ecke Bülowstrasse,4,1956369
17,19562,Nollendorfplatz,5,1956732
18,19562,Wittenbergplatz,6,19561227
19,19562,Bhf. Zoo,7,1956166
20,19562,Am Knie,8,195634
21,19562,Gotzkowskystrasse Ecke Turmstrasse,9,1956378
22,19562,Turmstrasse Ecke Rathenowerstrasse,10,19561088
23,19562,Fennbrücke,11,1956311
24,19562,Weddingplatz,12,19561175
25,19562,Usedomerstrasse,13,19561151
26,19562,Bernauerstrasse Ecke Wollinerstrasse,14,1956100
27,19563,Mühlenstrasse,0,1956713
28,19563,Bhf. Warschauer Brücke,1,1956156
29,19563,Boxhagener Strasse,2,1956192
30,19563,"Bhf. Stalineallee, Gürtelstrasse",3,1956148
31,19563,Rathaus Lichtenberg,4,1956842
32,19563,Roederplatz,5,1956883
33,19563,Landsberger Chaussee Ecke Weißenseer Weg,6,1956607
34,19563,Hohenschönhauser Strasse,7,1956471
35,19563,Klement-Gottwald-Allee/Lichtenberger Strasse,8,1956547
36,19563,Antonplatz,9,195647
37,19563,Prenzlauer Promenade Ecke Gustav-Adolf-Strasse,10,1956822
38,19563,Schönhauser Allee,11,1956973
39,19563,Björnsonstrasse,12,1956178
40,19564,"Neukölln, Hermannplatz",0,1956725
41,19564,Südstern,1,19561055
42,19564,Zosener Strasse Ecke Gneisenaustrasse,2,19561251
43,19564,Mehringdamm,3,1956695
44,19564,Potsdamer Strasse,4,1956813
45,19564,Martin-Luther-Strasse,5,1956688
46,19564,Bundesallee Ecke Berliner Strasse,6,1956220
47,19564,Fehrbelliner Platz,7,1956308
48,19564,Kurfürstendamm Ecke Brandenburgischestrasse,8,1956572
49,19564,Kantstrasse Ecke Wilmersdorfer Strasse,9,1956523
50,19564,Wilmersdorferstrasse Ecke Berliner Strasse,10,19561220
51,19564,Luisenplatz,11,1956656
52,19564,Osnabrückerstrasse Ecke Tauroggenerstrasse,12,1956767
53,19564,Gotzkowskystrasse Ecke Turmstrasse,13,1956378
54,19564,Plötzensee,14,1956804
55,19564,U-Bhf. Seestrasse,15,19561129
56,19564,Oskarplatz,16,1956761
57,19564,Prinzenallee Ecke Osloer Strasse,17,1956829
58,19564,Grüntalerstrasse Ecke Osloer Strasse,18,1956404
59,19565,Mühlenstrasse,0,1956713
60,19565,Bhf. Warschauer Brücke,1,1956156
61,19565,Grünberger Strasse,2,1956401
62,19565,Frankfurter Tor/Stalinallee,3,1956321
63,19565,Bersarinplatz,4,1956101
64,19565,Leninallee,5,1956621
65,19565,Paul-Heyse-Strasse,6,1956798
66,19565,Arnswalder Platz,7,195649
67,19565,Greifswalder Strasse,8,1956387
68,19565,Prenzlauer Allee,9,1956821
69,19565,U-Bhf. Dimitroffstrasse,10,19561097
70,19565,Oderberger Strasse,11,1956746
71,19566,Bhf. Zoo,0,1956166
72,19566,Wittenbergplatz,1,19561227
73,19566,Grunewaldstrasse Ecke Martin-Luther-Strasse,2,1956397
74,19566,Rathaus Schöneberg,3,1956847
75,19566,Hauptstrasse,4,1956423
76,19566,Alboinstrasse Ecke Schönebergerstrasse,5,19565
77,19566,Tempelhofer Damm Ecke Alt-Tempelhof,6,19561071
78,19566,Oberlandstrasse Ecke Germaniastrasse,7,1956741
79,19566,Gottlieb-Dunkel-Strasse Ecke Germaniastrasse,8,1956374
80,19566,Britzer Damm Ecke Blaschkoallee,9,1956200
81,19566,Buschkrug,10,1956225
82,19566,U-Bhf. Grenzallee,11,19561106
83,19566,U-Bhf. Neukölln,12,19561117
84,19566,U-Bhf. Rathaus Neukölln,13,19561122
85,19566,Elsenstrasse Ecke Heidelbergerstrasse,14,1956290
86,19567,Köpenicker Strasse Ecke Adalbertstrasse,0,1956604
87,19567,U-Bhf. Neanderstrasse,1,19561116
88,19567,Bhf. Jannowitzbrücke,2,1956122
89,19567,"Alexanderplatz, Memhardstrasse",3,195612
90,19567,U-Bhf. Weinmeisterstrasse,4,19561135
91,19567,Rosenthaler Platz,5,1956891
92,19567,Brunnen Ecke Invalidenstrasse,6,1956204
93,19567,Invalidenstrasse Ecke Chausseestrasse,7,1956497
94,19567,Oranienburger Tor,8,1956754
95,19567,Hannoversche Strasse,9,1956420
96,19568,"Klingenberg, Blockdammweg",0,1956548
97,19568,Kraftwerk Klingenberg,1,1956564
98,19568,"Saganerstrasse, Güterbahn",2,1956938
99,19568,"Klingenberg, Hauptstrasse",3,1956549
100,19568,Holteistrasse,4,1956477
101,19568,Boxhagener Strasse,5,1956192
102,19568,Frankfurter Tor/Stalinallee,6,1956321
103,19568,Bersarinplatz,7,1956101
104,19568,Leninallee,8,1956621
105,19568,Paul-Heyse-Strasse,9,1956798
106,19568,Arnswalder Platz,10,195649
107,19568,Greifswalder Strasse,11,1956387
108,19568,Prenzlauer Allee,12,1956821
109,19568,U-Bhf. Dimitroffstrasse,13,19561097
110,19568,Oderberger Strasse,14,1956746
111,19569,Daimlerstrasse,0,1956250
112,19569,Bhf. Marienfelde,1,1956136
113,19569,Mariendorfer Damm Ecke Alt-Mariendorf,2,1956678
114,19569,Imbrosweg,3,1956487
115,19569,Mariendorfer Friedhof,4,1956679
116,19569,Industriestrasse,5,1956489
117,19569,Germaniastrasse Ecke Gottlieb-Dunkel-Strasse,6,1956354
118,19569,Frauenklinik,7,1956323
119,19569,Hermannstrasse Ecke Hertastrasse,8,1956449
120,19569,U-Bhf. Neukölln,9,19561117
121,19569,Richardstrasse,10,1956875
122,19569,Bhf. Sonnenallee,11,1956144
123,19569,Dammweg,12,1956252
124,19569,Schulenburgpark,13,1956960
125,195610,Bhf. Rosenthal,0,1956140
126,195610,"Rosenthal, Siedlung",1,1956889
127,195610,Nordendstrasse,2,1956739
128,195610,Kurt-Fischer-Platz,3,1956580
129,195610,"Breite Strasse, Pankow, Rathaus",4,1956194
130,195610,"Pankow, Kirche",5,1956781
131,195610,"S-Bhf. Pankow, Florastrasse",6,1956923
132,195610,U-Bhf. Vinetastrasse,7,19561134
133,195610,S-Bhf. Schönhauser Allee,8,1956929
134,195610,"Eberswalderstrasse, U-Bhf. Dimitroffstrasse",9,1956275
135,195610,Zionskirchstrasse,10,19561248
136,195610,Rosenthaler Platz,11,1956891
137,195610,Memhardtstrasse Ecke Liebknechtstrasse,12,1956700
138,195610,"Alexanderplatz, Grunerstrasse",13,19569
139,195610,Elisabethstrasse,14,1956288
140,195611,Bhf. Wollankstrasse,0,1956161
141,195611,Osloer Strasse Ecke Prinzenallee,1,1956762
142,195611,Badstrasse Ecke Prinzenallee,2,195663
143,195611,Nettelbeckplatz,3,1956717
144,195611,Weddingplatz,4,19561175
145,195611,Fennbrücke,5,1956311
146,195611,Augustenburger Platz,6,195655
147,195611,Birkenstrasse Ecke Pulitzstrasse,7,1956170
148,195611,Stromstrase Ecke Turmstrasse,8,19561040
149,195611,Turmstrasse Ecke Gotzkowskystrasse,9,19561086
150,195611,"Moabit, Zwinglistrasse",10,1956706
151,195612,Bhf. Wollankstrasse,0,1956161
152,195612,Osloerstrasse Ecke Prinzenallee,1,1956764
153,195612,Prinzenallee Ecke Badstrasse,2,1956828
154,195612,Bhf. Gesundbrunnen,3,1956112
155,195612,Rügenerstrasse Ecke Brunnenstrasse,4,1956905
156,195612,Brunnenstrasse Ecke Bernauerstrasse,5,1956205
157,195612,Bernauerstrasse Ecke Wollinerstrasse,6,1956100
158,195613,"Tegel, Alt-Tegel",0,19561059
159,195613,Bernauerstrasse Ecke Berlinerstrasse,1,195699
160,195613,Eichborndamm Ecke Scharnweberstrasse,2,1956278
161,195613,Kurt-Schuhmacher-Platz,3,1956581
162,195613,"Londoner Strasse, Strassenbahnhof",4,1956653
163,195613,Seestrasse Ecke Müllerstrasse,5,1956981
164,195613,Weddingplatz,6,19561175
165,195613,Kriminalgericht,7,1956569
166,195613,Stromstrasse Ecke Turmstrasse,8,19561043
167,195613,Turmstrasse Ecke Gotzkowskystrasse,9,19561086
168,195613,U-Bhf. Ernst-Reuter-Platz,10,19561099
169,195613,Bhf. Zoo,11,1956166
170,195613,Wittenbergplatz,12,19561227
171,195613,Grunewaldstrasse Ecke Martin-Luther-Strasse,13,1956397
172,195613,Badenschestrasse Ecke Martin-Luther-Strasse,14,195661
173,195613,Rathaus Schöneberg (Belzigerstrasse),15,1956849
174,195613,Dominicusstrasse Ecke Hauptstrasse,16,1956266
175,195613,Kaiser-Wilhelm-Platz,17,1956513
176,195613,"Schöneberg, Gotenstrasse",18,1956968
177,195614,Spreewaldplatz,0,19561014
178,195614,Reichenberger Strasse,1,1956861
179,195614,Glogauer Strasse,2,1956366
180,195614,Sonnenallee,3,1956990
181,195614,Hermannplatz,4,1956446
182,195614,Weichselstrasse,5,19561178
183,195614,Rathaus Neukölln,6,1956844
184,195614,Karl-Marx-Strasse-Station,7,1956527
185,195614,U-Bhf. Neukölln,8,19561117
186,195614,Hermannstrasse Ecke Hertastrasse,9,1956449
187,195614,Germaniastrasse Ecke Gottlieb-Dunkel-Strasse,10,1956354
188,195614,"Tempelhof, Industriestrasse",11,19561070
189,195615,"Neukölln, Hermannplatz",0,1956725
190,195615,U-Bhf. Boddinstrasse,1,19561094
191,195615,Bhf. Hermannstrasse,2,1956118
192,195615,Gradestrasse,3,1956380
193,195615,Mariendorfer Allee,4,1956677
194,195615,"Buckow, Alt-Buckow",5,1956212
195,195616,"Tegelort, Kurzestrasse",0,19561060
196,195616,Falkenplatz,1,1956305
197,195616,Gabelung,2,1956342
198,195616,Ruppiner Chaussee Ecke Karolinenstrasse,3,1956900
200,195616,Alt-Tegel Ecke Schloßstrasse,4,195624
201,195616,Bernauerstrasse Ecke Berlinerstrasse,5,195699
202,195616,"Eichenborndamm, Sportplatz Reinickendorf",6,1956281
203,195616,Kurt-Schumacher-Platz,7,1956583
204,195616,Londonerstrasse Ecke Müllerstrasse,8,1956654
205,195616,Seestrasse Ecke Müllerstrasse,9,1956981
206,195616,Müllerstrasse Ecke Schulstrasse,10,1956714
207,195616,Reinickendorferstrasse Ecke Schulstrasse,11,1956869
208,195616,Uferstrasse Ecke Exerzierstrasse,12,19561138
209,195616,Pankstrasse/Prinzenallee,13,1956791
210,195616,Bhf. Gesundbrunnen,14,1956112
211,195616,Rügenesrstrasse Ecke Brunnenstrasse,15,1956906
212,195617,"Heiligensee, Dorfaue",0,1956435
213,195617,Hennigsdorferstrasse Ecke Heiligensee,1,1956444
214,195617,Gabelung,2,1956342
216,195617,Ruppiner Chaussee Ecke Karolinenstrasse,3,1956901
217,195617,Alt-Tegel Ecke Schloßstrasse,4,195624
218,195617,Bernauerstrasse Ecke Berlinerstrasse,5,195699
219,195617,"Eichborndamm, Sportplatz Reinickendorf",6,1956279
220,195617,Kurt-Schumacher-Platz,7,1956583
221,195617,Londonerstrasse Ecke Müllerstrasse,8,1956654
222,195617,Seestrasse Ecke Müllerstrasse,9,1956981
223,195617,Müllerstrasse Ecke Schulstrasse,10,1956714
224,195617,Reinickendorferstrasse Ecke Schulstrasse,11,1956869
225,195617,Uferstrasse Ekce Exerziestrasse,12,19561139
226,195617,Pankstrasse/Prinzenallee,13,1956791
227,195617,Bhf. Gesundbrunnen,14,1956112
228,195617,Rügenerstrasse Ecke Brunnenstrasse,15,1956905
229,195618,"Siemensstradt, Nonnendammallee",0,1956987
230,195618,Wernerwerk,1,19561193
231,195618,Bhf. Jungfernheide,2,1956124
232,195618,Tauroggenerstrasse Ecke Osnabrückerstrasse,3,19561057
233,195618,Wiebestrasse Ecke Huttenstrasse,4,19561199
234,195618,Gotzkowskystrasse Ecke turmstrasse,5,1956379
235,195618,Turmstrasse Ecke Stromstrasse,6,19561090
236,195618,Rathenowerstrasse Ecke Perlebergstrasse,7,1956858
237,195618,"Weddingplatz, Müllerstrasse",8,19561176
238,195618,Nettelbeckplatz,9,1956717
239,195618,Schulstrasse Ecke Reinickendorferstrasse,10,1956962
240,195618,Oskarplatz,11,1956761
241,195618,Pankowerallee Ecke Residenzstrasse,12,1956789
242,195618,Residenzstrasse Ecke Alt-Reinickendorf,13,1956872
243,195618,Graf-Roedern-Allee Ecke Alt-Reinickendorf,14,1956382
244,195618,"Reinickendorf, Teichstrasse Ecke Humboldtstrasse",15,1956867
245,195619,Bhf. Wilhelmsruh,0,1956157
246,195619,Residenzstrasse Ecke Alt-Reinickendorf,1,1956872
247,195619,"Pankower Allee, Schäfersee",2,1956785
248,195619,"Pankower Allee, Strassenbahnhof",3,1956786
249,195619,Pankower Allee Ecke Provinzstrasse,4,1956784
250,195619,Osloerstrasse Ecke Kolonie-Drontheim,5,1956763
251,195619,Schwedenstrasse/Uferstrasse,6,1956966
252,195619,Pankstrasse Ecke Badstrasse,7,1956790
253,195619,Bhf. Gesundbrunnen,8,1956112
254,195619,Rügenerstrasse Ecke Brunnenstrasse,9,1956905
255,195620,"Dahlem, Clayallee",0,1956247
256,195620,Pacelliallee/Thielallee,1,1956775
257,195620,U-Bhf. Dahlem-Dorf,2,19561096
258,195620,Podbielskiallee (Botanischer Garten),3,1956806
259,195620,Rathaus Steglitz,4,1956853
260,195620,Bhf. Steglitz,5,1956150
261,195620,Klingsorstrasse Ecke Birkbuschstrasse,6,1956550
262,195620,"Steglitz, Birkbuschstrasse Ecke Siemensstrasse",7,19561029
263,195621,"Tegel, Alt-Tegel",0,19561059
264,195621,Bernauerstrasse Ecke Berlinerstrasse,1,195699
265,195621,Eichborndamm Ecke Scharnweberstrasse,2,1956278
266,195621,Kurt-Schuhmacher-Platz,3,1956581
267,195621,Graf-Roedernallee Ecke Reinickendorferstrasse,4,1956383
268,195621,Aroserallee Ecke Reinickendorferstrasse,5,195650
269,195621,Residenzstrasse Ecke Alt-Reinickendorf,6,1956872
270,195621,Pankowerallee (Schäfersee),7,1956787
271,195621,Osloerstrasse Ecke Schwedenstrasse,8,1956766
272,195621,Uferstrasse Ecke Badstrasse,9,19561137
273,195621,Pankstrasse/Prinzenallee,10,1956791
274,195621,U-Bhf. Gesundbrunnen,11,19561104
275,195621,Usedomerstrasse,12,19561151
276,195621,Brunnenstrasse Ecke Bernauerstrasse,13,1956205
277,195621,Bernauerstrasse Ecke Wollinerstrasse,14,1956100
278,195622,"Sandkrugbrücke, Lehrter Bahnhof",0,1956940
279,195622,Rathenowerstrasse Ecke Invalidenstrasse,1,1956857
280,195622,Stromstrasse Ecke Alt-Moabit,2,19561041
281,195622,Gotzkowskystrasse Ecke Alt-Moabit,3,1956376
282,195622,U-Bhf. Ernst-Reuter-Platz,4,19561099
283,195622,Wilmersdorfer Strasse Ecke Berlinerstrasse,5,19561217
284,195622,Kantstrasse Ecke Wilmersdorferstrasse,6,1956524
285,195622,Kurfürstendamm Ecke Wilmersdorferstrasse,7,1956576
286,195622,Fehrbelliner Platz,8,1956308
287,195622,Berlinerstrasse Ecke Blissestrasse,9,195689
288,195622,Hildegardstrasse Ecke Bundesallee,10,1956458
289,195622,Bundesplatz,11,1956223
290,195622,Friedrich-Wilhelm-Platz,12,1956331
291,195622,Titania-Palast,13,19561079
292,195622,Bhf. Steglitz,14,1956150
293,195622,Schloßstrasse Ecke Albrechtstrasse,15,1956953
294,195622,Birkbuschstrasse Ecke Siemensstrasse,16,1956169
295,195623,"Niederschönhausen, Schillerstrasse",0,1956728
296,195623,"Nordend, Dietzgenstrasse",1,1956737
297,195623,Ossietzkyplatz,2,1956769
298,195623,Kurt-Fischer-Platz,3,1956580
299,195623,"Breitestrasse, Pankow, Rathaus",4,1956198
300,195623,"Pankow, Kirche",5,1956781
301,195623,"S-Bhf. Pankow, Florastrasse",6,1956923
302,195623,U-Bhf. Vinetastrasse,7,19561134
303,195623,S-Bhf. Schönhauser Allee,8,1956929
304,195623,"Eberswalderstrasse, U-Bhf. Dimitroffstrasse",9,1956275
305,195623,Zionskirchstrasse,10,19561248
306,195623,Veteranenstrasse Ecke Brunnenstrasse,11,19561155
307,195623,Invalidenstrasse Ecke Chausseestrasse,12,1956497
308,195623,Oranienburger Tor,13,1956754
309,195623,"Weidendammbrücke, Bhf. Friedrichstrasse",14,19561179
310,195623,Am Kupfergraben,15,195635
311,195624,Hermannplatz,0,1956446
312,195624,"Erkstrasse, Rathaus Neukölln",1,1956298
313,195624,Karl-Marx-Strasse Station,2,1956526
314,195624,U-Bhf. Neukölln,3,19561117
315,195624,U-Bhf. Grenzallee,4,19561106
316,195624,Buschkrug,5,1956225
317,195624,Parchimerallee Ecke Rudowerstrasse,6,1956795
318,195624,Krankenhaus Neukölln,7,1956566
319,195624,Johannisthaler Chaussee Ecke Rudowerstrasse,8,1956506
320,195624,Wildmeisterdamm,9,19561209
321,195624,"Rudow, Bahnhofstrasse",10,1956895
322,195625,Buchholz,0,1956211
323,195625,Eweststrasse,1,1956300
324,195625,"Galenusstrasse, Pankow, Krankenhaus",2,1956343
325,195625,S-Bhf. Pankow-Heinersdorf,3,1956924
326,195625,"Pankow, Kirche",4,1956781
327,195625,"S-Bhf. Pankow, Florastrasse",5,1956923
328,195625,U-Bhf. Vinetastrasse,6,19561134
329,195625,S-Bhf. Schönhauser Allee,7,1956929
330,195625,"Eberswalderstrasse, U-Bhf. Dimitroffstrasse",8,1956275
331,195625,Zionskirchstrasse,9,19561248
332,195625,Rosenthaler Platz,10,1956891
333,195625,Hackescher Markt,11,1956410
335,195625,Große Präsidentenstrasse,12,1956392
336,195626,"Roseneck, Grunewald",0,1956887
337,195626,U-Bhf. Heidelberger Platz,1,19561109
338,195626,Berlinerstrasse Ecke Uhlandstrasse,2,195694
339,195626,U-Bhf. Hohenzollernplatz,3,19561110
340,195626,U-Bhf. Uhlandstrasse,4,19561132
341,195626,Bhf. Zoo,5,1956166
342,195627,"Spandau, Johannesstift",0,1956999
343,195627,"Spandau, Stadtpark",1,19561003
344,195627,Fehrbelliner Tor,2,1956310
345,195627,Hafenplatz,3,1956413
346,195627,"Spandau, Markt",4,19561001
347,195627,Bhf. Spandau,5,1956146
348,195627,Teltowerstrasse Ecke Charlottenburgerstrasse,6,19561066
349,195627,U-Bhf. Ruhleben,7,19561125
350,195627,Schloß Ruhwald,8,1956952
351,195627,Königin-Elisabeth-Strasse Ecke Spandauer Damm,9,1956588
352,195627,Schloßstrasse Ecke Spandauer Damm,10,1956957
353,195627,Luisenplatz,11,1956656
354,195627,Wilmersdorferstrasse Ecke Berlinerstrasse,12,19561221
355,195627,U-Bhf. Richard-Wagner-Platz,13,19561123
356,195627,Leibnizstrasse Ecke Berlinerstrasse,14,1956616
357,195627,U-Bhf. Ernst-Reuter-Platz,15,19561099
358,195627,Kantstrasse Ecke Hardenburgerstrasse,16,1956522
359,195627,Bhf. Zoo,17,1956166
360,195628,"Spandau, Nauenerstrasse",0,19561002
361,195628,"Spandau, Markt",1,19561001
362,195628,Siedlung Haselhorst,2,1956983
363,195628,Gartenfelderstrasse Ecke Paulsternstrasse,3,1956347
364,195628,Verwaltungsgebäude,4,19561154
365,195628,Bhf. Jungfernheide,5,1956124
366,195628,Luisenplatz,6,1956656
367,195628,U-Bhf. Richard-Wagner-Platz,7,19561123
368,195628,Knie,8,1956553
369,195628,Bhf. Zoo,9,1956166
370,195629,Königin-Elisabeth-Strasse Ecke Kaiserdamm,0,1956587
371,195629,Spandauer Damm Königin-Elisabeth-Strasse,1,19561007
372,195629,Klausenerplatz,2,1956543
373,195629,Schlossstrasse Ecke Suarezstrasse,3,1956951
374,195629,Kaiser-Friedrich-Strasse Ecke Kantstrasse,4,1956511
375,195629,Stuttgarter Platz,5,19561045
376,195629,Kurfürstendamm Ecke Wilmersdorferstrasse,6,1956576
377,195629,Konstanzerstrasse Ecke Brandenburgischestrasse,7,1956558
378,195629,Westfälischestrasse Ecke Brandenburgischestrasse,8,19561195
379,195629,Fehrbelliner Platz,9,1956308
380,195629,Blissestrasse Ecke Berlinerstrasse,10,1956183
381,195629,Uhlandstrasse Ecke Berlinerstrasse,11,19561141
382,195629,Badenschestrasse Ecke Berlinerstrasse,12,195659
383,195629,Bundesallee Ecke Berliner Strasse,13,1956220
384,195629,Martin-Luther-Strasse Ecke Grunewaldstrasse,14,1956689
385,195629,Hauptstrasse Ecke Dominicusstrasse,15,1956424
387,195629,Bhf. Papestrasse,16,1956138
388,195629,Sachsendamm Ecke Alboinstrasse,17,1956937
389,195629,Lindenhof Eythstrasse,18,1956645
390,195630,"Hohenschönhausen, Gartenstadt",0,1956470
391,195630,Falkenbergerstrasse Ecke Wartenberger Strasse,1,1956303
392,195630,Freienwalderstrasse Ecke Orankestrasse,2,1956326
393,195630,Weißenseer Weg,3,19561188
394,195630,Steuerhaus,4,19561032
395,195630,S-Bhf. Leninallee,5,1956919
396,195630,"Leninallee, Dimitroffstrasse",6,1956624
397,195630,Leninplatz,7,1956628
398,195630,Kleine Frankfurterstrasse,8,1956544
399,195630,"Alexanderplatz, Memhardstrasse",9,195612
400,195630,U-Bhf. Weinmeisterstrasse,10,19561135
402,195630,Hackescher Markt,11,1956411
403,195630,Große Präsidentenstrasse,12,1956392
404,195631,"Hohenschönhausen, Falkenberger Strasse",0,1956469
405,195631,Orankestrasse,1,1956759
406,195631,Weißenseer Weg,2,19561188
407,195631,Steuerhaus,3,19561032
408,195631,S-Bhf. Leninallee,4,1956919
409,195631,Leninallee Ecke Dimitroffstrasse,5,1956623
410,195631,Leninplatz,6,1956628
411,195631,Kleine Frankfurterstrasse,7,1956544
412,195631,"Alexanderplatz, Grunestrasse",8,195610
413,195631,Bhf. Jannowitzbrücke,9,1956122
414,195631,U-Bhf. Neanderstrasse,10,19561116
415,195631,Spittelmarkt,11,19561011
416,195631,"Dönhoffplatz, Krausenstrasse",12,1956273
417,195632,Belziger Strasse Ecke Martin-Luther-Strasse,0,195684
419,195632,Hauptstrasse Ecke Dominicusstrasse,1,1956425
421,195632,Innsbrucker Platz,2,1956493
422,195632,Traegerstrasse,3,19561080
423,195632,Ceciliengärten,4,1956233
424,195632,Beckerstrasse Ecke Rubensstrasse,5,195680
425,195632,Canovastrasse (Krankenhaus),6,1956232
426,195632,Thorwaldsenstrasse Ecke Grazer Damm,7,19561075
427,195633,"Bhf. Wittenau, Nordbahn, Cyclopstrasse",0,1956159
428,195633,Alt-Wittenau Ecke Oranienburgerstrasse,1,195629
429,195633,Heilanstalt,2,1956433
430,195633,Kurt-Schuhmacher-Platz,3,1956581
431,195633,Londonerstrasse Ecke Müllerstrasse,4,1956654
432,195633,Seestrasse Ecke Müllerstrasse,5,1956981
433,195633,Schulstrasse Ecke Müllerstrasse,6,1956961
434,195633,Nettelbeckplatz,7,1956717
435,195634,"Johannisthal, Haeckelstrasse",0,1956504
436,195634,Königsweide,1,1956596
437,195634,Bhf. Schöneweide,2,1956143
438,195634,Oberschöneweide Ecke Wilhelminenhofstrasse,3,1956742
439,195634,"Hegemeisterweg, Rennbahn",4,1956431
440,195634,S-Bhf. Karlshorst,5,1956915
441,195634,Tierpark Berlin,6,19561078
442,195634,Schlossstrasse Ecke Alt-Friedrichsfelde,7,1956950
443,195634,Bhf. Lichtenberg,8,1956127
444,195634,"BVG-Bf. Lichtenberg, Siegfriedstrasse",9,195656
445,195634,Roederplatz,10,1956883
446,195634,Steuerhaus,11,19561032
447,195634,Leninallee Ecke Dimitroffstrasse,12,1956623
448,195634,Leninplatz,13,1956628
449,195634,"Alexanderplatz, Memhardstrasse",14,195612
450,195634,Hackescher Markt,15,1956410
452,195634,Oranienburger Tor,16,1956754
453,195634,Walter-Ulbricht-Stadion,17,19561163
454,195635,"Hohenschönhausen, Falkenberger Strasse",0,1956469
455,195635,Suermondtstrasse Ecke Hauptstrasse,1,19561049
456,195635,Stadion Buschallee,2,19561016
457,195635,Buschallee Ecke Klement-Gottwald-Allee,3,1956224
458,195635,Antonplatz,4,195647
459,195635,Prenzlauer Promenade Ecke Gustav-Adolf-Strasse,5,1956822
460,195635,"Wichertstrasse, Humannplatz",6,19561198
461,195635,Schönhauser Allee,7,1956973
462,195635,Zionskirchstrasse,8,19561248
463,195635,Invalidenstrasse Ecke Brunnenstrasse,9,1956495
464,195635,Invalidenstrasse Ecke Chausseestrasse,10,1956497
465,195635,Oranienburger Tor,11,1956754
466,195635,"Weidendammbrücke, Bhf. Friedrichstrasse",12,19561179
467,195635,Clara-Zetkin-Strasse Ecke Neue Wilhelmstrasse,13,1956241
468,195636,"Heinersdorf, Romain-Rolland-Str.",0,1956441
469,195636,"Heinersdorf, Kirche",1,1956440
470,195636,"Am Steinberg, Thulestrasse",2,195637
471,195636,Prenzlauer Promenade Ecke Wisbyer Strasse,3,1956824
472,195636,S-Bhf. Prenzlauer Allee,4,1956925
473,195636,Dimitroffstrasse Ecke Prenzlauer Allee,5,1956261
474,195636,Saarbrücker Strasse Ecke Prenzlauer Tor,6,1956932
475,195636,"Alexanderplatz, Grunerstrasse",7,19569
476,195636,"Jüdenstrasse, Berliner Rathaus",8,1956509
477,195637,"Weißensee, Rennbahnstrasse Ecke Parkstrasse",0,19561185
478,195637,Klement-Gottwald-Allee Ecke Bernkasteler Strasse,1,1956545
479,195637,Antonplatz,2,195647
480,195637,Gustav-Adolf-Strasse Ecke Prenzlauer Promenade,3,1956405
481,195637,S-Bhf. Prenzlauer Allee,4,1956925
482,195637,Dimitroffstrasse Ecke Prenzlauer Allee,5,1956261
483,195637,"Saarbrücker Strasse, Prenzlauer Tor",6,1956933
484,195637,"Alexanderplatz, Grunerstrasse",7,19569
485,195637,Molkenmarkt,8,1956707
486,195637,Roßstrasse Ecke Breitestrasse,9,1956893
487,195637,Charlottenstrasse Ecke Taubenstrasse,10,1956236
488,195638,Bhf. Lichterfelde-Ost,0,1956130
489,195638,"Wiesenbaude, Giesendorferstrasse",1,19561206
490,195638,Hindenburgdamm Ecke Schloßstrasse,2,1956460
491,195638,Rathaus Steglitz,3,1956853
492,195638,Schloßstrasse Ecke Bundesallee,4,1956956
493,195638,Kaisereiche,5,1956516
494,195638,Lauterplatz,6,1956613
495,195638,Innsbrucker Platz,7,1956492
497,195638,Dominicusstrasse Ecke Hauptstrasse,8,1956266
498,195638,Eisenacherstrasse Ecke Hauptstrasse,9,1956285
500,195638,Pallasstrasse Ecke Potsdamerstrasse,10,1956777
502,195638,U-Bhf. Bülowstrasse,11,19561095
503,195638,Lützowstrasse Ecke Potdamerstrasse,12,1956661
504,195638,"Potsdamer Platz, Linkstrasse",13,1956812
505,195639,"Lichtefelde, Finckensteinallee",0,1956631
506,195639,Wiesenbaude,1,19561205
507,195639,Hindenburgdamm Ecke Schloßstrasse,2,1956460
508,195639,Rathaus Steglitz,3,1956853
509,195639,Bundesallee,4,1956218
510,195639,Innsbrucker Platz,5,1956492
512,195639,Dominicusstrasse,6,1956264
513,195639,Pallasstrasse,7,1956776
514,195639,Bülowstrasse,8,1956227
515,195639,"Potsdamer Platz, Linkstrasse",9,1956812
516,195640,"Wießensee, Rennbahnstrasse Ecke Parkstrasse",0,19561207
517,195640,Klement-Gottwald-Allee Ecke Bernkasteler Strasse,1,1956545
518,195640,Antonplatz,2,195647
519,195640,S-Bhf. Greifswalder Strasse,3,1956913
520,195640,Dimitroffstrasse Ecke Greifswalderstrasse,4,1956260
521,195640,Königstor,5,1956593
522,195640,"Alexanderplatz, Grunerstrasse",6,19569
523,195640,Molkenmarkt,7,1956707
524,195640,Spittelmarkt,8,19561011
525,195640,Charlottenstrasse Ecke Taubenstrasse,9,1956236
526,195641,"Bhf. Zoo, Kantstrasse",0,1956167
527,195641,Leibnizstrasse Ecke Kantstrasse,1,1956617
528,195641,Wilmersdorfer Strasse Ecke Kantstrasse,2,19561218
529,195641,Kaiser-Friedrich-Strasse Ecke Kantstrasse,3,1956511
530,195641,Amtsgericht,4,195641
531,195641,Messedamm,5,1956702
532,195641,Reichskanzlerplatz,6,1956863
533,195641,Bhf. Heerstrasse,7,1956116
534,195641,Scholzplatz,8,1956959
535,195641,Stößenseebrücke,9,19561048
536,195641,Pichelsdorfer Strasse Ecke Heerstrasse,10,1956801
537,195641,"Weverstrasse, Strassenbahnhof",11,19561197
538,195641,Seeburger Strasse Ecke Klosterstrasse,12,1956977
539,195641,Rathaus Spandau,13,1956851
540,195641,"Spandau, Markt",14,19561001
541,195641,Hafenplatz,15,1956413
542,195641,Hohenzollernring Ecke streitstrasse,16,1956475
543,195641,Hakenfelde,17,1956415
544,195642,Bhf. Zoo,0,1956166
545,195642,Wittenbergplatz,1,19561227
546,195642,Pariserstrasse Ecke Bundesallee,2,1956796
547,195642,Bundesallee Ecke Berliner Strasse,3,1956220
548,195642,Bundesplatz,4,1956223
549,195642,Friedrich-Wilhelm-Platz,5,1956331
550,195642,Schloßstrasse Ecke Bundesallee,6,1956956
551,195642,Rathaus Steglitz,7,1956853
552,195642,Hindenburgdamm Ecke Schloßstrasse,8,1956460
553,195642,Händelplatz,9,1956483
554,195642,Bhf. Botanischer Garten,10,1956108
555,195642,Bhf. Lichterfelde-West,11,1956132
556,195642,Baselerstrasse,12,195674
557,195642,Rittberg-Krankenhaus,13,1956879
558,195642,Goerzallee Ecke Wismarer Strasse,14,1956370
559,195642,"Lichterfelde, Goerzallee",15,1956638
560,195643,Bhf. Zoo,0,1956166
561,195643,Wittenbergplatz,1,19561227
562,195643,Pariserstrasse Ecke Bundesallee,2,1956796
563,195643,Bundesallee Ecke Berliner Strasse,3,1956220
564,195643,Bundesplatz,4,1956223
565,195643,Friedrich-Wilhelm-Platz,5,1956331
566,195643,Schloßstrasse Ecke Bundesallee,6,1956956
567,195643,Rathaus Steglitz,7,1956853
568,195643,Hindenburgdamm Ecke Schloßstrasse,8,1956460
569,195643,Händelplatz,9,1956483
570,195643,Bhf. Botanischer Garten,10,1956108
571,195643,Bhf. Lichterfelde-West,11,1956132
572,195643,Baselerstrasse,12,195674
573,195643,Rittberg-Krankenhaus,13,1956879
574,195643,Wismarerstrasse Ecke Goerzallee,14,19561223
575,195643,Lindenstrasse,15,1956646
576,195644,"Dönhoffplatz, Krausenstrasse",0,1956273
577,195644,Spittelmarkt,1,19561011
578,195644,Molkenmarkt,2,1956707
579,195644,Ostbahnhof,3,1956772
580,195644,Warschauerstrasse,4,19561171
581,195644,Markgrafendamm,5,1956686
582,195644,S-Bhf. Ostkreuz,6,1956922
583,195644,Kraftwerk Klingenberg,7,1956564
584,195644,"Karlshorst, Treskowallee",8,1956529
585,195644,"Hegemeisterweg, Rennbahn",9,1956431
586,195644,Edisonstrasse Ecke Wilhelminenhofstrasse,10,1956276
587,195644,"Oberschöneweide, Parkstrasse",11,1956743
588,195644,Pionierrepublik,12,1956802
589,195644,Lindenstrasse Ecke Bahnhofstrasse,13,1956647
590,195644,S-Bhf. Köpenick,14,1956918
591,195644,"Köpenick, Hirtestrasse",15,1956598
592,195645,Wendenschloß Ecke Ekhofstrasse,0,19561190
593,195645,Strassenbahnhof Köpenick,1,19561035
594,195645,Schüßlerplatz,2,1956976
595,195645,Lindenstrasse Ecke Bahnhofstrasse,3,1956647
596,195645,S-Bhf. Köpenick,4,1956918
597,195645,Uhlenhorst,5,19561143
598,195645,"Mahlsdorf-Süd, Hubertus",6,1956669
599,195645,Bütowerstrasse,7,1956231
600,195645,Rahnsdorferstrasse,8,1956840
601,195645,S-Bhf. Mahlsdorf,9,1956921
602,195646,"Altglienicke, Am Falkenberg",0,195630
603,195646,Köpenicker Strasse,1,1956603
604,195646,Benzolwerk,2,195685
605,195646,S-Bhf. Adlershof,3,1956907
606,195646,Marktplatz,4,1956687
607,195646,S-Bhf. Spindlersfeld,5,1956930
608,195646,Köllnischer Platz,6,1956586
609,195646,Schüßlerplatz,7,1956976
610,195646,Lindenstrasse Ecke Bahnhofstrasse,8,1956647
611,195646,Seelenbinderstrasse,9,1956978
612,195646,"Hirschgarten, Fürstenwalder Damm",10,1956462
613,195646,S-Bhf. Friedrichshagen,11,1956911
614,195646,Brauerei,12,1956193
615,195646,"Friedrichshagen, Wasserwerk",13,1956336
616,195647,Alt-Schmöckwitz,0,195622
617,195647,Vetschauer Allee,1,19561156
618,195647,Richtershorn,2,1956876
619,195647,Regattahäuser,3,1956859
620,195647,Bhf. Grünau,4,1956114
621,195647,Chemische Fabrik,5,1956238
622,195647,Vollkropfgraben,6,19561158
623,195647,Köllnischer Platz,7,1956586
624,195647,Schüßlerplatz,8,1956976
625,195647,Lindenstrasse Ecke Bahnhofstrasse,9,1956647
626,195647,S-Bhf. Köpenick,10,1956918
627,195647,Uhlenhorst,11,19561143
628,195647,"Mahlsdorf-Süd, Hubertus",12,1956669
629,195648,Rahnsdorf,0,1956839
630,195648,Müggelseedamm,1,1956712
631,195648,S-Bhf. Friedrichshagen,2,1956911
632,195648,Brauerei,3,1956193
633,195648,Hirschgartenm Fürstenwalderdamm,4,1956463
634,195648,Seelenbinderstrasse,5,1956978
635,195648,Bahnhofstrasse Ecke Lindenstrasse,6,195671
636,195648,Pionierrepublik,7,1956802
637,195648,Parkstrasse,8,1956797
638,195648,Wilhelminenhofstrasse Ecke Edisonstrasse,9,19561211
639,195648,"Brückenstrasse, Bhf. Schöneweide",10,1956208
640,195648,Köpenicker Landstrasse Ecke Baumschulenstrasse,11,1956602
641,195648,Bulgarische Strasse,12,1956215
642,195648,Elsenstrasse Ecke Am Treptower Park,13,1956289
643,195648,Wiener Brücke,14,19561200
644,195649,Stadtpark,0,19561021
645,195649,Feuerbachstrasse Ecke Knausstrasse,1,1956314
646,195649,Kaisereiche Ecke Rheinstrasse,2,1956517
647,195649,Innsbrucker Platz,3,1956492
649,195649,Dominicusstrasse Ecke Hauptstrasse,4,1956266
651,195649,Eisenacherstrasse Ecke Hauptstrasse,5,1956286
653,195649,Pallasstrasse Ecke Potsdamerstrasse,6,1956778
654,195649,Bülowstrasse Ecke Potsdamerstrasse,7,1956229
655,195649,Potsdamerstrasse Ecke Lützowstrasse,8,1956819
656,195649,Anhalter Bahnhof,9,195645
657,195649,U-Bhf. Kochstrasse,10,19561112
658,195649,Jerusalemerstrasse Ecke Oranienstrasse,11,1956500
659,195649,U-Bhf. Moritzplatz,12,19561115
660,195649,U-Bhf. Görlitzer Bahnhof,13,19561107
661,195649,Spreewaldplatz,14,19561014
662,195649,Wiener Brücke,15,19561200
663,195650,"Treptow, Spreeterrassen",0,19561083
664,195650,"Treptow, Rathaus",1,19561082
665,195650,Bulgarischestrasse Ecke Köpenicker Landstrasse,2,1956216
666,195650,Baumschulenstrasse,3,195675
667,195650,"Grünauerstrasse, Bhf. Schöneweide",4,1956400
668,195650,Königsheideweg,5,1956591
669,195650,"Johannisthal, Haeckelstrasse",6,1956504
670,195651,"Treptow, Flutgraben",0,19561081
671,195651,"Elsenstrasse, S-Bhf. Treptow",1,1956291
672,195651,Bulgarische Strasse,2,1956215
673,195651,Baumschulenstrasse,3,195675
674,195651,"Grünauerstrasse, Bhf. Schöneweide",4,1956400
675,195651,Britzer Strasse,5,1956202
676,195651,Oberspree,6,1956745
677,195652,"Oranienplatz, Dresdenerstrasse",0,1956758
678,195652,Kottbusser Tor,1,1956562
679,195652,U-Bhf. Kottbusser Damm,2,19561113
680,195652,Hermannplatz,3,1956446
681,195652,Erkstrasse Ecke Sonnenallee,4,1956297
682,195652,Bhf. Sonnenallee,5,1956144
683,195652,Dammweg Ecke Sonnenallee,6,1956253
684,195652,"Neukölln, Schulenburgpark",7,1956726
685,195653,Attilaplatz,0,195653
686,195653,Berlinickeplatz,1,195696
687,195653,Hoeppnerstrasse Ecke Boelckestrasse,2,1956466
688,195653,Adolf-Scheidt-Platz,3,19562
689,195653,U-Bhf. Flughafen,4,19561102
690,195653,Gneisenaustrasse/Yorckstrasse,5,1956368
691,195653,Hallesches Tor,6,1956418
692,195653,Zossenerstrasse Ecke Blücherstrasse,7,19561252
693,195653,Baerwaldstrasse Ecke Urbanstrasse,8,195664
694,195653,Urban-Krankenhaus,9,19561149
695,195653,Hermannplatz,10,1956446
696,195653,Erkstrasse Ecke Sonnenallee,11,1956297
697,195653,Hertzbergplatz,12,1956454
698,195653,Bhf. Sonnenallee,13,1956144
699,195653,Schulenburgpark,14,1956960
700,195653,Sonnenallee Ecke Schwarzer Weg,15,1956991
701,195654,"Baumschulenweg, Sonnenallee",0,195678
702,195654,Köpenicker landstrasse,1,1956605
703,195654,S-Bhf. Schöneweide,2,1956928
704,195654,Wilhelminenhofstrasse Ecke Edisonstrasse,3,19561211
705,195654,Pionierrepublik,4,1956802
706,195654,"Köpenick, Lindenstrasse Ecke Bahnhofstrasse",5,1956601
707,195654,Grünstrasse,6,1956403
708,195654,"Köpenick, Krankenhaus",7,1956600
709,195655,U-Bhf. Tempelhof,0,19561130
710,195655,Alt-Tempelhof Ecke Tempelhofer Damm,1,195627
711,195655,Kaiserin-Augusta-Strasse Ecke Tempelhoferdamm,2,1956519
712,195655,Attilaplatz,3,195653
713,195655,Bhf. Mariendorf,4,1956134
714,195655,"Lankwitz, Kirche",5,1956611
715,195655,Bhf. Lichtefelde-Ost,6,1956125
716,195655,Bismarckstrasse Ecke Wilhelmstrasse,7,1956177
717,195655,Lindenstrasse Ecke Berlinerstrasse,8,1956648
718,195655,"Lichterfelde-Süd, Schwelmerstrasse",9,1956642
719,195656,Machnower Schleuse,0,1956664
720,195656,Zehlendorfer Damm,1,19561240
721,195656,"Neue Wagenhalle, Kleiststrasse",2,1956720
722,195656,"Teltow, Hamburger Platz",3,19561062
723,195656,Stadthaus Teltow,4,19561018
724,195656,Ruhlsdorfer Platz,5,1956898
725,195656,"Teltow, Paul-Gerhardt-Strasse",6,19561063
726,195657,Mehringplatz (Hallesches Tor),0,1956699
727,195657,Yorckstrasse/Gneisenaustrasse,1,19561236
728,195657,U-Bhf. Flughafen,2,19561102
729,195657,U-Bhf. Paradestrasse,3,19561120
730,195657,Bahnhof Tempelhof,4,195667
731,195657,Alt-Tempelhof,5,195626
732,195657,Kaiserin-Augusta-Strasse,6,1956518
733,195657,Friedrich-Karl-Strasse,7,1956330
734,195657,Kaiserstrasse,8,1956520
735,195657,Prühßstrasse,9,1956834
736,195657,Mariendorfer Damm Ecke Alt-Mariendorf,10,1956678
737,195657,Grossbeerenstrasse Ecke Daimlerstrasse,11,1956390
738,195657,Daimlerstrasse Ecke Birnhornweg,12,1956251
739,195658,"Lindenstrasse, Jerusalemer Kirche",0,1956650
740,195658,Mehringplatz,1,1956698
741,195658,Yorckstrasse/Gneisenaustrasse,2,19561236
742,195658,U-Bhf. Flughafen,3,19561102
743,195658,Bhf. Tempelhof,4,1956153
744,195658,Alt-Tempelhof,5,195626
745,195658,Kaiserin-Augusta-Strasse,6,1956518
746,195658,Friedrich-Karl-Strasse,7,1956330
747,195658,Kaiserstrasse,8,1956520
748,195658,Alt-Mariendorf,9,195616
749,195658,Rennbahn,10,1956870
750,195658,Marienfelder Chaussee,11,1956682
751,195658,Marienfelder Strasse,12,1956683
752,195658,Bhf. Lichtenrade,13,1956128
753,195659,Pankow (Vinetastr.),0,1956780
754,195659,Schönhauser Allee,1,1956974
755,195659,Dimitroffstr.,2,1956257
756,195659,Senefelderplatz,3,1956982
757,195659,Luxemburgplatz,4,1956657
758,195659,Alexanderplatz,5,19568
759,195659,Klosterstr.,6,1956551
760,195659,Märkisches Museum,7,1956710
761,195659,Spittelmarkt,8,19561012
762,195659,Hausvogteiplatz,9,1956427
763,195659,Stadtmitte (Mohrenstr.),10,19561020
764,195659,Thälmannplatz,11,19561076
765,195659,Potsdamer Platz,12,1956811
766,195659,Gleisdreieck,13,1956360
767,195659,Bülowstr.,14,1956226
768,195659,Nollendorfplatz,15,1956733
769,195659,Wittenbergplatz,16,19561228
770,195659,Zoologischer Garten,17,19561250
771,195659,Ernst-Reuter-Platz,18,1956299
772,195659,Deutsches Opernhaus (Bismarckstr.),19,1956256
773,195659,Sophie-Charlotte-Platz,20,1956992
774,195659,Kaiserdamm (Messedamm),21,1956514
775,195659,Reichskanzlerplatz,22,1956864
776,195659,Neu-Westend,23,1956718
777,195659,Olympia-Stadion,24,1956748
778,195659,Ruhleben,25,1956897
779,195660,Kottbusser Tor,0,1956563
780,195660,Prinzenstrasse,1,1956831
781,195660,Hallesches Tor,2,1956419
782,195660,Möckernbrücke,3,1956711
783,195660,Gleisdreieck,4,1956360
784,195660,Kurfürstenstrasse,5,1956578
785,195660,Nollendorfplatz,6,1956733
786,195660,Hohenzollernplatz,7,1956474
787,195660,Fehrbelliner Platz,8,1956309
788,195660,Heidelberger Platz,9,1956432
789,195660,Rüdesheimer Platz,10,1956904
790,195660,Breitenbachplatz,11,1956196
791,195660,Podbielskiallee,12,1956805
792,195660,Dahlem-Dorf,13,1956248
793,195660,Thielplatz,14,19561074
794,195660,Oskar-Helene-Heim,15,1956760
795,195660,Onkel Toms Hütte,16,1956749
796,195660,Krumme Lanke,17,1956570
797,195661,Deutsches Opernhaus (Bismarckstr.),0,1956256
798,195661,Richard-Wagner-Platz,1,1956874
799,195662,"Moabit, Waldstrasse",0,1956704
800,195662,"Heimholtzstrasse, Autobusbahnhof",1,1956438
801,195662,Bismarckstrasse Ecke Leibnizstrasse,2,1956175
802,195662,Kurfürstendamm Ecke Konstanzer Strasse,3,1956575
803,195662,U-Bhf. Fehrbelliner Platz,4,19561100
804,195662,Detmolder Strasse Ecke Blissestrasse,5,1956255
805,195662,Breitenbachplatz,6,1956195
806,195662,Botanischer Garten,7,1956190
807,195662,U-Bhf. Oskar-Helene-Heim,8,19561119
808,195662,Potsdamer Strasse Ecke Clayallee,9,1956815
809,195662,Bhf. Zehlendorf,10,1956163
810,195662,Teltower Damm Ecke Beeskowdamm,11,19561064
811,195662,Goerzallee Ecke Wismarerstrasse,12,1956371
813,195663,"Haselhorst, Kirche",0,1956422
814,195663,Gartenfelderstrasse Ecke Paulsternstrasse,1,1956346
815,195663,Verwaltungs-Gebäude,2,19561153
816,195663,"Rohrdammbrücke (Bhf. Siemensstadt, Fürstenbrunn)",3,1956884
817,195663,Spandauer Damm Ecke Königin-Elisabeth-Strasse,4,19561006
818,195663,U-Bhf. Kaiserdamm,5,19561111
819,195663,Bhf. Witzleben,6,1956160
820,195663,Amtsgerichsplatz,7,195640
821,195663,Joachim-Friedrichstrasse Ecke Kurfürstendamm,8,1956502
822,195663,Bhf. Halensee,9,1956115
823,195663,Elsterplatz,10,1956292
824,195663,Am Wilden Eber,11,195639
825,195663,"Königin-Luise-Strasse, Dahlem-Dorf",12,1956589
826,195663,U-Bhf. Thielplatz,13,19561131
827,195663,Corrensplatz,14,1956244
828,195663,Berlinerstrasse Ecke Thielallee,15,195693
829,195663,Winfriedstrasse Ecke Berlinerstrasse,16,19561222
830,195663,Clayallee Ecke Teltower Damm,17,1956242
831,195663,Bhf. Zehlendorf,18,1956163
832,195663,Behring-Krankenhaus,19,195682
833,195663,"Zehlendorf, Andreezeile Ecke Sachtlebenstrasse",20,19561239
834,195664,Saargemünder Strasse,0,1956934
835,195664,U-Bhf. Oskar-Helene-Heim,1,19561119
836,195664,Ihnestrasse,2,1956486
837,195664,Corrensplatz,3,1956244
838,195664,Unter den Eichen Ecke Habelschwerdterallee,4,19561146
839,195664,Bhf. Lichterfelde-West,5,1956131
840,195664,Ringstrasse Ecke Drakestrasse,6,1956878
841,195664,Wiesenbaude,7,19561204
842,195664,Berliner Strasse Ecke Wilhelmstrasse,8,195687
843,195664,Marienstrasse Ecke Wilhelmstrasse,9,1956684
844,195664,Bismarckstrasse Ecke Wilhelmstrasse,10,1956176
845,195664,Bhf. Lichterfelde-Ost,11,1956129
846,195664,Lange Strasse Ecke Lorenzstrasse,12,1956608
847,195664,Hildburghauser Strasse Ecke Sonderhauserstrasse,13,1956456
849,195665,U-Bhf. Seestrasse,0,19561128
850,195665,Emmentalerstrasse Ecke Aroserallee,1,1956293
851,195665,Alt-Reinickendorf Ecke Roedernstrasse,2,195621
852,195665,Oranienburgerstrasse Ecke Alt-Wittenau,3,1956756
853,195665,Holzhauserstrasse Ecke Alt-Wittenau,4,1956478
854,195665,Cyclopstrasse Ecke Hermsdorferstrasse,5,1956245
855,195665,Waidmannsluster Damm Ecke Oraniendamm,6,19561161
856,195665,Hermsdorfer Damm Ecke Hohefeldstrasse,7,1956451
857,195665,Bhf. Frohnau,8,1956111
858,195665,"Frohnau, Invalidensiedlung",9,1956341
859,195666,U-Bhf. Seestrasse,0,19561128
860,195666,Emmentalerstrasse Ecke Aroserallee,1,1956293
861,195666,Alt-Reinickendorf Ecke Roedernstrasse,2,195621
862,195666,Oranienburgerstrasse Ecke Alt-Wittenau,3,1956756
863,195666,Holzhauserstrasse Ecke Alt-Wittenau,4,1956478
864,195666,Cyclopstrasse Ecke Hermsdorferstrasse,5,1956245
865,195666,Waidmannsluster Damm Ecke Oraniendamm,6,19561161
866,195666,Hermsdorfer Damm Ecke Hohefeldstrasse,7,1956451
867,195666,Bhf. Frohnau,8,1956111
868,195667,"Spandau, Weinmeisterhornweg",0,19561005
869,195667,Heerstrasse Ecke Wilhelmstrasse,1,1956430
870,195667,Adamstrasse Ecke Wilhelmstrasse,2,19560
871,195667,Päwesiner Weg Ecke Seeburgerstrasse,3,1956836
872,195667,Rathaus Spandau,4,1956850
873,195667,Gartenfelderstrasse Ecke Nonnendammallee,5,1956345
874,195667,Gartenfelderstrasse Ecke Paulsternstrasse,6,1956346
875,195667,Kabelwerk,7,1956510
876,195667,Weg nach Saatwinkel,8,19561177
877,195667,Wasserwerk,9,19561173
878,195667,Krankenhaus Tegel-Süd,10,1956567
879,195667,Berlinerstrasse Ecke Bernauerstrasse,11,195688
880,195667,Alt-Tegel/Gorkistrasse,12,195625
881,195667,Bhf. Tegel,13,1956152
882,195668,Osloerstrasse Ecke Schwedenstrasse,0,1956765
883,195668,Koloniestrasse Ecke Drontheimerstrasse,1,1956557
884,195668,Pankowerallee Ecke Provinzstrasse,2,1956788
885,195668,"Herbstrasse, Bhf. Schönholz",3,1956445
886,195668,Residenzstrasse/Kopenhagenerstrasse,4,1956873
887,195668,Roedernallee Ecke Reinickdorferstrasse,5,1956881
888,195668,Lindenweg Ecke Roedernallee,6,1956651
889,195668,Oranienburgerstrasse Ecke Alt-Wittenau,7,1956756
890,195668,"Holszhauserstrasse, Rathaus Reinickendorf",8,1956476
891,195668,Hermsdorferstrasse Ecke Alt-Wittenau,9,1956453
892,195668,Ziekowstrasse Ecke Gorkistrasse,10,19561246
893,195668,Berlinerstrasse/Alt-Tegel,11,195695
894,195668,Heiligenseestrasse Ecke Karolinenstrasse,12,1956437
895,195668,Bhf. Schulzendorf,13,1956141
896,195668,Kaserne,14,1956532
897,195668,Bhf. Heiligensee,15,1956117
898,195668,"Heiligensee, Hennigsdorferstrasse Ecke Mattenbuder Pfad",16,1956436
899,195669,Bhf. Wittenau,0,1956158
900,195669,Alt-Wittenau Ecke Holzhauserstrasse,1,195628
901,195669,Bhf. Eichbornstrasse,2,1956110
902,195669,Borsigwalder Weg Ecke Conradstrasse,3,1956189
903,195669,Alt-Tegel,4,195623
904,195669,Hermsdorfer Damm Ecke Karolinenstrasse,5,1956452
905,195669,Bhf. Hermsdorf,6,1956119
906,195669,Dominikus-Krankenhaus,7,1956267
907,195669,Donnersmarckplatz,8,1956268
908,195669,Bhf. Frohnau,9,1956111
909,195670,U-Bhf. Seestrasse,0,19561128
910,195670,Seestrasse Ecke Amrumerstrasse,1,1956980
911,195670,Augustenburger Platz,2,195654
912,195670,Bhf. Pulitzstrasse,3,1956139
913,195670,Turmstrasse Ecke Stromstrasse,4,19561089
914,195670,Hansaplatz,5,1956421
915,195670,Großer Stern,6,1956393
916,195670,Lützowplatz,7,1956659
917,195670,"Nollendorfplatz, Einemstrasse",8,1956734
918,195670,Martin-Luther-Strasse Ecke Motzstrasse,9,1956690
919,195670,Grunewaldstrasse Ecke Martin-Luther-Strasse,10,1956396
920,195670,Rathaus Schöneberg,11,1956846
921,195670,Innsbrucker Platz,12,1956490
922,195670,Kufsteinerstrasse Ecke Wexstrasse,13,1956571
923,195670,Bundesplatz,14,1956222
924,195670,Wiesbadener Strasse Ecke Süd-West-Korso,15,19561202
925,195670,Breitenbachplatz,16,1956195
926,195670,"Englerallee, Breitenbachplatz",17,1956295
927,195671,Bhf. Grunewald,0,1956113
928,195671,Hagenplatz,1,1956414
929,195671,Roseneck,2,1956885
930,195671,U-Bhf. Rüdesheimer Platz,3,19561126
931,195671,Kaisereiche,4,1956515
932,195671,Bundesallee,5,1956217
933,195671,Rathaus Steglitz,6,1956852
934,195671,Stadtpark Steglitz,7,19561022
935,195671,Leonorenstrasse,8,1956629
936,195671,Stadion Lichterfelde-Ost,9,19561017
937,195671,Wilhelmstrasse,10,19561215
938,195671,"Lichterfelde, Saaleckplatz",11,1956640
939,195672,Saargemünder Strasse,0,1956934
940,195672,U-Bhf. Oskar-Helene-Heim,1,19561119
941,195672,Sophie-Charlotten-Strasse,2,1956994
942,195672,Potsdamer Strasse Ecke Clayallee,3,1956815
943,195672,Spanische Allee Ecke Potsdamer Chaussee,4,19561009
944,195672,Quantzstrasse Ecke Potsdamer Chaussee,5,1956837
945,195672,"Bahnhofstrasse, Bhf. wannsee",6,195672
946,195672,Rathaus Wannsee,7,1956854
947,195672,Stölpchensee,8,19561046
948,195672,Kohlhasenbrück,9,1956556
949,195673,"Roseneck, Grunewald",0,1956886
950,195673,Hagenplatz,1,1956414
951,195673,Bhf. Halensee,2,1956115
952,195673,Joachimthalerstrasse Ecke Kurfürstendamm,3,1956503
953,195673,Wilmersdorfer Strasse Ecke Kurfürstendamm,4,19561219
954,195673,Leinbnizstrasse Ecke Kurfürstendamm,5,1956618
955,195673,Uhlandstrasse Ecke Kurfürstendamm,6,19561142
956,195673,Breitscheidplatz,7,1956199
957,195673,Wittenbergplatz,8,19561226
958,195673,Nollendorfplatz,9,1956731
959,195673,Potsdamer Strasse Ecke Bülowstrasse,10,1956814
960,195673,Bhf. Yorckstrasse,11,1956162
961,195673,Katzbachstrasse,12,1956533
962,195673,Yorckstrasse Ecke Mehringdamm,13,19561235
963,195673,Dudenstrasse Ecke Mehringdamm,14,1956272
964,195673,"Tempelhof, Flughafen",15,19561069
965,195674,Am Knie,0,195633
966,195674,Bhf. Zoo,1,1956165
967,195674,Berlinerstrasse Ecke Bundesallee,2,195690
969,195674,Bundesplatz,3,1956222
970,195674,Schloßstrasse Ecke Bundesallee,4,1956955
971,195674,Feuerbachstrasse Ecke Bismarckstrasse,5,1956313
972,195674,Stadtpark Steglitz,6,19561022
973,195674,Siemensstrasse Ecke Leonorenstrasse,7,1956988
974,195674,"Lankwitz, Kirche",8,1956610
975,195674,"Lankwitz, Trippsteinstrasse",9,1956612
976,195675,Bhf. Tegel,0,1956152
977,195675,Berlinerstrasse/Alt-Tegel,1,195695
978,195675,Kettelerpfad,2,1956538
979,195675,Freie Scholle,3,1956325
980,195675,Bhf. Waidmannslust,4,1956154
981,195675,Oraniendamm Ecke Waidmannslusterdamm,5,1956757
982,195675,Am Vierrutenberg,6,195638
983,195675,"Lübars, Alt-Lübars",7,1956658
984,195676,Wentowsteig Ecke Wilhelmsruher Damm,0,19561191
985,195676,Oranienburger Strasse Ecke Eichborndamm,1,1956752
986,195676,Alt-Wittenau Ecke Holzhauserstrasse,2,195628
987,195676,Bhf. Eichbornstrasse,3,1956110
988,195676,Sportplatz Reinickendorf,4,19561013
989,195676,Kurt-Schumacher-Platz,5,1956582
990,195676,Saatwinkler Damm,6,1956936
991,195676,Bhf. Jungfernheide,7,1956123
992,195676,Luisenplatz,8,1956655
993,195676,Stuttgarter Platz,9,19561044
994,195676,Amtsgericht Charlottenburg,10,195642
995,195676,Kurfürstendamm Ecke Joachim-Friedrich-Strasse,11,1956573
996,195676,Bhf. Hohenzollerndamm,12,1956121
997,195676,U-Bhf. Fehrbelliner Platz,13,19561100
998,195677,"Hessenwinkel, Lindenstrasse",0,1956455
999,195677,S-Bhf. Wilhelmshagen,1,1956931
1000,195677,Zentralschule,2,19561241
1001,195677,Paradiesgarten,3,1956794
1002,195677,S-Bhf. Rahnsdorf,4,1956926
1003,195677,"Fichtenau, Stadtgrenze",5,1956315
1004,195678,"Altglienicke, Kirche",0,195631
1005,195678,Dankmarsteig,1,1956254
1006,195678,Wolfmarsteig,2,19561230
1007,195678,"Altglienicke, Kirche",3,195631
1008,195679,"Moabit, Wiebestrasse Strassenbahnhof",0,1956705
1009,195679,Gotzkowskystrasse Ecke Turmstrasse,1,1956377
1010,195679,Stromstrasse Ecke Turmstrasse,2,19561042
1011,195679,Rathenower Strasse Ecke Turmstrasse,3,1956856
1012,195679,Alt-Moabit/Paulstrasse,4,195619
1013,195679,Brückenallee Ecke Altonaerstrasse,5,1956207
1014,195679,Großer Stern,6,1956393
1015,195679,Lützowplatz,7,1956659
1016,195679,Potsdamer Strasse Ecke Lützowstrasse,8,1956817
1017,195679,Anhalter Bhf.,9,195646
1018,195679,U-Bhf. Hallesches Tor,10,19561108
1019,195679,U-Bhf. Gneisenaustrasse,11,19561105
1020,195679,Friesenstrasse Ecke Columbiadamm,12,1956338
1021,195679,"Tempelhof, Flughafen",13,19561069
1022,195680,Unionplatz,0,19561145
1023,195680,Turmstrasse Ecke Huttenstrasse,1,19561087
1024,195680,Gotzkowskybrücke Ecke Alt-Moabit,2,1956375
1025,195680,Hansaplatz,3,1956421
1026,195680,U-Bhf. Ernst-Reuter-Platz,4,19561098
1027,195680,Bhf. Zoo,5,1956165
1028,195680,Kurfürstendamm Ecke Joachimstalerstrasse,6,1956574
1030,195680,Berlinerstrasse Ecke Bundesallee,7,195691
1031,195680,Badenschestrasse Ecke Bundeasallee,8,195660
1032,195680,Hildegardstrasse Ecke Bundesallee,9,1956457
1033,195680,Süd-West-Korso Ecke Bundesallee,10,19561053
1034,195680,Wiesbadenerstrasse Ecke Bundesallee,11,19561203
1035,195680,Kaisereiche,12,1956515
1036,195680,Bismarckstrasse Ecke Beckerstrasse,13,1956174
1037,195680,Rubensstrasse Ecke Grazer Platz,14,1956894
1038,195680,Grazer Damm Ecke Prellerweg,15,1956384
1039,195680,Röblingstrasse Ecke Arnulfstrasse,16,1956902
1040,195680,Attilaplatz,17,195652
1041,195680,Tempelhofer Damm Ecke Friedrich-Karl-Strasse,18,19561072
1042,195680,Gottlieb-Dunkel-Strasse Ecke Germaniastrasse,19,1956373
1043,195680,Gradestrasse (51) Ecke Tempelhofer Weg,20,1956381
1044,195680,Britzer Damm Ecke Tempelhofer Weg,21,1956201
1045,195680,Fritz-Reuter-Allee Ecke Parchimerallee,22,1956339
1046,195680,Grüner Weg Ecke Buschkrugallee,23,1956402
1047,195681,"S-Bhf. Kaulsdorf, Planitzstrasse",0,1956916
1048,195681,Chemnitzer Strasse,1,1956240
1049,195681,Ulmenstrasse,2,19561144
1050,195681,Gehsener Strasse,3,1956351
1051,195681,S-Bhf. Köpenick,4,1956917
1052,195681,Bahnhofstrasse Ecke Lindenstrasse,5,195670
1053,195681,"Köpenick, Krankenhaus",6,1956599
1054,195681,Chausseehaus,7,1956237
1055,195681,Alt-Müggelheim,8,195620
1056,195682,Loewenhardtdamm Ecke Boelckestrasse,0,1956652
1057,195682,Dudenstrasse Ecke Katzbachstrasse,1,1956271
1058,195682,Monumentenstrasse Ecke Katzbachstrasse,2,1956708
1059,195682,Yorckstrasse Ecke Großbeerenstrasse,3,19561234
1060,195682,Mehringdamm Ecke Gneisenaustrasse,4,1956697
1061,195682,U-Bhf. Gneisenaustrasse,5,19561105
1062,195682,Urbanstrasse Ecke Baerwaldstrasse,6,19561150
1063,195682,U-Bhf. Prinzenstrasse,7,19561121
1064,195682,U-Bhf Kottbusser Tor,8,19561091
1065,195682,Manteuffelstrasse Ecke Köpenicker Strasse,9,1956672
1066,195682,U-Bhf. Schlesisches Tor,10,19561127
1067,195682,Schlesischestrasse Ecke Heckmannufer,11,1956948
1068,195683,Roseneck,0,1956885
1069,195683,Hubertussportplatz,1,1956480
1070,195683,Bismarckplatz,2,1956173
1071,195683,Bhf. Halensee,3,1956115
1072,195683,Joachim-Friedrich-Strasse Ecke Kurfürstendamm,4,1956501
1073,195683,Wilmersdorfer Strasse Ecke Kurfürstendamm,5,19561219
1074,195683,Uhlandstrasse Ecke Kurfürstendamm,6,19561142
1075,195683,Breitscheidplatz,7,1956199
1076,195683,Wittenbergplatz,8,19561226
1077,195683,Lützowplatz Ecke Lützowstrasse,9,1956660
1078,195683,Potsdamer Strasse Ecke Lützowstrasse,10,1956817
1079,195683,Anhalter Bhf.,11,195646
1080,195684,Rathaus Zehlendorf,0,1956855
1081,195684,U-Bhf. Oskar-Helene-Heim,1,19561119
1082,195684,U-Bhf. Onkel-Toms-Hütte,2,19561118
1083,195684,U-Bhf. Krumme Lanke,3,19561114
1084,195684,Bhf. Zehlendorf-West,4,1956164
1085,195684,Potsdamer Chaussee Ecke Spanische Allee,5,1956809
1086,195684,Bhf. Nikolassee,6,1956137
1087,195684,Bhf. Wannsee,7,1956155
1088,195684,Rathaus Wannsee,8,1956854
1089,195684,"Stölpchensee, Wilhelmplatz",9,19561047
1090,195685,Saargemünderstrasse,0,1956935
1091,195685,U-Bhf. Oskar-Helene-Heim,1,19561119
1092,195685,Sophie-Charlotte-Strasse,2,1956993
1093,195685,Potsdamerstrasse Ecke Berlinerstrasse,3,1956818
1094,195685,Bhf. Zehlendorf,4,1956163
1095,195685,Jänickestrasse,5,1956508
1096,195685,"Lichterfelde, Osteweg",6,1956639
1097,195686,"Gartenstadt, Staaken, Heidelbergplan",0,1956348
1098,195686,Eichholzbahn,1,1956282
1099,195686,Magistratsweg Ecke Brunsbütteler Damm,2,1956666
1100,195686,Egelpfuhlstrasse Ecke Brunsbütteler Damm,3,1956277
1101,195686,Brunsbütteler Damm Ecke Klosterstrasse,4,1956206
1102,195686,Rathaus Spandau,5,1956850
1103,195686,Breitestrasse Ecke Charlottenstrasse,6,1956197
1104,195686,Bhf. Spandau,7,1956145
1105,195687,Breitenbachplatz,0,1956195
1106,195687,Rathaus Steglitz,1,1956852
1107,195687,Stadtpark Steglitz,2,19561022
1108,195687,"Lankwitz, Kirche",3,1956610
1109,195687,Marchandstrasse/Lankwitzer Ring,4,1956673
1110,195687,Marienfelder Allee Ecke Lankwitzstrasse,5,1956681
1111,195687,Bhf. Marienfelde,6,1956135
1112,195688,Bhf. Steglitz,0,1956149
1113,195688,Stadtpark Steglitz,1,19561022
1114,195688,Bhf. Südende,2,1956151
1115,195688,Bhf. Mariendorf,3,1956133
1116,195688,Kaiserstrasse/Ringstrasse,4,1956521
1117,195688,"Mariendorf, Kaiserstrasse Ecke Mariendorfer Damm",5,1956676
1118,195689,"Spandau, Friedhof",0,1956998
1119,195689,Hafenplatz,1,1956412
1120,195689,Rathaus Spandau,2,1956850
1121,195689,Heerstrasse Ecke Pichelsdorferstrasse,3,1956429
1122,195689,"Gatow, Kirche",4,1956350
1123,195689,Badewiese Ecke Kladower Damm,5,195662
1124,195689,"Gatow, Flugplatz",6,1956349
1125,195689,Neukladowerallee Ecke Kladower Damm,7,1956722
1126,195689,Alt-Kladow,8,195614
1127,195689,"Groß-Glienicke, Gutshof",9,1956391
1128,195690,Germersheimer Platz,0,1956355
1129,195690,Rathaus Spandau,1,1956850
1130,195690,Heerstrasse Ecke Pichelsdorferstrasse,2,1956429
1131,195690,Weinmeisterhornweg,3,19561180
1132,195690,"Gatow, Kirche",4,1956350
1133,195690,Badewiese Ecke Kladower Damm,5,195662
1134,195690,Flugplatz,6,1956320
1135,195690,Neukladowerallee Ecke Kladower Damm,7,1956722
1136,195690,Alt-Kladow Ecke Kladower Damm,8,195615
1137,195690,"Kladow, Hottengrund (Stadtgrenze)",9,1956542
1138,195691,S-Bhf. Grünau,0,1956914
1139,195691,"Bohnsdorf, Kirche",1,1956185
1140,195691,Falkenhöhe,2,1956304
1141,195691,Waltersdorfer Chaussee (Spinne),3,19561165
1142,195691,"Schönefeld, Dorfplatz",4,1956969
1143,195692,Bhf. Lichtenberg,0,1956126
1144,195692,"Friedrichsfelde, Schloßstrasse",1,1956334
1145,195692,S-Bhf. Biesdorf,2,1956909
1146,195692,Cäcilienstrasse,3,1956246
1147,195692,"Geißenweide, Elisabethstrasse",4,1956352
1148,195692,"Alt-Marzahn, Kirche",5,195618
1149,195693,Waltersdorf,0,19561164
1150,195693,"Bohnsdorf, Waldstrasse",1,1956186
1151,195693,Lindenstrasse Ecke Waltersdorferstrasse,2,1956649
1152,195693,Merkurstrasse Ecke Schulzendorferstrasse,3,1956701
1153,195693,S-Bhf. Grünau,4,1956914
1154,195694,"Wartenberg, Siedlung",0,19561172
1155,195694,Birkholzer Weg,1,1956172
1156,195694,Falkenberger Chaussee,2,1956302
1157,195694,"Hohenschönhausen, Falkenberger Strasse",3,1956468
1158,195695,Brixplatz,0,1956203
1159,195695,Reichskanzlerplatz,1,1956862
1160,195695,Masurenallee Ecke Messedamm,2,1956694
1161,195695,Halenseestrasse Ecke Kurfürstendamm,3,1956417
1162,195695,Bhf. Halensee,4,1956115
1163,195695,Hochmeisterplatz,5,1956465
1164,195695,U-Bhf. Fehrbelliner Platz,6,19561100
1165,195695,Bundesallee Ecke Badensche Strasse,7,1956219
1166,195695,Rathaus Schöneberg,8,1956846
1167,195695,Innsbrucker Platz,9,1956490
1168,195695,Dominicusstrasse Ecke Hauptstrasse,10,1956265
1169,195695,Kaiser-Wilhelm-Platz,11,1956512
1170,195695,Katzbachstrasse Ecke Dudenstrasse,12,1956534
1171,195695,U-Bhf. Flughafen,13,19561101
1172,195695,Friesenstrasse Ecke Columbiadamm,14,1956338
1173,195695,U-Bhf. Boddinstrasse,15,19561093
1174,195695,Rathaus Neukölln,16,1956843
1175,195695,Finowstrasse Ecke Sonnenallee,17,1956316
1176,195696,Leninallee Ecke Dimitroffstrasse,0,1956622
1177,195696,Steuerhaus,1,19561031
1178,195696,Weißenseer Weg,2,19561187
1179,195696,Genslerstrasse,3,1956353
1180,195696,Dingelstädterstrasse,4,1956263
1181,195696,"Marzahn, Bürknersfelde",5,1956692
1182,195697,"Buch, Zepernicker Strasse",0,1956210
1183,195697,Lindenberger Weg,1,1956644
1184,195697,"Karow, Kirche",2,1956531
1185,195697,"Strasse 46, Güteraußenring",3,19561033
1186,195697,"Blankenburg, Bahnhofstrasse",4,1956180
1187,195697,"Heinersdorf, Kirche",5,1956439
1188,195697,Gustav-Adolf-Strasse Ecke Rennbahnstrasse,6,1956406
1189,195697,Ostseestrasse Ecke Prenzlauerallee,7,1956774
1190,195698,Bürknersfelde,0,1956230
1191,195698,"Marzahn, Pekrunstrasse",1,1956693
1192,195698,Güterbahnhof Springpfuhl,2,1956409
1193,195698,S-Bhf. Friedrichsfelde-Ost,3,1956910
1194,195698,U-Bhf. Friedrichsfelde,4,19561103
1195,195699,"Hönow, Dorfstrasse",0,1956484
1196,195699,Hönowerstrasse Ecke Greifswalder Strasse,1,1956485
1197,195699,Am Rosenhag,2,195636
1198,195699,S-Bhf. Mahlsdorf,3,1956920
1199,1956100,Greifswalder Strasse,0,1956386
1200,1956100,Am Rosenhag,1,195636
1201,1956100,S-Bhf. Mahlsdorf,2,1956920
1202,1956101,"Wilhelmsruh, Fontanestrasse",0,19561214
1203,1956101,Hauptstrasse Ecke Edelweißstrasse,1,1956426
1204,1956101,Provinzstrasse,2,1956833
1205,1956101,Heinrich-Mann-Platz,3,1956442
1206,1956101,"Florastrasse, S-Bhf. Pankow",4,1956318
1207,1956101,Kissingenplatz,5,1956540
1208,1956101,Prenzlauer Promenade Ecke Thulestrasse,6,1956823
1209,1956101,Mirbachplatz,7,1956703
1210,1956101,Rennbahnstrasse,8,1956871
1211,1956101,"Weißensee, Feldmannstrasse",9,19561182
1212,1956102,"Ahrensfeld, Lindenbergerstrasse",0,19564
1213,1956102,Bhf. Ahrensfelde,1,1956106
1214,1956102,"Falkenberg, Schule",2,1956301
1215,1956102,Strasse nach Wartenberg,3,19561034
1216,1956102,Malchower Weg,4,1956671
1217,1956102,Klement-Gottwald-Allee Ecke Falkenbergerstrasse,5,1956546
1218,1956102,"Weißensee, Feldtmannstrasse",6,19561183
1219,1956102,"Malchow, Dorfstrasse",7,1956670
1220,1956103,Bhf. Schöneweide,0,1956142
1221,1956103,Sterndamm Ecke Königsheideweg,1,19561030
1222,1956103,Baumschulenstrasse Ecke Südostallee,2,195676
1223,1956103,"S-Bhf. Baumschulenweg, Glanzstrasse",3,1956908
1224,1956104,Potsdamer Strasse Ecke Fischerhüttenstrasse,0,1956816
1225,1956104,Berlinerstrasse Ecke Teltower Damm,1,195692
1226,1956104,Sundgauer Strasse Ecke Berlinerstrasse,2,19561052
1227,1956104,Thielallee Ecke Berlinerstrasse,3,19561073
1228,1956104,Drakestrasse Ecke Unter den Eichen,4,1956269
1229,1956104,Asternplatz,5,195651
1230,1956104,Hindenburgdamm Ecke Schloßstrasse,6,1956459
1231,1956104,Rathaus Steglitz,7,1956852
1232,1956104,"Bundesallee, Titaniapalast",8,1956221
1233,1956104,Kaisereiche,9,1956515
1234,1956104,Innsbrucker Platz,10,1956490
1235,1956104,Dominicusstrasse Ecke Hauptstrasse,11,1956265
1236,1956104,Kaiser-Wilhelm-Platz,12,1956512
1237,1956104,Bülowstrasse Ecke Potsdamerstrasse,13,1956228
1238,1956104,Lützowstrasse Ecke Potsdamerstrasse,14,1956662
1239,1956104,"Potsdamer Brücke, Am Karlsbad",15,1956808
1240,1956105,"Kaulsdorf, Bausdorfstrasse",0,1956536
1241,1956105,Ridbacher Strasse,1,1956877
1242,1956105,Baltenring,2,195673
1243,1956105,Uckermarkstrasse,3,19561136
1244,1956105,"Kaulsdorf, Hönowerstrasse Ecke Bausdorfstrasse",4,1956537
1245,1956106,Machandelweg Ecke Charlottenburger Chaussee,0,1956663
1246,1956106,U-Bhf. Ruhleben,1,19561124
1247,1956106,Teltowerstrasse Ecke Charlottenburgerstrasse,2,19561065
1248,1956106,"Spandau, Markt",3,19561000
1249,1956106,Rathaus Spandau,4,1956850
1250,1956106,Bhf. Spandau-West,5,1956147
1251,1956106,Hochgerichtstrasse Ecke Seegefelderstrasse,6,1956464
1252,1956106,Zeppelinstrasse Ecke Falkenhagener Chaussee,7,19561244
1253,1956106,"Beerwinkel, Wasserwerk",8,195681
1254,1956106,"Spandau, Waldkrankenhaus",9,19561004
1255,1956107,"Emser Platz, Pfalzburgerstrasse",0,1956294
1256,1956107,Fehrbelliner Platz,1,1956307
1257,1956107,Konstanzerstrasse Ecke Hohenzollerndamm,2,1956559
1258,1956107,Bhf. Hohenzollerndamm,3,1956121
1259,1956107,Flinsbergerplatz,4,1956317
1260,1956107,Elsterplatz,5,1956292
1261,1956107,"Roseneck, Rheinbabenallee, Grunewald",6,1956888
1262,1956108,Bhf. Wannsee,0,1956155
1263,1956108,Bahnhofstrasse Ecke Königstrasse,1,195669
1264,1956108,Königstrasse Ecke Am Grossen Wannsee,2,1956594
1265,1956108,Koblanckstrasse,3,1956554
1266,1956108,Colomierstrasse,4,1956243
1267,1956108,Krankenhaus Wannsee,5,1956568
1268,1956108,Zum Heckeshorn,6,19561253
1269,1956108,Krankenhaus Heckeshorn,7,1956565
1270,1956109,Alt-Marienfelde Ecke Marienfelderallee,0,195617
1271,1956109,Gutshof Marienfelde,1,1956407
1272,1956109,Bhf. Buckower Chaussee,2,1956109
1273,1956109,Lichtenrader Damm Ecke Buckower Chaussee,3,1956634
1274,1956109,Buckower Damm Ecke Alt-Buckow,4,1956214
1275,1956109,Johannisthaler Chaussee Ecke Rudower Strasse,5,1956505
1276,1956109,Wildmeisterdamm Ecke Neuköllnerstrasse,6,19561210
1277,1956109,Neuköllnerstrasse Ecke Köpenickerstrasse,7,1956727
1278,1956109,"Rudow, Kanalstrasse Ecke Mimosenweg",8,1956896
1279,1956110,"Wilhelmsruh, Fontanestrasse",0,19561214
1280,1956110,Hauptstrasse Ecke Edelweißstrasse,1,1956426
1281,1956110,Provinzstrasse,2,1956833
1282,1956110,"Schulzestrasse, S-Bhf. Wollkanstrasse",3,1956964
1283,1956110,"Florastrasse, S-Bhf. Pankow",4,1956318
1284,1956110,Prenzlauerstrasse Ecke Granitzstrasse,5,1956826
1285,1956110,"Heinersdorf, Kirche",6,1956439
1286,1956110,"Weißensee, Rennbahnstrasse Ecke Gustav-Adolf-Strasse",7,19561184
1287,1956110,"Weißensee, Schwarzelfenweg",8,19561186
1288,1956111,Bhf. Wannsee,0,1956155
1289,1956111,Königstrasse Ecke Bahnhofstrasse,1,1956595
1290,1956111,Am Grossen Wannsee,2,195632
1291,1956111,Pfaueninselchaussee,3,1956799
1292,1956111,Rathaus Wannsee,4,1956854
1293,1956111,Friedenstrasse,5,1956328
1294,1956111,Golfplatz,6,1956372
1295,1956111,Nikolskoer Weg,7,1956730
1296,1956111,Glienicker Brücke,8,1956365
1297,1956112,"Glienicke, Kirche",0,1956363
1298,1956112,Sophienstrasse,1,1956995
1299,1956112,"Glienicke, Pilz",2,1956364
1300,1956112,"Schildow, Kirche",3,1956943
1301,1956112,"Blankenfelde, Hauptstrasse",4,1956182
1302,1956112,Industriebahn,5,1956488
1303,1956112,"Nordend, Schillerstrasse",6,1956738
1304,1956112,Ossietzkyplatz,7,1956768
1305,1956112,Kurt-Fischer-Platz,8,1956579
1306,1956112,"Pankow, Rathaus",9,1956782
1307,1956112,U-Bhf. Vinetastrasse,10,19561133
1308,1956113,Waldesruh,0,19561162
1309,1956113,Summterstrasse,1,19561050
1310,1956113,Hultschiner Damm,2,1956481
1311,1956113,Chemnitzer Ecke Ulmenstrasse,3,1956239
1312,1956113,Zimmermannstrasse,4,19561247
1313,1956113,Glewitzerstrasse,5,1956361
1314,1956113,"Alt-Biesdorf, Oberfeldstrasse",6,195613
1315,1956113,Schloßstrasse Ecke Alt-Friedrichsfelde,7,1956954
1316,1956113,U-Bhf. Friedrichsfelde,8,19561103
1317,1956114,Kinderheim,0,1956539
1318,1956114,Friedrich-Junge-Strasse,1,1956329
1319,1956114,Markgrafendamm,2,1956685
1320,1956115,"Scharnhorststrasse, Volkspolizeikrankenhaus",0,1956942
1321,1956115,Invalidenstrasse Ecke Chausseestrasse,1,1956496
1322,1956115,Oranienburger Tor,2,1956753
1323,1956115,S-Bhf. Friedrichstrasse,3,1956912
1324,1956115,Unter den Linden Ecke Friedrichstrasse,4,19561148
1325,1956115,"Spandauerstrasse, Rathaus",5,19561008
1326,1956115,Bhf. Alexanderplatz,6,1956107
1327,1956115,Königstor,7,1956592
1328,1956115,"Arnsalder Platz, Dimitroffstrasse",8,195648
1329,1956116,Lindenberg,0,1956643
1330,1956116,"Malchow, Dorfstrasse",1,1956670
1331,1956117,Bhf. Hohen Neuendorf,0,1956120
1332,1956117,"Bergfelde, Karl-Marx-Strasse",1,195686
1333,1956117,"Schönfließ , Kirche",2,1956971
1335,1956117,Leninplatz,3,1956627
1336,1956117,"Glienicke, Elsässerstrasse",4,1956362
1337,1956118,Warschauer Brücke,0,19561168
1338,1956118,Schlesisches Tor,1,1956947
1339,1956118,Görlitzer Bahnhof (Oranienstr.),2,1956408
1340,1956118,Kottbusser Tor,3,1956563
1341,1956118,Prinzenstr.,4,1956830
1342,1956118,Hallesches Tor,5,1956419
1343,1956118,Möckernbrücke,6,1956711
1344,1956118,Gleisdreieck,7,1956360
1345,1956118,Kurfürstenstr.,8,1956577
1346,1956118,Nollendorfplatz,9,1956733
1347,1956118,Wittenbergplatz,10,19561228
1348,1956118,Uhlandstrasse,11,19561140
1349,1956119,Nollendorfplatz,0,1956733
1350,1956119,Viktoria-Luise-Platz,1,19561157
1351,1956119,Bayerischer Platz,2,195679
1352,1956119,Rathaus Schöneberg,3,1956848
1353,1956119,Innsbrucker Platz (Hauptstr.),4,1956494
1354,1956120,Kurt-Schumacher-Platz,0,1956584
1355,1956120,Afrikanische Str.,1,19563
1356,1956120,Rehberge,2,1956860
1357,1956120,Seestr.,3,1956979
1358,1956120,Leopoldplatz,4,1956630
1359,1956120,Bahnhof Wedding,5,195668
1360,1956120,Reinickendorfer Str.,6,1956868
1361,1956120,Schwartzkopffstr.,7,1956965
1362,1956120,Nordbahnhof,8,1956736
1363,1956120,Oranienburger Tor,9,1956755
1364,1956120,Bahnhof Friedrichstr. (Stadtbahn),10,195665
1365,1956120,Französische Str.,11,1956322
1366,1956120,Stadtmitte (Leipziger Str.),12,19561019
1367,1956120,Kochstr.,13,1956555
1368,1956120,Hallesches Tor,14,1956419
1369,1956120,Mehringdamm,15,1956696
1370,1956120,Gneisenaustr.,16,1956367
1371,1956120,Südstern,17,19561056
1372,1956120,Hermannplatz,18,1956447
1373,1956120,Rathaus Neukölln,19,1956845
1374,1956120,Karl-Marx-Str.,20,1956525
1375,1956120,Neukölln (Südring),21,1956724
1376,1956120,Grenzallee,22,1956388
1377,1956121,Mehringdamm,0,1956696
1378,1956121,Flughafen,1,1956319
1379,1956121,Paradestrasse,2,1956793
1380,1956121,Tempelhof (Südring),3,19561068
1381,1956122,Gesundbrunnen,0,1956357
1382,1956122,Voltastr.,1,19561159
1383,1956122,Bernauer Str.,2,195698
1384,1956122,Rosenthaler Platz,3,1956892
1385,1956122,Weinmeisterstr.,4,19561181
1386,1956122,Alexanderplatz,5,19568
1387,1956122,Jannowitzbrücke,6,1956499
1388,1956122,Neanderstr.,7,1956716
1389,1956122,Moritzplatz,8,1956709
1390,1956122,Kottbusser Tor,9,1956563
1391,1956122,Kottbusser Damm (Schönleinstr.),10,1956561
1392,1956122,Hermannplatz,11,1956447
1393,1956122,Boddinstr.,12,1956184
1394,1956122,Leinestr.,13,1956619
1395,1956123,Alexanderplatz,0,19568
1396,1956123,Schillingstr.,1,1956945
1397,1956123,Strausberger Platz,2,19561039
1398,1956123,Marchlewskistr.,3,1956674
1399,1956123,Bersarinstr. (Frankfurter Tor),4,1956102
1400,1956123,Samariterstr.,5,1956939
1401,1956123,Stalinallee,6,19561027
1402,1956123,Magdalenenstr.,7,1956665
1403,1956123,Bahnhof Lichtenberg (Zentralfriedhof),8,195666
1404,1956123,Friedrichsfelde (Tierpark),9,1956332
1405,1956124,Gesundbrunnen,0,1956356
1406,1956124,Schönhauser Allee,1,1956972
1407,1956124,Prenzlauer Allee,2,1956820
1408,1956124,Greifswalder Str.,3,1956385
1409,1956124,Leninallee,4,1956620
1410,1956124,Zentralviehhof,5,19561242
1411,1956124,Stalinallee,6,19561025
1412,1956124,Ostkreuz,7,1956773
1413,1956124,Treptower Park,8,19561084
1414,1956124,Sonnenallee,9,1956989
1415,1956124,Neukölln,10,1956723
1416,1956124,Hermannstr.,11,1956448
1417,1956124,Tempelhof,12,19561067
1418,1956124,Papestr.,13,1956792
1419,1956124,Schöneberg,14,1956967
1420,1956124,Innsbrucker Platz,15,1956491
1421,1956124,Wilmersdorf,16,19561216
1422,1956124,Schmargendorf,17,1956958
1423,1956124,Hohenzollerndamm,18,1956473
1424,1956124,Halensee,19,1956416
1425,1956124,Westkreuz,20,19561196
1426,1956124,Witzleben,21,19561229
1427,1956124,Westend,22,19561194
1428,1956124,Jungfernheide,23,1956507
1429,1956124,Beusselstr.,24,1956105
1430,1956124,Putlitzstr.,25,1956835
1431,1956124,Wedding,26,19561174
1432,1956124,Gesundbrunnen,27,1956356
1433,1956125,Westend,0,19561194
1434,1956125,Witzleben,1,19561229
1435,1956125,Westkreuz,2,19561196
1436,1956125,Halensee,3,1956416
1437,1956125,Hohenzollerndamm,4,1956473
1438,1956125,Schmargendorf,5,1956958
1439,1956125,Wilmersdorf,6,19561216
1440,1956125,Innsbrucker Platz,7,1956491
1441,1956125,Schöneberg,8,1956967
1442,1956125,Papestr.,9,1956792
1443,1956125,Tempelhof,10,19561067
1444,1956125,Hermannstr.,11,1956448
1445,1956125,Neukölln,12,1956723
1446,1956125,Köllnische Heide,13,1956585
1447,1956125,Baumschulenweg,14,195677
1448,1956125,Schöneweide,15,1956970
1449,1956125,Betriebsbahnhof Schöneweide,16,1956104
1450,1956125,Adlershof,17,19561
1451,1956125,Grünau,18,1956399
1452,1956126,Blankenburg,0,1956179
1453,1956126,Pankow-Heinersdorf,1,1956783
1454,1956126,Pankow,2,1956779
1455,1956126,Schönhauser Allee,3,1956972
1456,1956126,Prenzlauer Allee,4,1956820
1457,1956126,Greifswalder Str.,5,1956385
1458,1956126,Leninallee,6,1956620
1459,1956126,Zentralviehhof,7,19561242
1460,1956126,Stalinallee,8,19561025
1461,1956126,Ostkreuz,9,1956773
1462,1956126,Warschauer Str.,10,19561169
1463,1956127,Gesundbrunnen,0,1956356
1464,1956127,Schönhauser Allee,1,1956972
1465,1956127,Prenzlauer Allee,2,1956820
1466,1956127,Greifswalder Str.,3,1956385
1467,1956127,Leninallee,4,1956620
1468,1956127,Zentralviehhof,5,19561242
1469,1956127,Stalinallee,6,19561025
1470,1956127,Ostkreuz,7,1956773
1471,1956127,Warschauer Str.,8,19561169
1472,1956128,Jungfernheide,0,1956507
1473,1956128,Wernerwerk,1,19561192
1474,1956128,Siemensstadt,2,1956985
1475,1956128,Gartenfeld,3,1956344
1476,1956129,Staaken,0,19561015
1477,1956129,Spandau West,1,1956997
1478,1956129,Spandau,2,1956996
1479,1956129,Pichelsberg,3,1956800
1480,1956129,Reichssportfeld,4,1956865
1481,1956129,Heerstr.,5,1956428
1482,1956129,Eichkamp,6,1956283
1483,1956129,Westkreuz,7,19561196
1484,1956129,Charlottenburg,8,1956235
1485,1956129,Savignyplatz,9,1956941
1486,1956129,Zoologischer Garten,10,19561249
1487,1956129,Tiergarten,11,19561077
1488,1956129,Bellevue,12,195683
1489,1956129,Lehrter Stadtbahnhof,13,1956615
1490,1956129,Friedrichstr.,14,1956337
1491,1956129,Marx-Engels-Platz,15,1956691
1492,1956129,Alexanderplatz,16,19567
1493,1956129,Jannowitzbrücke,17,1956498
1494,1956129,Ostbahnhof,18,1956771
1495,1956129,Warschauer Str.,19,19561169
1496,1956129,Ostkreuz,20,1956773
1497,1956129,Nöldnerplatz,21,1956740
1498,1956129,Lichtenberg,22,1956632
1499,1956129,Friedrichsfelde Ost,23,1956333
1500,1956129,Biesdorf,24,1956168
1501,1956129,Kaulsdorf,25,1956535
1502,1956129,Mahlsdorf,26,1956668
1503,1956129,Hoppegarten (Mark),27,1956479
1504,1956129,Neuenhagen (b Bln),28,1956721
1505,1956129,Fredersdorf (b Bln),29,1956324
1506,1956129,Giebelsee,30,1956358
1507,1956129,Strausberg,31,19561036
1508,1956130,Strausberg,0,19561036
1509,1956130,Strausberg Stadt,1,19561038
1510,1956130,Strausberg Nord,2,19561037
1511,1956131,Potsdam,0,1956807
1512,1956131,Babelsberg,1,195658
1513,1956131,Griebnitzsee,2,1956389
1514,1956131,Wannsee,3,19561167
1515,1956131,Nikolassee,4,1956729
1516,1956131,Grunewald,5,1956395
1517,1956131,Westkreuz,6,19561196
1518,1956131,Charlottenburg,7,1956235
1519,1956131,Savignyplatz,8,1956941
1520,1956131,Zoologischer Garten,9,19561249
1521,1956131,Tiergarten,10,19561077
1522,1956131,Bellevue,11,195683
1523,1956131,Lehrter Stadtbahnhof,12,1956615
1524,1956131,Friedrichstr.,13,1956337
1525,1956131,Marx-Engels-Platz,14,1956691
1526,1956131,Alexanderplatz,15,19567
1527,1956131,Jannowitzbrücke,16,1956498
1528,1956131,Ostbahnhof,17,1956771
1529,1956131,Warschauer Str.,18,19561169
1530,1956131,Ostkreuz,19,1956773
1531,1956131,Rummelsburg,20,1956899
1532,1956131,Betriebsbahnhof Rummelsburg,21,1956103
1533,1956131,Karlshorst,22,1956528
1534,1956131,Wuhlheide,23,19561232
1535,1956131,Köpenick,24,1956597
1536,1956131,Hirschgarten,25,1956461
1537,1956131,Friedrichshagen,26,1956335
1538,1956131,Rahnsdorf,27,1956838
1539,1956131,Wilhelmshagen,28,19561212
1540,1956131,Erkner,29,1956296
1541,1956132,Falkensee,0,1956306
1542,1956132,Albrechtshof,1,19566
1543,1956132,Spandau West,2,1956997
1544,1956132,Spandau,3,1956996
1545,1956132,Pichelsberg,4,1956800
1546,1956132,Reichssportfeld,5,1956865
1547,1956132,Heerstr.,6,1956428
1548,1956132,Eichkamp,7,1956283
1549,1956132,Westkreuz,8,19561196
1550,1956132,Charlottenburg,9,1956235
1551,1956132,Savignyplatz,10,1956941
1552,1956132,Zoologischer Garten,11,19561249
1553,1956132,Tiergarten,12,19561077
1554,1956132,Bellevue,13,195683
1555,1956132,Lehrter Stadtbahnhof,14,1956615
1556,1956132,Friedrichstr.,15,1956337
1557,1956132,Marx-Engels-Platz,16,1956691
1558,1956132,Alexanderplatz,17,19567
1559,1956132,Jannowitzbrücke,18,1956498
1560,1956132,Ostbahnhof,19,1956771
1561,1956132,Warschauer Str.,20,19561169
1562,1956132,Ostkreuz,21,1956773
1563,1956132,Treptower Park,22,19561084
1564,1956132,Plänterwald,23,1956803
1565,1956132,Baumschulenweg,24,195677
1566,1956132,Schöneweide,25,1956970
1567,1956132,Betriebsbahnhof Schöneweide,26,1956104
1568,1956132,Adlershof,27,19561
1569,1956132,Grünau,28,1956399
1570,1956132,Eichwalde,29,1956284
1571,1956132,Zeuthen,30,19561245
1572,1956132,Wildau,31,19561208
1573,1956132,Königs Wusterhausen,32,1956590
1574,1956133,Spandau West,0,1956997
1575,1956133,Spandau,1,1956996
1576,1956133,Siemensstadt-Fürstenbrunn,2,1956986
1577,1956133,Jungfernheide,3,1956507
1578,1956133,Beusselstr.,4,1956105
1579,1956133,Putlitzstr.,5,1956835
1580,1956133,Wedding,6,19561174
1581,1956133,Gesundbrunnen,7,1956356
1582,1956133,Schönhauser Allee,8,1956972
1583,1956133,Prenzlauer Allee,9,1956820
1584,1956133,Greifswalder Str.,10,1956385
1585,1956133,Leninallee,11,1956620
1586,1956133,Zentralviehhof,12,19561242
1587,1956133,Stalinallee,13,19561025
1588,1956133,Ostkreuz,14,1956773
1589,1956133,Treptower Park,15,19561084
1590,1956133,Plänterwald,16,1956803
1591,1956133,Baumschulenweg,17,195677
1592,1956133,Schöneweide,18,1956970
1593,1956133,Oberspree,19,1956744
1594,1956133,Spindlersfeld,20,19561010
1595,1956134,Oranienburg,0,1956750
1596,1956134,Lehnitz,1,1956614
1597,1956134,Borgsdorf,2,1956187
1598,1956134,Birkenwerder,3,1956171
1599,1956134,Hohen-Neuendorf (b Bln),4,1956467
1600,1956134,Frohnau,5,1956340
1601,1956134,Hermsdorf,6,1956450
1602,1956134,Waidmannslust,7,19561160
1603,1956134,Wittenau (Nordbahn),8,19561225
1604,1956134,Wilhelmsruh,9,19561213
1605,1956134,Schönholz,10,1956975
1606,1956134,Wollankstr.,11,19561231
1607,1956134,Bornholmer Str.,12,1956188
1608,1956134,Gesundbrunnen,13,1956356
1609,1956134,Humboldthain,14,1956482
1610,1956134,Nordbahnhof,15,1956735
1611,1956134,Oranienburger Str.,16,1956751
1612,1956134,Friedrichstr.,17,1956337
1613,1956134,Unter den Linden,18,19561147
1614,1956134,Potsdamer Platz,19,1956810
1615,1956134,Anhalter Bahnhof,20,195644
1616,1956134,Großgörschenstr.,21,1956394
1617,1956134,Schöneberg,22,1956967
1618,1956134,Friedenau,23,1956327
1619,1956134,Feuerbachstr.,24,1956312
1620,1956134,Steglitz,25,19561028
1621,1956134,Botanischer Garten,26,1956191
1622,1956134,Lichterfelde West,27,1956637
1623,1956134,Sundgauer Str.,28,19561051
1624,1956134,Zehlendorf,29,19561237
1625,1956134,Zehlendorf West,30,19561238
1626,1956134,Schlachtensee,31,1956946
1627,1956134,Nikolassee,32,1956729
1628,1956134,Wannsee,33,19561167
1629,1956135,Zehlendorf,0,19561237
1630,1956135,Düppel-Kleinmachnow,1,1956274
1631,1956136,Wannsee,0,19561167
1632,1956136,Dreilinden,1,1956270
1633,1956136,Stahnsdorf,2,19561023
1634,1956137,Velten (Mark),0,19561152
1635,1956137,Hohenschöpping,1,1956472
1636,1956137,Hennigsdorf (b Bln),2,1956443
1637,1956137,Heiligensee,3,1956434
1638,1956137,Schulzendorf (b Tegel),4,1956963
1639,1956137,Tegel,5,19561058
1640,1956137,Eichbornstr.,6,1956280
1641,1956137,Wittenau (Kremmener Bahn),7,19561224
1642,1956137,Reinickendorf,8,1956866
1643,1956137,Schönholz,9,1956975
1644,1956137,Wollankstr.,10,19561231
1645,1956137,Bornholmer Str.,11,1956188
1646,1956137,Gesundbrunnen,12,1956356
1647,1956137,Humboldthain,13,1956482
1648,1956137,Nordbahnhof,14,1956735
1649,1956137,Oranienburger Str.,15,1956751
1650,1956137,Friedrichstr.,16,1956337
1651,1956137,Unter den Linden,17,19561147
1652,1956137,Potsdamer Platz,18,1956810
1653,1956137,Anhalter Bahnhof,19,195644
1654,1956137,Yorckstr.,20,19561233
1655,1956137,Papestr.,21,1956792
1656,1956137,Priesterweg,22,1956827
1657,1956137,Mariendorf,23,1956675
1658,1956137,Marienfelde,24,1956680
1659,1956137,Buckower Ch.,25,1956213
1660,1956137,Lichtenrade,26,1956633
1661,1956137,Mahlow,27,1956667
1662,1956137,Blankenfelde (Kr. Zossen),28,1956181
1663,1956137,Dahlewitz,29,1956249
1664,1956137,Rangsdorf,30,1956841
1665,1956138,Bernau (b Bln),0,195697
1666,1956138,Zepernick (Kr Niederbarnim),1,19561243
1667,1956138,Röntgental,2,1956903
1668,1956138,Buch,3,1956209
1669,1956138,Karow,4,1956530
1670,1956138,Blankenburg,5,1956179
1671,1956138,Pankow-Heinersdorf,6,1956783
1672,1956138,Pankow,7,1956779
1673,1956138,Bornholmer Str.,8,1956188
1674,1956138,Gesundbrunnen,9,1956356
1675,1956138,Humboldthain,10,1956482
1676,1956138,Nordbahnhof,11,1956735
1677,1956138,Oranienburger Str.,12,1956751
1678,1956138,Friedrichstr.,13,1956337
1679,1956138,Unter den Linden,14,19561147
1680,1956138,Potsdamer Platz,15,1956810
1681,1956138,Anhalter Bahnhof,16,195644
1682,1956138,Yorckstr.,17,19561233
1683,1956138,Papestr.,18,1956792
1684,1956138,Priesterweg,19,1956827
1685,1956138,Südende,20,19561054
1686,1956138,Lankwitz,21,1956609
1687,1956138,Lichterfelde Ost,22,1956635
1688,1956138,Lichterfelde Süd,23,1956636
1689,1956138,Teltow,24,19561061
1690,1956139,Kosterstrasse,0,1956560
1691,1956139,Andreasstrasse,1,195643
1692,1956139,Küstriner Platz,2,1956606
1693,1956139,Warschauer Strasse,3,19561170
1694,1956139,Neue Bahnhofstrasse,4,1956719
1695,1956139,S-Bhf. Rummelsburg,5,1956927
1696,1956139,Münsterlandstrasse,6,1956715
1697,1956139,Bhf. Lichtenberg,7,1956126
1698,1956139,Stalinallee,8,19561024
1699,1956139,"BVG-Bf. Lichtenberg, Siegfriestrasse",9,195657
1700,1956139,Roederplatz,10,1956882
1701,1956139,Proskauer Ecke Dolziger Strasse,11,1956832
1702,1956139,Leninallee Ecke Dimitroffstrasse,12,1956622
1703,1956139,Dimitroffstrasse Ecke Greifswalderstrasse,13,1956259
1704,1956139,Königstor,14,1956592
1705,1956139,U-Bhf. Alexanderplatz,15,19561092
1706,1956139,Klosterstrasse,16,1956552
1707,1956140,Bürknersfelde,0,1956230
1708,1956140,"Alt-Marzahn, Kirche",1,195618
1709,1956140,Elisabethstrasse,2,1956287
1710,1956140,Cecilienstrasse,3,1956234
1711,1956140,S-Bhf. Biesdorf,4,1956909
1712,1956140,Schlossstrasse Ecke Alt-Friedrichsfelde,5,1956949
1713,1956140,Bhf. Lichtenberg,6,1956126
1714,1956141,Ostbahnhof,0,1956770
1715,1956141,Küstriner Platz,1,1956606
1716,1956141,Stalinallee,2,19561024
1717,1956141,Leninplatz,3,1956626
1719,1956141,Königstor,4,1956592
1720,1956141,Prenzlauer Tor,5,1956825
1721,1956141,Rosenthaler Platz,6,1956890
1722,1956141,Oranienburger Tor,7,1956753
1723,1956141,Robert-Koch-Platz,8,1956880
1724,1956142,Bürknersfelde,0,1956230
1725,1956142,Dingelstädter Strasse,1,1956262
1726,1956142,Siegfriestrasse,2,1956984
1727,1956142,Weißenseer Weg,3,19561187
1728,1956142,Oderbruchstrasse,4,1956747
1729,1956142,Dimitroffstrasse,5,1956258
1730,1956143,Kladow,0,1956541
1731,1956143,Wannsee,1,19561166
1732,1956144,Wendenschloß,0,19561189
1733,1956144,Grünau,1,1956398
