,line_id,stop_name,stop_order,stop_id
0,19801,"Moabit, Waldstrasse",0,1980936
1,19801,Turmstrasse,1,19801472
3,19801,Alt-Moabit,2,198042
5,19801,Franklinstrasse,3,1980389
6,19801,Otto-Suhr-Allee,4,19801040
7,19801,Bismarckstrasse,5,1980176
11,19801,Kantstrasse,6,1980684
13,19801,Kurfürstendamm,7,1980768
14,19801,Olivaer Platz,8,19801006
15,19801,U-Bhf. Konstanzerstrasse,9,19801512
16,19801,U-Bhf. Fehrbelliner Platz,10,19801491
17,19801,U-Bhf. Blissestrasse,11,19801483
18,19801,Hildegardstrasse,12,1980584
19,19801,Laubacherstrasse,13,1980808
20,19801,U-Bhf. Breitenbachplatz,14,19801485
21,19801,U-Bhf. Dahlem-Dorf,15,19801487
22,19801,Pacelli-/Thielallee,16,19801043
23,19801,Königin-Luise-Strasse,17,1980785
24,19801,U-Bhf. Oskar-Helene-Heim,18,19801531
25,19801,Winfriedstrasse,19,19801669
26,19801,Berlinerstrasse,20,1980135
29,19801,Rathaus Zehlendorf,21,19801144
30,19801,Hampsteadstrasse,22,1980529
32,19801,Wismarerstrasse,23,19801673
33,19801,"Lichterfelde, Lindenstrasse",24,1980851
34,19802,Haselhorster Damm,0,1980537
35,19802,Gartenfelderstrasse,1,1980427
37,19802,Paulsternstrasse,2,19801067
38,19802,Nonnendammallee,3,1980989
39,19802,U-Bhf. Rohrdamm,4,19801541
40,19802,Fürstenbrunner Weg/Friedhof,5,1980422
42,19802,Spandauer Damm,6,19801363
43,19802,U-Bhf. Kaiserdamm,7,19801508
44,19802,ICC/Omnibusbahnhof,8,1980634
45,19802,Dernburgstrasse,9,1980281
46,19802,Amtgerichtsplatz,10,198082
47,19802,Kurfürstendamm,11,1980768
48,19802,Henriettenplatz,12,1980562
49,19802,Rathenauplatz,13,19801146
50,19802,Herbertstrasse/BSC-Sportplatz,14,1980563
51,19802,Elsterplatz,15,1980331
52,19802,Hundekehlestrasse,16,1980622
53,19802,Königen-Luise-Strasse/Museum Dahlem,17,1980783
54,19802,U-Bhf. Thielplatz,18,19801557
55,19802,Corrensplatz,19,1980269
56,19802,Berlinerstrasse,20,1980135
59,19802,Teltower Damm,21,19801442
60,19802,Rathaus Zehlendorf,22,19801144
61,19802,Behring-Krankenhaus,23,1980124
62,19802,"Zehlendorf-Süd, Sachtlebenstrasse Ecke Lupsteiner Weg",24,19801697
63,19803,Dahlem Waldfriedhof,0,1980273
64,19803,U-Bhf. Oskar-Helene-Heim,1,19801531
65,19803,Garystrasse,2,1980429
66,19803,Corrensplatz,3,1980269
68,19803,Berlinerstrasse,4,1980136
70,19803,Adolf-Martens-Strasse,5,19806
73,19803,Drakestrasse,6,1980301
74,19803,Gardeschützenweg,7,1980426
75,19803,Hindenburgdamm/Wiesenbaude,8,1980587
77,19803,Ostpreußendamm,9,19801035
78,19803,Marienstrasse/Königswarter Krankenhaus,10,1980916
80,19803,Morgensternstrasse,11,1980945
81,19803,Kranoldplatz,12,1980757
83,19803,Hildburghauserstrasse,13,1980583
84,19803,Marienfelder Allee,14,1980914
85,19803,Alt-Marienfelde,15,198039
86,19803,An der Heilandsweide,16,198084
87,19803,Stegerwaldstrasse,17,19801393
88,19803,Hranitzkystrasse,18,1980617
90,19803,Daimlerstrasse,19,1980277
91,19803,Wilhelm-von-Siemens-Strasse,20,19801651
92,19803,Alt-Mariendorf,21,198037
93,19803,U-Bhf. Alt-Mariendorf,22,19801479
94,19804,S-Bhf. Marzahn,0,19801239
95,19804,BWF Marzahn,1,1980111
97,19804,Rhinstrasse,2,19801173
98,19804,Genslerstrasse,3,1980446
99,19804,Zechlinerstrasse,4,19801695
100,19804,Mittelstrasse,5,1980934
102,19804,Ho-Chi-Minh-Strasse,6,1980593
103,19804,S-Bhf. Leninallee,7,19801235
104,19804,Dimitroffstrasse,8,1980290
107,19804,Leninplatz,9,1980826
108,19804,Hans-Beimler-Strasse,10,1980531
109,19804,U-Bhf. Rosa-Luxemburg-Platz,11,19801543
110,19804,Rosenthaler Platz,12,19801197
111,19804,Veteranenstrasse,13,19801588
112,19804,Chausseestrasse,14,1980264
113,19804,Stadion der Weltjugend,15,19801385
114,19805,"Wedding, Bernauerstrasse",0,19801622
115,19805,Voltastrasse,1,19801591
116,19805,Scheringstrasse,2,19801275
117,19805,Nettelbeckplatz,3,1980974
118,19805,U-Bhf. Leopoldplatz,4,19801519
119,19805,Limburgerstrasse/Rathaus Wedding,5,1980855
120,19805,U-Bhf. Seestrasse,6,19801550
121,19805,Barfusstrasse,7,1980115
122,19805,Holländerstrasse,8,1980609
123,19805,Emmentalerstrasse,9,1980333
126,19805,Roedernallee,10,19801187
128,19805,Am Nordgraben,11,198069
130,19805,Oranienburgerstrasse,12,19801018
132,19805,Eichborndamm,13,1980314
133,19805,Hermsdorferstrasse,14,1980574
135,19805,Cyclopstrasse,15,1980272
136,19805,Zabel-Krüger-Damm,16,19801694
137,19805,Dianastrasse,17,1980286
139,19805,Hermsdorfer Damm,18,1980572
140,19805,Burgfrauenstrasse,19,1980245
141,19805,Zeltinger Platz,20,19801698
142,19805,Ludolfinger Platz,21,1980878
143,19805,Donnersmarckplatz,22,1980296
144,19805,Maximiliankorso Ecke Hainbuchenstrasse,23,1980923
145,19806,S-Bhf. Marzahn,0,19801239
146,19806,BWF Marzahn,1,1980111
148,19806,Rhinstrasse,2,19801173
149,19806,Genslerstrasse,3,1980446
150,19806,Zechlinerstrasse,4,19801695
151,19806,Mittelstrasse,5,1980934
153,19806,Ho-Chi-Minh-Strasse,6,1980593
155,19806,Leninallee,7,1980824
157,19806,Herzbergstrasse,8,1980579
158,19806,U-Bhf. / S-Bhf Frankfurter Allee,9,19801476
160,19806,Müggelstrasse,10,1980958
161,19807,U-Bhf. Leopoldplatz,0,19801519
162,19807,U-Bhf. Seestrasse,1,19801550
163,19807,Türkenstrasse,2,19801475
164,19807,Holländerstrasse,3,1980609
165,19807,Emmentalerstrasse,4,1980333
169,19807,Lindauer Allee,5,1980858
172,19807,Flottenstrasse,6,1980372
174,19807,Oranienburgerstrasse,7,19801018
176,19807,Eichborndamm,8,1980314
177,19807,Lange Enden,9,1980804
178,19807,Zabel-Krüger-Damm,10,19801694
179,19807,Schildowerstrasse,11,19801278
181,19807,Hermsdorfer Damm,12,1980572
182,19807,Veltheimstrasse,13,19801586
183,19807,Hohefeldstrasse,14,1980598
184,19807,Im Fischgrund,15,1980638
185,19807,Fürstendamm,16,1980423
186,19807,Zeltinger Platz,17,19801698
187,19808,Alt-Heiligensee,0,198030
188,19808,Heiligenseestrasse,1,1980553
189,19808,Konradshöherstrasse,2,1980742
190,19808,Karolinenstrasse,3,1980696
191,19808,U-Bhf. Tegel,4,19801554
192,19808,U-Bhf. Borsigwerke,5,19801484
193,19808,U-Bhf. Holzhauserstrasse,6,19801504
194,19808,Krankenhaus Tegel-Süd,7,1980756
195,19808,Straße nach Saatwinkel,8,19801416
197,19808,Paulsternstrasse,9,19801067
198,19808,Haselhorster Damm,10,1980537
199,19808,Am Juliusturm,11,198066
200,19808,Carl-Schurz-Strasse,12,1980258
201,19808,Rathaus Spandau,13,19801140
202,19808,Brunsbütteler Damm,14,1980226
204,19808,Seeburgerstrasse,15,19801316
206,19808,Päwesiner Weg,16,19801120
208,19808,Kolonie Hasenheide,17,1980737
210,19808,Adamstrasse,18,19803
211,19808,Am Omnibushof,19,198071
213,19808,Heerstrasse,20,1980548
214,19808,Spandau Weinmeisterhornweg,21,19801358
215,19809,Eberswalderstrasse,0,1980308
216,19809,U-Bhf. Dimitroffstrasse,1,19801488
218,19809,Prenzlauer Allee,2,19801106
220,19809,Greifswalderstrasse,3,1980479
221,19809,Artur-Becker-Strasse,4,1980100
222,19809,Leninallee,5,1980823
224,19809,Frankfurter Tor,6,1980387
225,19809,Holteistrasse,7,1980612
226,19809,Hauptstrasse,8,1980540
228,19809,VEB Chemiehandel,9,19801582
229,19809,Kraftwerk Klingenberg,10,1980749
230,19809,Hönower Wiesenweg,11,1980630
231,198010,U-Bhf. Osloerstrasse,0,19801532
232,198010,Drontheimerstrasse,1,1980303
234,198010,Pankower Allee,2,19801051
237,198010,Emmentalerstrasse,3,1980335
239,198010,Residenzstrasse,4,19801166
240,198010,Aroser Allee,5,198097
242,198010,Roedernallee,6,19801187
245,198010,Ollenhauerstrasse,7,19801009
246,198010,Karl-Bonhoeffer-Nervenklinik,8,1980687
247,198010,Tessenowstrasse,9,19801446
249,198010,Jansenstrasse,10,1980651
251,198010,Alt-Wittenau,11,198053
252,198010,Eichborndamm,12,1980314
253,198010,Hermsdorferstrasse,13,1980574
255,198010,Ziekowstrasse,14,19801709
256,198010,U-Bhf. Tegel,15,19801554
257,198010,Ruppiner Chausee,16,19801211
258,198010,Diakoniezentrum,17,1980284
259,198010,Hennigsdorferstrasse,18,1980561
260,198010,Heiligenseestrasse,19,1980553
261,198010,Fährstrasse,20,1980421
262,198010,Alt-Heiligensee,21,198030
263,198011,Alt-Heiligensee,0,198030
264,198011,Fährstrasse,1,1980421
265,198011,Havelblick,2,1980543
266,198011,Strandbad Heiligensee,3,19801407
268,198011,Gemeindefriedhof,4,1980441
269,198011,Rallenweg,5,19801130
270,198011,Rohrweihstrasse,6,19801191
271,198011,Sperberstrasse,7,19801369
272,198011,Habichtstrasse/Strandbad,8,1980516
273,198011,Falkenplatz,9,1980352
274,198012,Wittenauerstrasse Märkisches Viertel,0,19801677
275,198012,Lübarserstrasse,1,1980886
276,198012,Finsterwalderstrasse,2,1980368
277,198012,Wilhelmsruher Damm,3,19801659
281,198012,Oranienburgerstrasse,4,19801019
282,198012,"Alt-Wittenau, Kirche",5,198054
283,198012,Rathaus Reinickendorf,6,19801136
284,198012,Pannwitzstrasse,7,19801054
285,198012,Olbendorfer Weg,8,19801004
286,198012,Breitenbachstrasse,9,1980208
287,198012,Holzhauserstrasse,10,1980613
288,198012,Eschachstrasse/Ziekowstrasse,11,1980344
289,198012,Buddestrasse,12,1980241
290,198012,Alt-Tegel/U-Bhf. Tegel,13,198050
291,198012,Hermsdorfer Damm,14,1980571
293,198012,Mühlenfeldstrasse,15,1980960
294,198012,Falkentaler Steig,16,1980357
295,198012,Hermsdorfer Friedhof,17,1980573
296,198012,Donnersmarckplatz,18,1980296
297,198012,Ludolfinger Platz,19,1980878
298,198012,Zeltinger Platz,20,19801698
299,198012,Am Pilz,21,198072
300,198012,Frohnau Invalidensiedlung,22,1980416
301,198013,Bhf. Lichtenberg,0,1980161
302,198013,Straßenbahn-Betriebshof,1,19801419
303,198013,Herzbergstrasse,2,1980578
305,198013,Ho-Chi-Minh-Strasse,3,1980592
307,198013,Franz-Jacob-Strasse,4,1980390
308,198013,S-Bhf. Leninallee,5,19801235
309,198013,Dimitroffstrasse,6,1980290
312,198013,Leninplatz,7,1980826
313,198013,Hans-Beimlerstrasse,8,1980532
314,198013,Prenzlauer Allee,9,19801105
317,198013,U-Bhf. Rosa-Luxemburg-Platz,10,19801543
318,198013,Hackescher Markt,11,1980520
319,198014,Reinickendorf Klemkestrasse/Sommerstrasse,0,19801161
320,198014,Reginhardstrasse,1,19801152
321,198014,Pankower Allee,2,19801050
324,198014,Residenzstrasse,3,19801166
325,198014,U-Bhf. Osloerstrasse,4,19801532
326,198014,Luise-Schröder-Platz,5,1980880
327,198014,U-Bhf. Seestrasse,6,19801550
328,198014,Amrumerstrasse,7,198080
329,198014,U-Bhf. Amrumerstrasse,8,19801481
330,198014,Fennstrasse,9,1980363
331,198014,Turmstrasse,10,19801472
334,198014,Alt-Moabit,11,198043
335,198014,U-Bhf. Hansaplatz,12,19801501
336,198014,Großer Stern,13,1980495
337,198014,Lützowplatz,14,1980888
338,198014,U-Bhf. Nollendorfplatz,15,19801529
339,198014,Martin-Luther-Strasse,16,1980918
341,198014,John-F.-Kennedy-Platz,17,1980664
342,198014,U-Bhf. Innsbrucker Platz,18,19801505
343,198014,U-Bhf. Bundesplatz,19,19801486
344,198014,Wiesbadenerstrasse,20,19801645
345,198014,Breitenbachplatz,21,1980206
346,198015,Grunewald Fontanestrasse,0,1980498
347,198015,Hagenplatz,1,1980522
348,198015,Teplitzerstrasse,2,19801445
349,198015,Roseneck,3,19801194
350,198015,Berkaerstrasse,4,1980132
351,198015,U-Bhf. Rüdesheimer Platz,5,19801546
352,198015,Laubacherstrasse/Südwestkorso,6,1980809
353,198015,U-Bhf. Friedrich-Wilhelm-Platz,7,19801492
354,198015,Kaisereiche/Schmiljanstrasse,8,1980678
355,198015,U-Bhf. Walther-Schreiber-Platz,9,19801564
356,198015,U-Bhf. Schloßstrasse,10,19801549
357,198015,Kielerstrasse,11,1980706
358,198015,U-Bhf. Rathaus Steglitz,12,19801539
359,198015,Klingsorstrasse,13,1980721
360,198015,Bismarckstrasse,14,1980176
363,198015,Halskestrasse,15,1980527
364,198015,Albrechtstrasse,16,198015
367,198015,Leonorenstrasse,17,1980827
368,198015,Birkbuschstrasse,18,1980170
370,198015,Königsbergerstrasse,19,1980787
371,198015,Marienstrasse/Königswarter Krankenhaus,20,1980916
372,198015,Jungfernstieg,21,1980669
373,198015,Kranoldplatz,22,1980757
374,198015,Oberhofer Platz,23,1980999
375,198015,Lichterfelde Celsiusstrasse,24,1980843
376,198016,Besarinstrasse,0,1980146
377,198016,S-Bhf. Leninallee,1,19801235
378,198016,Franz-Jacob-Strasse,2,1980390
379,198016,Herzbergstrasse,3,1980578
381,198016,Siegfriedstrasse,4,19801337
382,198016,Allee der Kosmonauten,5,198024
383,198016,S-Bhf. Friedrichsfelde Ost,6,19801223
384,198016,U-Bhf. Tierpark,7,19801559
385,198016,Hochschule für Ökonomie,8,1980595
386,198016,Bhf. Karlshorst,9,1980159
387,198016,Wilhelminenhofstrasse,10,19801652
388,198016,Bhf. Schöneweide,11,1980164
389,198016,"Johannisthal, Haeckelstrasse",12,1980659
390,198017,U-Bhf. Oskar-Helene-Heim,0,19801531
391,198017,Krankenhaus Oskar-Helene-Heim,1,1980755
392,198017,Sophie-Charlotte-Strasse,2,19801351
393,198017,Schützallee,3,19801314
394,198017,Scharfestrasse,4,19801272
396,198017,Potsdamerstrasse,5,19801096
401,198017,Fischerhüttenstrasse,6,1980369
402,198017,Lindenthaler Allee,7,1980866
403,198017,Spanische Allee,8,19801367
404,198017,Von-Luck-Strasse/Waldfriedhof,9,19801593
405,198017,Isoldestrasse,10,1980644
406,198017,Nibelungenstrasse,11,1980984
407,198017,Kronprinzessinenweg,12,1980761
408,198017,Am Großen Wannsee,13,198064
409,198017,Endestrasse,14,1980337
410,198017,Pfaueninselchaussee,15,19801071
411,198017,Rathaus Wannsee,16,19801143
412,198017,Charlottenstrasse,17,1980261
415,198017,"Wilhelmplatz, Stölpchensee",18,19801653
416,198017,Kohlhasenbrück,19,1980735
417,198017,Königsweg,20,1980789
418,198017,Bernhard-Beyer-Strasse,21,1980143
419,198017,Steinstücken,22,19801400
420,198018,"Biesdorf, Karl-Maron-Strasse",0,1980167
421,198018,Boschpolerstrasse,1,1980199
422,198018,S-Bhf. Springpfuhl,2,19801253
423,198018,Rhinstrasse,3,19801172
425,198018,Siegfriedstrasse,4,19801337
426,198018,Ho-Chi-Minh-Strasse,5,1980592
428,198018,Franz-Jacob-Strasse,6,1980390
429,198018,S-Bhf. Leninallee,7,19801235
430,198018,Dimitroffstrasse,8,1980290
433,198018,Leninplatz,9,1980826
434,198018,Hans-Beimler-Strasse,10,1980531
435,198018,U-Bhf. Rosa-Luxemburg-Platz,11,19801543
436,198018,Veteranenstrasse,12,19801588
437,198018,Chausseestrasse,13,1980264
438,198018,Stadion der Weltjugend,14,19801385
439,198019,Grunewald Roseneck,0,1980499
440,198019,Teplitzerstrasse,1,19801445
441,198019,Richard-Strauß-Strasse,2,19801176
442,198019,Koenigsallee/Hagenplatz,3,1980734
444,198019,Kurfürstendamm/Rathenauplatz,4,1980771
445,198019,Henriettenplatz,5,1980562
447,198019,Joachim-Friedrich-Strasse,6,1980655
448,198019,Lehniner Platz,7,1980811
449,198019,U-Bhf. Adenauerplatz,8,19801477
450,198019,Olivaer Platz/Leibnizstrasse,9,19801007
451,198019,Bleibtreustrasse,10,1980186
452,198019,U-Bhf. Uhlandstrasse,11,19801562
453,198019,U-Bhf. Kurfürstendamm,12,19801516
454,198019,Breitscheidplatz,13,1980213
455,198019,Marburgerstrasse,14,1980902
456,198019,U-Bhf. Wittenbergplatz,15,19801567
458,198019,Martin-Luther-Strasse,16,1980919
459,198019,U-Bhf. Nollendorfplatz,17,19801529
464,198019,Potsdamerstrasse,18,19801099
466,198019,Goebenstrasse,19,1980462
468,198019,U-Bhf. Yorckstrasse,20,19801568
469,198019,Großbeerenstrasse,21,1980493
471,198019,U-Bhf. Mehringdamm,22,19801522
472,198019,U-Bhf. Platz der Luftbrücke,23,19801537
473,198019,Platz der Luftbrücke,24,19801085
474,198020,"Köpenick, Krankenhaus",0,1980791
475,198020,Wendenschloßstrasse,1,19801632
476,198020,Freiheit,2,1980397
477,198020,Institut für Lehrerbildung,3,1980642
478,198020,Erich-Weinert-Klubhaus,4,1980339
479,198020,Pionierpark,5,19801080
481,198020,Rathenaustrasse,6,19801147
482,198020,Edisonstrasse,7,1980310
483,198020,Bhf. Karlshorst,8,1980159
484,198020,Hochschule für Ökonomie,9,1980595
485,198020,U-Bhf. Tierpark,10,19801559
486,198020,S-Bhf. Friedrichsfelde Ost,11,19801223
487,198020,Allee der Kosmonauten,12,198024
488,198020,Siegfriedstrasse,13,19801337
489,198020,Ho-Chi-Minh-Strasse,14,1980592
491,198020,Franz-Jacob-Strasse,15,1980390
492,198020,S-Bhf. Leninallee,16,19801235
493,198020,Dimitroffstrasse,17,1980290
496,198020,Artur-Becker-Strasse,18,1980100
497,198021,U-Bhf. Friedrich-Wilhelm-Platz,0,19801492
498,198021,Stubenrauchstrasse,1,19801421
499,198021,U-Bhf. Walther-Schreiber-Platz,2,19801564
500,198021,Alsen-/Fregestrasse,3,198025
501,198021,Bismarckstrasse,4,1980176
504,198021,Lauenburger Platz,5,1980810
505,198021,Bergstrasse,6,1980131
506,198021,Selerweg,7,19801327
508,198021,Steglitzer Damm,8,19801395
509,198021,Munsterdamm,9,1980950
510,198021,Albrechtstrasse,10,198015
513,198021,Leonorenstrasse,11,1980827
514,198021,Rathaus Lankwitz,12,19801134
515,198021,"Lankwitz, Kirche",13,1980806
517,198021,Hildburghauserstrasse,14,1980583
518,198021,Waldsassenerstrasse,15,19801599
519,198021,"Marienfelde, Waldsassenerstrasse",16,1980913
520,198022,Tegelort,0,19801439
521,198022,Falkenplatz,1,1980352
522,198022,Heiligenseestrasse/Gabelung,2,1980554
523,198022,Schulzendorfer Weg,3,19801295
524,198022,Karolinenstrasse,4,1980696
525,198022,Gabrielenstrasse,5,1980424
526,198022,Alt-Tegel/U-Bhf. Tegel,6,198050
527,198022,Gorkistrasse,7,1980468
528,198022,Ziekowstrasse,8,19801709
529,198022,Freie Scholle,9,1980396
530,198022,Dianaplatz,10,1980285
531,198022,Oraniendamm,11,19801020
532,198022,Zabel-Krüger-Damm,12,19801694
533,198022,Am Vierrutenberg,13,198076
534,198022,Lübars Alt-Lübars,14,1980885
535,198023,Bhf. Lichtenberg,0,1980161
536,198023,Straßenbahn-Betriebshof,1,19801419
537,198023,Herzbergstrasse,2,1980578
540,198023,Ho-Chi-Minh-Strasse,3,1980593
542,198023,Leninallee,4,1980824
543,198023,Hohenschönhauserstrasse,5,1980604
544,198023,Omnibus-Betriebshof,6,19801012
545,198023,Klement-Gottwald-Strasse,7,1980720
546,198023,Antonplatz,8,198092
547,198023,Wisbyerstrasse,9,19801671
548,198023,S-Bhf. Prenzlauer Allee,10,19801247
551,198023,Dimitroffstrasse,11,1980292
552,198023,Knaackstrasse,12,1980730
553,198023,Wilhelm-Pieck-Strasse,13,19801650
554,198023,U-Bhf. Rosa-Luxemburg-Platz,14,19801543
555,198023,Hackerscher Markt,15,1980519
556,198024,Quickbornerstrasse Märkisches Viertel,0,19801124
557,198024,Wilhelmsruher Damm,1,19801659
559,198024,Schorfheidestrasse,2,19801290
560,198024,Wilhelmsruher Damm/Dannenwalder Weg,3,19801662
563,198024,Oranienburgerstrasse,4,19801019
565,198024,Alt-Wittenau,5,198053
566,198024,Rathaus Reinickendorf,6,19801136
567,198024,Breitenbachstrasse,7,1980208
568,198024,U-Bhf. Scharnweberstrasse,8,19801547
569,198024,U-Bhf. Kurt-Schumacher-Platz,9,19801518
570,198024,Kaserne Südtor,10,1980701
571,198024,U-Bhf. Jakob-Kaiser-Platz,11,19801506
572,198024,Jakob-Kaiser-Platz,12,1980648
573,198024,Olbersstrasse/DRK-Krankenhaus,13,19801005
574,198024,Landgericht,14,1980801
575,198024,Luisenplatz,15,1980881
577,198024,Bismarckstrasse,16,1980177
581,198024,Kantstrasse,17,1980685
582,198024,Amtsgericht Charlottenburg,18,198083
583,198024,Kurfürstendamm,19,1980768
584,198024,Westfälischestrasse,20,19801640
585,198024,Rudolstädterstrasse,21,19801200
588,198024,Berlinerstrasse,22,1980137
589,198024,Fehrbelliner Platz,23,1980360
590,198025,Eberswalderstrasse,0,1980308
591,198025,U-Bhf. Dimitroffstrasse,1,19801488
593,198025,Prenzlauer Allee,2,19801106
595,198025,Greifswalderstrasse,3,1980479
596,198025,Artur-Becker-Strasse,4,1980100
597,198025,Leninallee,5,1980823
599,198025,Frankfurter Tor,6,1980387
600,198025,Holteistrasse,7,1980612
602,198025,Hauptstrasse,8,1980541
603,198025,VEB Chemiehandel,9,19801582
604,198025,Kraftwerk Klingenberg,10,1980749
605,198025,Hönower Wiesenweg,11,1980630
606,198025,Hermann-Duncker-Strasse,12,1980564
607,198025,Wilhelminenhofstrasse,13,19801652
608,198025,Rathenaustrasse,14,19801147
609,198025,Pionierpark,15,19801080
611,198025,Ernst-Weinert-Klubhaus,16,1980343
612,198025,Institut für Lehrerbildung,17,1980642
613,198025,Grünstrasse,18,1980508
614,198025,Wendeschloßstrasse,19,19801633
615,198025,"Köpenick, Krankenhaus",20,1980791
616,198026,U-Bhf. Osloerstrasse,0,19801532
617,198026,Ritterlandweg,1,19801182
618,198026,Pankower Allee,2,19801050
621,198026,Emmentalerstrasse,3,1980334
623,198026,Lindauer Allee,4,1980857
626,198026,Aroser Allee,5,198097
628,198026,Roedernallee/Paracelsus-Bad,6,19801189
630,198026,Tessenowstrasse,7,19801447
631,198026,Am Nordgraben,8,198069
632,198026,Dannenwalder Weg,9,1980279
634,198026,Wilhelmsruher Damm,10,19801660
635,198026,Gemeinde-Zentrum,11,1980439
636,198026,Märkisches Zentrum,12,1980953
637,198026,Wesendorferstrasse,13,19801638
638,198026,Senftenberger Ring-Ost,14,19801330
639,198026,Senioren-Zentrum,15,19801331
640,198026,Calauerstrasse,16,1980257
641,198026,Eichhorster Weg,17,1980319
642,198026,Lübarserstrasse,18,1980886
644,198026,Hermsdorferstrasse,19,1980575
645,198026,Zabel-Krüger-Damm,20,19801694
646,198026,Waidmannslust Titiseestrasse,21,19801595
647,198027,"Rosenthal, Hauptstrasse",0,19801195
648,198027,Nordendstrasse,1,1980993
649,198027,Platanenstrasse,2,19801084
650,198027,Kurt-Fischer-Platz,3,1980776
651,198027,Bürgerpark,4,1980252
652,198027,"Pankow, Kirche",5,19801047
653,198027,S-Bhf. Pankow,6,19801244
654,198027,U-Bhf. Pankow,7,19801534
655,198027,Björnsonstrasse,8,1980181
656,198027,Bhf. Schönhauser Allee,9,1980165
657,198027,U-Bhf. Dimitroffstrasse,10,19801488
658,198027,Brunnenstrasse,11,1980225
659,198027,Oranienburger Tor,12,19801016
660,198027,Bhf. Friedrichstrasse,13,1980156
661,198027,Am Kupfergraben,14,198068
662,198028,U-Bhf. Holzhauserstrasse,0,19801504
663,198028,Wittestrasse,1,19801680
664,198028,Soltauerstrasse,2,19801344
665,198028,Breitenbachstrasse,3,1980208
666,198028,Miraustrasse,4,1980932
668,198028,Triftstrasse,5,19801471
669,198028,Rathaus Reinickendorf,6,19801136
671,198028,Alt-Wittenau,7,198053
672,198028,"Wittenau, Kirche",8,19801676
673,198029,Falkenhöhe,0,1980351
674,198029,S-Bhf. Grünbergallee,1,19801228
675,198029,S-Bhf. Altglienicke,2,19801218
676,198029,Normannenstrasse,3,1980994
677,198029,Wolfmarsteig,4,19801682
678,198029,Schönefelder Chaussee,5,19801304
679,198029,"Altglienicke, Kirche",6,198059
680,198029,Glienicker Weg,7,1980458
681,198029,VEB Berlin-Chemie,8,19801580
682,198029,S-Bhf. Adlershof,9,19801216
683,198029,Rudower Chaussee,10,19801204
684,198030,"Zoo, Hardenbergplatz",0,19801713
685,198030,Jebensstrasse/Amerikahaus,1,1980652
686,198030,Steinplatz,2,19801398
687,198030,U-Bhf. Ernst-Reuther-Platz,3,19801490
688,198030,U-Bhf. Hansaplatz,4,19801501
689,198030,Gotzkowskystrasse,5,1980472
690,198030,Hutten-/Turmstrasse,6,1980623
691,198030,Wittstockerstrasse,7,19801681
692,198030,Sickingen-/Siemensstrasse,8,19801333
693,198030,Beusselstrasse/Goerdelerdamm,9,1980151
694,198030,Hüttigpfad,10,1980632
695,198030,Friedrich-Olbricht-Damm,11,1980402
696,198030,Heckerdamm,12,1980546
697,198030,Jakob-Kaiser-Platz,13,1980648
698,198030,U-Bhf. Jakob-Kaiser-Platz,14,19801506
699,198030,Halemweg,15,1980524
700,198030,Goebelplatz,16,1980461
701,198030,Quellweg,17,19801123
702,198030,U-Bhf. Rohrdamm,18,19801541
703,198030,Saatwinkler Damm Mäkeritzwiesen,19,19801261
704,198031,Moabit Wiebestrasse,0,1980935
705,198031,Huttenstrasse,1,1980624
706,198031,Reuchlinstrasse,2,19801167
707,198031,Waldstrasse/Beusselstrasse,3,19801603
708,198031,Rathaus Tiergarten,4,19801142
709,198031,U-Bhf. Turmstrasse,5,19801560
710,198031,Krankenhaus Moabit,6,1980754
711,198031,Wilsnackerstrasse,7,19801668
712,198031,Rathenowerstrasse,8,19801148
714,198031,Alt-Moabit,9,198041
717,198031,Schloß Bellevue,10,19801283
718,198031,Tiergartenstrasse,11,19801457
719,198031,Lützowplatz,12,1980888
720,198031,Magdeburger Platz,13,1980892
726,198031,Potsdamerstrasse,14,19801100
727,198031,Askanischer Platz,15,1980103
729,198031,Großbeerenstrasse,16,1980494
730,198031,U-Bhf. Hallesches Tor,17,19801500
731,198031,U-Bhf. Gneisenaustrasse,18,19801495
732,198031,Columbiadamm,19,1980268
733,198031,Platz der Luftbrücke,20,19801085
734,198032,Pasedagplatz,0,19801063
735,198032,Lichtenbergerstrasse,1,1980836
736,198032,Antonplatz,2,198092
737,198032,S-Bhf. Greifswalderstrasse,3,19801225
739,198032,Dimitroffstrasse,4,1980291
741,198032,Mollstrasse,5,1980939
742,198032,U-Bhf. Rosa-Luxemburg-Platz,6,19801543
743,198032,Hackescher Markt,7,1980520
744,198032,Oranienburger Tor,8,19801016
745,198032,Stadion der Weltjugend,9,19801385
746,198033,Britz-Süd,0,1980218
747,198033,Fritz-Erler-Allee,1,1980414
748,198033,Kormoranweg,2,1980744
749,198033,Grüner Weg,3,1980506
750,198033,Buschkrugallee,4,1980246
751,198033,U-Bhf. Parchimer Allee,5,19801536
752,198033,Britzer Damm,6,1980220
753,198033,Gradestrasse,7,1980474
754,198033,Karl-Elsasser-Strasse,8,1980688
755,198033,Gottlieb-Dunkel-Strasse,9,1980471
756,198033,Teilestrasse,10,19801441
757,198033,Wenckebachstrasse,11,19801629
758,198033,U-Bhf. Ullsteinstrasse,12,19801563
759,198033,Attilaplatz,13,1980104
760,198033,Alboinstrasse,14,198013
762,198033,Röblingstrasse/Arnulfstrasse,15,19801213
763,198033,Priesterweg,16,19801114
764,198033,Prellerweg,17,19801103
765,198033,Auguste-Viktoria-Krankenhaus,18,1980108
766,198033,Grazer Platz,19,1980475
767,198033,Rubensstrasse,20,19801199
768,198033,Friedenauer Brücke,21,1980399
769,198033,Kaisereiche,22,1980677
770,198033,U-Bhf. Friedrich-Wilhelm-Platz,23,19801492
771,198034,Sterndamm,0,19801403
772,198034,Bhf. Schöneweide,1,1980164
773,198034,Wilhelminenhofstrasse,2,19801652
774,198034,Rathenaustrasse,3,19801147
775,198034,Pionierpark,4,19801080
777,198034,Erich-Weinert-Klubhaus,5,1980339
778,198034,Institut für Lehrerbildung,6,1980642
779,198034,Seelenbinderstrasse,7,19801320
780,198034,Brandenburgplatz,8,1980202
781,198034,Hirschgarten,9,1980589
782,198034,Bölschestrasse,10,1980248
783,198034,S-Bhf. Friedrichshagen,11,19801224
784,198034,Hartlebenstrasse,12,1980535
785,198034,Müggelseedamm,13,1980956
786,198034,Rahnsdorf,14,19801127
787,198035,Sterndamm,0,19801403
788,198035,Bhf. Schöneweide,1,1980164
789,198035,Wilhelminenhofstrasse,2,19801652
790,198035,Rathenaustrasse,3,19801147
791,198035,Pionierpark,4,19801080
793,198035,Erich-Weinert-Klubhaus,5,1980339
794,198035,Institut für Lehrerbildung,6,1980642
795,198035,Grünstrasse,7,1980508
796,198035,Wendenschloßstrasse,8,19801632
797,198035,"Köpenick, Krankenhaus",9,1980791
798,198036,S-Bhf. Kaulsdorf,0,19801230
799,198036,Chemnitzerstrasse,1,1980266
800,198036,Jägerstrasse,2,1980670
801,198036,Gehsenerstrasse,3,1980436
802,198036,S-Bhf. Köpenick,4,19801232
803,198036,Lindenstrasse,5,1980863
805,198036,Schloßplatz,6,19801285
806,198036,Krankenhaus Köpenick,7,1980753
807,198036,Müggelturm,8,1980959
808,198036,"Müggelheim, Dorf",9,1980955
809,198036,Alt-Müggelheim,10,198044
810,198037,U-Bhf. Tempelhof,0,19801555
811,198037,Boelckestrasse,1,1980192
812,198037,Werner-Voß-Damm,2,19801636
813,198037,Loewenhardtdamm,3,1980872
814,198037,Dudenstrasse,4,1980304
815,198037,Kreuzbergstrasse,5,1980760
816,198037,Yorckstrasse/Rathaus Kreuzberg,6,19801693
817,198037,U-Bhf. Mehringdamm,7,19801522
818,198037,U-Bhf. Gneisenaustrasse/Zossenerstrasse,8,19801496
819,198037,U-Bhf. Südstern,9,19801553
820,198037,Urbanstrasse,10,19801579
821,198037,Geibelstrasse,11,1980437
822,198037,Wilmsstrasse,12,19801667
823,198037,U-Bhf. Prinzenstrasse/Gitschinerstrasse,13,19801538
824,198037,U-Bhf. Kottbusser Tor,14,19801514
825,198037,Oranienstrasse,15,19801022
826,198037,Mariannenplatz,16,1980906
829,198037,Köpenickerstrasse,17,1980795
830,198037,U-Bhf. Schlesisches Tor,18,19801548
831,198037,Falckensteinstrasse,19,1980348
832,198037,Schlesischestrasse Ecke Heckmannufer,20,19801282
833,198038,Pasedagplatz,0,19801063
834,198038,Bernkastelerstrasse,1,1980145
835,198038,Lichtenbergerstrasse,2,1980836
836,198038,Antonplatz,3,198092
837,198038,S-Bhf. Greifswalderstrasse,4,19801225
839,198038,Dimitroffstrasse,5,1980291
841,198038,Mollstrasse,6,1980939
842,198038,U-Bhf. Rosa-Luxemburg-Platz,7,19801543
844,198039,"Grunewald, Roseneck",0,1980500
845,198039,Teplitzerstrasse,1,19801445
846,198039,Franzensbaderstrasse/Sportplatz,2,1980392
847,198039,Bismarckplatz,3,1980175
849,198039,Kurfürstendamm/Rathenauplatz,4,1980771
850,198039,Henriettenplatz,5,1980562
851,198039,Joachim-Friedrich-Strasse,6,1980654
853,198039,Lehniner Platz,7,1980811
854,198039,U-Bhf. Adenauerplatz,8,19801477
855,198039,Olivaer Platz/Leibnizstrasse,9,19801007
856,198039,Bleibtreustrasse,10,1980186
857,198039,U-Bhf. Uhlandstr,11,19801561
858,198039,U-Bhf. Kurfürstendamm,12,19801516
859,198039,U-Bhf. Wittenbergplatz,13,19801567
860,198039,An der Urania,14,198086
862,198039,Kurfürstenstrasse,15,1980773
863,198039,Lützowplatz,16,1980888
864,198039,Kluckstrasse,17,1980728
865,198039,Potsdamer Brücke,18,19801092
866,198039,Askanischer Platz,19,1980103
867,198039,Friedrichstrasse/U-Bhf. Kochstrasse,20,1980412
869,198039,Lindenstrasse,21,1980864
871,198039,Alte Jakobstrasse,22,198056
872,198039,Alexandrinenstrasse,23,198022
873,198039,U-Bhf. Moritz-Platz,24,19801524
874,198039,Oranienplatz,25,19801021
875,198040,"Weißensee, Kniprodeallee",0,19801628
876,198040,Klement-Gottwald-Allee,1,1980719
877,198040,Lichtenbergerstrasse,2,1980836
878,198040,Omnibus-Betriebshof,3,19801012
879,198040,Hohenschönhauserstrasse,4,1980604
880,198040,Leninallee,5,1980823
883,198040,Herzbergstrasse,6,1980579
884,198040,U-Bhf. und S-Bhf. Frankfurter Allee,7,19801571
886,198041,Düppel-Süd,0,1980306
887,198041,Machnowerstrasse,1,1980890
888,198041,Rathaus Zehlendorf,2,19801144
889,198041,Potsdamer-/Berlinerstrasse,3,19801094
890,198041,Clayallee,4,1980267
891,198041,Winfriedstrasse,5,19801669
892,198041,Schützallee,6,19801314
893,198041,U-Bhf. Onkel Toms Hütte,7,19801530
894,198041,U-Bhf. Krumme Lanke,8,19801515
895,198041,Mexikoplatz,9,1980930
896,198041,Potsdamer Chaussee/Tierklinik FU,10,19801093
897,198041,Spanische Allee,11,19801367
898,198041,Rehwiese,12,19801154
899,198041,Wannseebadweg,13,19801611
900,198041,Königstrasse,14,1980788
901,198041,Am Großen Wannsee,15,198064
902,198041,Jugenderholungsheim,16,1980667
903,198041,"Wannsee, Heckeshorn",17,19801609
904,198042,Björnsonstrasse,0,1980181
905,198042,Schönhauser Allee,1,19801309
907,198042,Prenzlauer Allee,2,19801105
910,198042,Antonplatz,3,198092
911,198042,Lichtenbergerstrasse,4,1980836
912,198042,Omnibus-Betriebshof,5,19801012
913,198042,Hohenschönhauserstrasse,6,1980604
914,198042,Leninallee,7,1980823
917,198042,Herzbergstrasse,8,1980579
918,198042,Bhf. Frankfurter Allee,9,1980154
919,198042,Boxhagenerstrasse,10,1980200
920,198042,S-Bhf. Warschauerstrasse,11,19801257
921,198043,Robert-Koch-Platz,0,19801183
922,198043,Oranienburger Tor,1,19801015
923,198043,Rosenthaler Platz,2,19801196
924,198043,U-Bhf. Rosa-Luxemburg-Platz,3,19801542
925,198043,Prenzlauer Berg,4,19801108
927,198043,Dimitroffstrasse,5,1980289
928,198043,Artur-Becker-Strasse,6,198099
929,198043,Leninallee,7,1980819
932,198043,Mühsamstrasse,8,1980963
933,198043,Samariterstrasse,9,19801265
934,198043,Jacques-Duclos-Strasse,10,1980645
935,198043,Herzbergstrasse,11,1980577
936,198043,Siegfriedstrasse,12,19801336
937,198043,Omnibus Betriebshof,13,19801011
938,198043,U-Bhf. Magdalenenstrasse,14,19801520
939,198043,Bhf. Lichtenberg,15,1980160
940,198043,Weitlingstrasse,16,19801626
941,198043,Lückstrasse,17,1980887
942,198043,S-Bhf. Rummelsburg,18,19801250
943,198043,Holteistrasse,19,1980611
944,198043,Warschauerstrasse,20,19801612
945,198043,Franz-Mehring-Platz,21,1980391
946,198043,Ostbahnhof,22,19801030
947,198044,U-Bhf. Rathaus Steglitz,0,19801539
948,198044,Albrechtstrasse,1,198015
952,198044,Breitestrasse,2,1980210
954,198044,Klingsorstrasse,3,1980721
955,198044,Bismarckstrasse,4,1980176
958,198044,Stindestrasse,5,19801404
960,198044,Siemensstrasse,6,19801340
961,198044,Leonorenstrasse,7,1980827
962,198044,"Calandrellistrasse/Stadtbad, Rathaus",8,1980256
963,198044,"Lankwitz, Kirche",9,1980806
964,198044,Mühlenstrasse,10,1980961
966,198044,Malteserstrasse/Hospital,11,1980899
967,198044,Belßstrasse,12,1980126
968,198044,"Eiswald-/Emmerichstrasse, Hochschule",13,1980325
969,198044,Preysingstrasse,14,19801113
970,198044,Marienfelder Allee,15,1980914
971,198044,Hildburghauserstrasse,16,1980582
973,198044,Motzenerstrasse,17,1980948
974,198044,Nunsdorfer Ring/Süd,18,1980996
975,198044,Schichauweg,19,19801276
976,198044,Illigstrasse,20,1980636
977,198044,Steinstrasse,21,19801399
978,198044,Lichtenrader Damm,22,1980841
980,198044,Alt-Lichtenrade,23,198035
981,198044,Lichtenrade Nahariyastrasse,24,1980839
982,198045,"Buch, Hobrechtsfelder Chaussee",0,1980232
983,198045,S-Bhf. Buch,1,19801221
984,198045,Karowerstrasse,2,1980698
985,198045,Stadtrandsiedlung,3,19801390
986,198045,Alt-Karow,4,198031
987,198045,Straße 26,5,19801413
988,198045,Alt-Blankenburg,6,198028
989,198045,"Heinersdorf, Kirche",7,1980556
990,198045,Am Steinberg,8,198074
991,198045,Ostseestrasse,9,19801036
992,198046,U-Bhf. Ruhleben,0,19801545
993,198046,Krematorium Ruhleben,1,1980759
994,198046,Güterbahn Ruhleben,2,1980515
995,198046,Teltowerstrasse,3,19801443
996,198046,Tiefwerderweg,4,19801455
997,198046,Grenadierstrasse,5,1980482
998,198046,Stresowplatz,6,19801420
999,198046,"Spandau, Markt",7,19801359
1000,198046,Rathaus Spandau,8,19801140
1001,198046,Klosterstrasse,9,1980726
1002,198046,Elsflether Weg,10,1980330
1003,198046,Grünhofer Weg,11,1980507
1004,198046,Nauenerstrasse,12,1980972
1006,198046,Päwesiner Weg,13,19801121
1007,198046,Egelpfuhlstrasse,14,1980312
1008,198046,Harburger Weg,15,1980534
1010,198046,Brunsbütteler Damm,16,1980227
1012,198046,Spandauerstrasse,17,19801366
1013,198046,Eichholzbahn,18,1980318
1014,198046,Hackbuschstrasse,19,1980518
1015,198046,Staaken Heidebergplan,20,19801381
1016,198047,Hans-Beimler-Strasse,0,1980530
1017,198047,Am Friedrichshain,1,198062
1018,198047,Leninplatz,2,1980825
1019,198047,Karl Marx-Allee,3,1980686
1020,198047,Ostbahnhof,4,19801030
1021,198047,S-Bhf. Jannowitzbrücke,5,19801229
1022,198047,Spittelmarkt,6,19801373
1023,198047,Jerusalemerstrasse,7,1980653
1024,198047,Friedrichstrasse,8,1980409
1025,198047,Otto-Grotewohl-Strasse,9,19801037
1028,198048,U-Bhf. Rathaus Steglitz,0,19801539
1029,198048,Breitestrasse,1,1980209
1032,198048,Klingsorstrasse,2,1980721
1033,198048,Bismarckstrasse,3,1980176
1036,198048,Stindestrasse,4,19801404
1038,198048,Siemensstrasse,5,19801340
1039,198048,Leonorenstrasse,6,1980827
1040,198048,Calandrellistrasse (Stadtbad),7,1980254
1041,198048,Rathaus Lankwitz,8,19801134
1042,198048,"Lankwitz, Kirche",9,1980806
1043,198048,Mühlenstrasse,10,1980961
1045,198048,Malteserstrasse,11,1980898
1046,198048,Belßstrasse,12,1980126
1047,198048,Eiswaldstrasse,13,1980326
1048,198048,Preysingstrasse,14,19801113
1049,198048,Marchandstrasse,15,1980903
1050,198048,Friedrichsrodaerstrasse,16,1980408
1051,198048,"Kloster ""Zum guten Hirten""",17,1980724
1052,198048,Marienfelder Allee,18,1980914
1053,198048,An der Heilandsweide,19,198084
1054,198048,Stegerwaldstrasse,20,19801393
1055,198048,Hranitzkystrasse,21,1980617
1056,198048,Marienfelde Bahnstrasse,22,1980911
1057,198049,Grumbkowstrasse,0,1980496
1058,198049,Kurt-Fischer-Platz,1,1980775
1059,198049,Bürgerpark,2,1980251
1060,198049,"Pankow, Kirche",3,19801046
1061,198049,S-Bhf. Pankow,4,19801243
1062,198049,U-Bhf. Pankow,5,19801533
1063,198050,U-Bhf. Breitenbachplatz,0,19801485
1064,198050,Björnsonstrasse,1,1980180
1065,198050,Gritznerstrasse,2,1980488
1066,198050,Lepsiusstrasse,3,1980829
1067,198050,U-Bhf. Schloßstrasse,4,19801549
1068,198050,Steglitzer Kreuz,5,19801397
1069,198050,Filandastrasse,6,1980365
1070,198050,Südendstrasse,7,19801433
1071,198050,Klingsorstrasse,8,1980721
1072,198050,Bismarckstrasse,9,1980176
1075,198050,Munsterdamm,10,1980950
1076,198050,Liebenowzeile,11,1980853
1077,198050,Buhrowstrasse,12,1980242
1078,198050,Attilastrasse,13,1980105
1079,198050,Kurfürstenstrasse,14,1980772
1081,198050,Gersdorfstrasse,15,1980447
1082,198050,Rathausstrasse,16,19801145
1083,198050,U-Bhf. Westphalweg,17,19801565
1084,198050,Eisenacherstrasse,18,1980322
1086,198050,Kollostrasse,19,1980736
1087,198050,Kosleckweg,20,1980745
1088,198050,Mariendorf Rixdorferstrasse Ecke Dirschelweg,21,1980909
1089,198051,U-Bhf. Marchlewskistrasse,0,19801521
1090,198051,S-Bhf. Warschauerstrasse,1,19801256
1091,198051,Rochowstrasse,2,19801186
1092,198051,Markgrafendamm,3,1980917
1093,198051,Friedrich-Junge-Strasse,4,1980401
1094,198051,Alt-Stralau,5,198049
1095,198052,"Spandau, Wasserwerk",0,19801361
1097,198052,Zeppelinstrasse,1,19801706
1098,198052,Wröhmännerpark,2,19801688
1099,198052,Carl-Schurz-Strasse,3,1980258
1100,198052,"Spandau, Markt",4,19801359
1101,198052,Rathaus Spandau,5,19801140
1102,198052,Brunsbütteler Damm,6,1980226
1105,198052,Seeburgerstrasse,7,19801317
1106,198052,Weißenburgerstrasse,8,19801627
1107,198052,Adamstrasse,9,19802
1109,198052,Heerstrasse,10,1980547
1111,198052,Jaczostrasse,11,1980646
1112,198052,Gatowerstrasse,12,1980432
1113,198052,Sandheideweg,13,19801267
1114,198052,Weinmeisterhornweg,14,19801625
1115,198052,"Gatowerstrasse ""Biberburg""",15,1980433
1116,198052,"Gatow, Kirche",16,1980431
1117,198052,Groß-Glienicker Weg,17,1980490
1118,198052,Breitehornweg/Krankenhaus,18,1980205
1119,198052,"Flugplatz, Haupteingang",19,1980378
1120,198052,"Havelhöhe, Krankenhaus",20,1980544
1121,198052,"Kladow, Ritterfelddamm",21,1980714
1122,198052,Schweizerhaus,22,19801300
1123,198052,Seekorso,23,19801319
1124,198052,Glienicke Gutshof,24,1980455
1125,198053,Alt-Gatow,0,198029
1126,198053,Groß-Glienicker Weg,1,1980490
1127,198053,zum Dorf Gatow,2,19801723
1128,198053,Habichtswald,3,1980517
1129,198054,"Biesdorf-Süd, Köpenickerstrasse",0,1980168
1130,198054,Zimmermannstrasse,1,19801710
1131,198054,Grabensprung,2,1980473
1132,198054,Elsterwerdaer Platz,3,1980332
1133,198054,Oberfeldstrasse,4,1980998
1135,198054,Rhinstrasse,5,19801170
1137,198054,U-Bhf. Friedrichsfelde,6,19801493
1138,198054,Lincolnstrasse,7,1980856
1139,198054,S-Bhf. Nöldnerplatz,8,19801240
1140,198055,U-Bhf. Ruhleben,0,19801545
1141,198055,Krematorium Ruhleben,1,1980759
1142,198055,Güterbahn Ruhleben,2,1980515
1143,198055,Teltowerstrasse,3,19801443
1146,198055,Pichelsdorferstrasse,4,19801075
1148,198055,Adamstrasse,5,19803
1150,198055,Wilhelmstrasse,6,19801664
1151,198055,Am Omnibushof,7,198071
1152,198055,Gatowerstrasse,8,1980432
1153,198055,Sandheideweg,9,19801267
1154,198055,Weinmeisterhornweg,10,19801625
1155,198055,Zur Haveldüne,11,19801716
1156,198055,"Gatowerstrasse ""Biberburg""",12,1980433
1157,198055,Ortsgrenze Gatow,13,19801025
1158,198055,Gatow Kirche,14,1980430
1159,198055,Groß-Glienicker Weg,15,1980490
1160,198055,Am Graben,16,198063
1161,198055,Straße zur Badewiese,17,19801418
1162,198055,Breitehornweg/Krankenhaus,18,1980205
1163,198055,"Flugplatz, Haupteingang",19,1980378
1164,198055,"Havelhöhe, Krankenhaus",20,1980544
1165,198055,Finnensiedlung,21,1980367
1166,198055,Ritterfelddamm/Alt-Kladow,22,19801181
1167,198055,Krampnitzer Weg,23,1980751
1168,198055,Kladow Hottengrund,24,1980713
1169,198056,Kladow,0,1980712
1170,198056,Sakrower Landstrasse,1,19801264
1171,198056,Grimmelshausenstrasse,2,1980485
1172,198056,Krampnitzer Weg,3,1980751
1173,198056,Pottensteiner Weg,4,19801101
1174,198056,Altenheim Hottengrund,5,198057
1175,198057,S-Bhf. Grünau,0,19801226
1176,198057,Gartenstadtweg,1,1980428
1177,198057,"Bohnsdorf, Kirche",2,1980193
1178,198057,S-Bhf. Grünbergallee,3,19801228
1179,198057,Bhf. Schönefeld,4,1980162
1180,198057,"Flughafen, Inland",5,1980377
1181,198058,Flughafen Schönefeld,0,1980376
1182,198058,Bahnhof,1,1980113
1183,198058,Hotel,2,1980616
1184,198058,Flughafen Schönefeld,3,1980376
1185,198059,S-Bhf. Grünau,0,19801226
1186,198059,Eichbuschplatz,1,1980316
1187,198059,Waltersdorferstrasse,2,19801605
1188,198059,"Bohnsdorf, Waldstrasse",3,1980194
1189,198059,Waltersdorf,4,19801604
1190,198059,Mitschurinweg,5,1980933
1191,198059,Diepensee,6,1980287
1192,198060,Wartenberg,0,19801616
1193,198060,Lindenbergerstrasse,1,1980861
1194,198060,Falkenberger Chaussee,2,1980349
1195,198060,Arnimstrasse,3,198096
1196,198060,Falkenbergerstrasse,4,1980350
1197,198061,"Neu-Westend, Brixplatz",0,1980977
1198,198061,U-Bhf. Neu-Westend,1,19801527
1199,198061,U-Bhf. Theodor-Heuss-Platz,2,19801556
1200,198061,Ausstellungshallen,3,1980109
1201,198061,ICC/Omnibusbahnhof,4,1980634
1202,198061,ICC/Ausstellungshallen,5,1980633
1203,198061,Kurfürstendamm/Rathenauplatz,6,1980770
1205,198061,Henriettenplatz,7,1980562
1206,198061,Joachim-Friedrich-Strasse,8,1980654
1208,198061,Hochmeisterplatz,9,1980594
1209,198061,U-Bhf. Fehrbelliner Platz,10,19801491
1210,198061,U-Bhf. Blissestrasse,11,19801483
1211,198061,U-Bhf. Berlinerstrasse,12,19801482
1212,198061,John-F-Kennedy-Platz,13,1980663
1213,198061,Hauptstrasse,14,1980539
1214,198061,Kaiser-Wilhem-Platz,15,1980675
1215,198061,Katzbach-/Boelckestrasse,16,1980702
1216,198061,Platz der Luftbrücke,17,19801085
1217,198061,Friesenstrasse,18,1980413
1218,198061,Hermannstrasse/U-Bhf. Boddinstrasse,19,1980569
1219,198061,Kienitzerstrasse,20,1980707
1220,198061,U-Bhf. Karl-Marx-Strasse,21,19801509
1221,198061,Erkstrasse/U-Bhf. Rathaus Neukölln,22,1980341
1222,198061,Sonnenallee,23,19801345
1226,198061,"Neukölln, Teupitzerstrasse",24,1980982
1227,198062,Eberswalderstrasse,0,1980308
1228,198062,U-Bhf. Dimitroffstrasse,1,19801488
1230,198062,Prenzlauer Allee,2,19801106
1232,198062,Greifswalderstrasse,3,1980479
1233,198062,Artur-Becker-Strasse,4,1980100
1234,198062,Leninallee,5,1980823
1236,198062,Frankfurter Tor,6,1980387
1237,198062,Grünbergerstrasse,7,1980505
1238,198062,S-Bhf. Warschauerstrasse,8,19801257
1239,198063,Robert-Koch-Platz,0,19801183
1240,198063,Oranienburger Tor,1,19801015
1241,198063,Rosenthaler Platz,2,19801196
1242,198063,U-Bhf. Rosa-Luxemburg-Platz,3,19801542
1243,198063,Am Friedrichshain,4,198062
1244,198063,Leninplatz,5,1980825
1245,198063,Karl-Marx-Allee,6,1980692
1246,198063,Ostbahnhof,7,19801030
1247,198064,Neu-Lindenberg,0,1980975
1248,198064,"Lindenberg, Dorf",1,1980860
1249,198064,"Malchow, Dorf",2,1980897
1250,198064,Feldtmannstrasse,3,1980362
1251,198064,Rennbahnstrasse,4,19801164
1252,198064,Falkenbergerstrasse,5,1980350
1253,198064,Straße nach Wartenberg,6,19801417
1254,198064,Bhf. Ahrensfelde,7,1980152
1255,198064,"Ahrensfelde, Kirche",8,198011
1256,198065,Rudow Stadtgrenze,0,19801202
1257,198065,U-Bhf. Rudow,1,19801544
1258,198065,Zwickauer Damm,2,19801720
1259,198065,Arnikaweg,3,198095
1260,198065,Lipschitzallee,4,1980868
1261,198065,Grüner Weg,5,1980506
1262,198065,Parchimer Allee,6,19801058
1263,198065,Blaschkoallee,7,1980184
1264,198065,U-Bhf. Grenzallee,8,19801497
1265,198065,Naumburgerstrasse,9,1980973
1269,198065,Sonnenallee,10,19801348
1270,198065,Saalestrasse,11,19801259
1271,198065,Wildenbruchstrasse,12,19801649
1272,198065,Pannierstrasse,13,19801053
1273,198065,Hermannplatz,14,1980565
1274,198065,U-Bhf. Kottbusser Damm,15,19801513
1275,198065,U-Bhf. Kottbusser Tor,16,19801514
1276,198065,Oranienplatz,17,19801021
1277,198065,U-Bhf. Moritzplatz,18,19801525
1278,198065,Alexandrinenstrasse,19,198022
1280,198065,Alte Jakobstrasse,20,198056
1282,198065,Lindenstrasse,21,1980864
1283,198065,Neuenburgerstrasse,22,1980978
1284,198065,Gitschinerstrasse,23,1980452
1286,198065,U-Bhf. Hallesches Tor,24,19801500
1287,198066,"Buch, Zepernickerstrasse",0,1980233
1288,198066,Karowerstrasse,1,1980698
1289,198066,Stadtrandsiedlung,2,19801390
1290,198066,Alt-Karow,3,198031
1291,198066,Straße 26,4,19801413
1292,198066,Alt-Blankenburg,5,198028
1293,198066,"Heinersdorf, Kirche",6,1980556
1294,198066,Am Steinberg,7,198074
1295,198066,Ostseestrasse,8,19801036
1296,198067,S-Bhf. Marzahn,0,19801238
1298,198067,Annenstrasse,1,198091
1299,198067,Boschpolerstrasse,2,1980198
1300,198067,S-Bhf. Springpfuhl,3,19801252
1301,198067,S-Bhf. Friedrichsfelde Ost,4,19801222
1302,198067,U-Bhf. Friedrichsfelde,5,19801493
1303,198067,Weitlingstrasse,6,19801626
1304,198067,S-Bhf. Nöldnerplatz,7,19801240
1305,198068,"Hönow, Nord",0,1980629
1306,198068,"Hönow, Dorf",1,1980628
1307,198068,Thälmannstrasse,2,19801454
1308,198068,Greifswalderstrasse,3,1980476
1310,198068,Am Rosenhag,4,198073
1311,198068,S-Bhf. Mahlsdorf,5,19801236
1312,198068,Treskowstrasse,6,19801468
1313,198069,"Wilhelmsruh, Schillerstrasse",0,19801658
1314,198069,Edelweißstrasse,1,1980309
1315,198069,Ehrenmal Schönholz,2,1980313
1316,198069,Heinrich-Mann-Platz,3,1980558
1317,198069,"Pankow, Rathaus",4,19801048
1318,198069,S-Bhf. Pankow,5,19801243
1319,198069,Prenzlauer Promenade,6,19801110
1321,198069,Am Steinberg,7,198074
1322,198069,Hamburger Platz,8,1980528
1323,198069,Klement-Gottwald-Allee,9,1980718
1324,198069,Lichtenbergerstrasse,10,1980835
1325,198069,Bernkastelerstrasse,11,1980144
1326,198069,Gehringstrasse,12,1980435
1327,198069,Schwarzelfenweg,13,19801299
1328,198070,Nordend,0,1980991
1329,198070,Kurt-Fischer-Strasse,1,1980778
1330,198070,Bürgerpark,2,1980252
1331,198070,"Pankow, Kirche",3,19801047
1332,198070,S-Bhf. Pankow,4,19801244
1333,198070,U-Bhf. Pankow,5,19801534
1335,198070,Schönhauser Allee,6,19801310
1336,198070,U-Bhf. Dimitroffstrasse,7,19801488
1337,198070,Brunnenstrasse,8,1980225
1338,198070,Oranienburger Tor,9,19801016
1339,198070,Bhf. Friedrichstrasse,10,1980156
1340,198070,Am Kupfergraben,11,198068
1341,198071,"Treptow, Eichenstrasse",0,19801465
1342,198071,S-Bhf. Treptower Park,1,19801255
1343,198071,"Treptow, Rathaus",2,19801466
1344,198071,S-Bhf. Baumschulenweg,3,19801219
1345,198071,Sonnenallee,4,19801345
1349,198071,Johannisthaler Chaussee,5,1980661
1350,198071,Sterndamm,6,19801402
1351,198071,Bhf. Schöneweide,7,1980163
1352,198072,"Hohenschönhausen, Chemie-Handel",0,1980600
1353,198072,Plauenerstrasse,1,19801088
1355,198072,Leninallee,2,1980820
1357,198072,Genslerstrasse,3,1980445
1358,198072,Ho-Chi-Minh-Strasse,4,1980591
1359,198072,S-Bhf. Leninallee,5,19801234
1360,198072,Dimitroffstrasse,6,1980288
1362,198072,Richard-Sorge-Strasse,7,19801175
1363,198073,Zehlendorf Fischerhüttenstrasse Ecke Potsdamerstrasse,0,19801696
1365,198073,Potsdamerstrasse,1,19801096
1370,198073,Teltower Damm,2,19801442
1371,198073,Berlinerstrasse,3,1980135
1374,198073,Seehofstrasse,4,19801318
1375,198073,Sundgauerstrasse,5,19801427
1376,198073,Dahlemer Weg,6,1980275
1379,198073,Drakestrasse,7,1980301
1380,198073,Wrangelstrasse,8,19801687
1381,198073,U-Bhf. Rathaus Steglitz,9,19801539
1382,198073,U-Bhf. Schloßstrasse,10,19801549
1383,198073,U-Bhf. Walther-Schreiber-Platz,11,19801564
1384,198073,Kaisereiche,12,1980677
1385,198073,Breslauer Platz/Rathaus Friedenau,13,1980216
1386,198073,U-Bhf. Innsbrucker Platz,14,19801505
1387,198073,Dominicusstrasse,15,1980295
1388,198073,Albertstrasse,16,198012
1389,198073,Kaiser-Wilhelm-Platz,17,1980674
1390,198073,U-Bhf. Kleistpark,18,19801510
1392,198073,Goebenstrasse,19,1980463
1393,198073,Bülowstrasse,20,1980250
1394,198073,U-Bhf. Kurfürstenstrasse,21,19801517
1395,198073,Lützowstrasse,22,1980889
1396,198073,Potsdamer Brücke,23,19801092
1397,198073,Tiergartenstrasse Philharmonie,24,19801458
1398,198074,"Bucholz, Hauptstrasse",0,1980234
1399,198074,Rosenthalerstrasse,1,19801198
1400,198074,S-Bhf. Pankow-Heinersdorf,2,19801245
1401,198074,Klausthalerstrasse,3,1980716
1402,198074,"Pankow, Kirche",4,19801047
1403,198074,S-Bhf. Pankow,5,19801244
1404,198074,U-Bhf. Pankow,6,19801534
1405,198074,Bhf. Schönhauser Allee,7,1980165
1406,198074,U-Bhf. Dimitroffstrasse,8,19801488
1407,198074,Rosenthaler Platz,9,19801197
1408,198074,Hackescher Markt,10,1980520
1409,198075,U-Bhf. Ruhleben,0,19801545
1410,198075,Krematorium Ruhleben,1,1980759
1411,198075,Güterbahn Ruhleben,2,1980515
1412,198075,Teltowerstrasse,3,19801443
1413,198075,Tiefwerderweg,4,19801455
1414,198075,Grenadierstrasse,5,1980482
1415,198075,Stresowplatz,6,19801420
1416,198075,"Spandau, Markt",7,19801359
1417,198075,Rathaus Spandau,8,19801140
1418,198075,Galenstrasse,9,1980425
1419,198075,Staakenerstrasse,10,19801382
1420,198075,Petzoldtweg,11,19801069
1421,198075,Zeppelinstrasse,12,19801705
1423,198075,Spekteweg,13,19801368
1424,198075,Merzigerstrasse,14,1980928
1425,198075,Falkenseer Chaussee,15,1980353
1426,198075,Westerwaldstrasse Ecke Friedhof,16,19801639
1427,198075,Frankenwaldstrasse,17,1980382
1428,198075,Am Kiesteich,18,198067
1429,198075,Falkenseer Chaussee/Stadtrandstrasse,19,1980354
1430,198075,Waldkrankenhaus,20,19801598
1431,198075,"Spandau, Nervenklinik",21,19801360
1432,198076,Rolandstrasse,0,19801192
1433,198076,Kurt-Fischer-Strasse,1,1980777
1434,198076,Bürgerpark,2,1980251
1435,198076,Dolomitenstrasse,3,1980294
1436,198076,U-Bhf. Pankow,4,19801533
1437,198077,Grunewald Roseneck,0,1980499
1438,198077,Hohenzollerndamm,1,1980606
1439,198077,Berkaerstrasse/ Elsterplatz,2,1980133
1440,198077,Forckenbeckstrasse,3,1980380
1441,198077,Landeckerstrasse,4,1980800
1442,198077,Cunostrasse,5,1980271
1443,198077,Rudolstädterstrasse,6,19801200
1446,198077,Berlinerstrasse,7,1980137
1447,198077,U-Bhf. Fehrbelliner Platz,8,19801491
1448,198077,Emser Platz,9,1980336
1449,198077,Uhlandstrasse,10,19801573
1452,198077,Nassauischestrasse,11,1980970
1453,198077,U-Bhf. Güntzelstrasse,12,19801499
1454,198077,Prager Platz,13,19801102
1455,198077,Landshuterstrasse,14,1980803
1456,198077,Münchenerstrasse,15,1980966
1457,198077,Martin-Luther-Strasse,16,1980918
1460,198077,Eisenacherstrasse,17,1980323
1461,198077,Winterfeldtplatz,18,19801670
1465,198077,Potsdamerstrasse,19,19801098
1468,198077,Mansteinstrasse,20,1980901
1469,198077,Schöneberg Mansteinstrasse,21,19801303
1470,198078,"Buch, Am Sandhaus",0,1980231
1471,198078,S-Bhf. Buch,1,19801221
1472,198078,Zepernickerstrasse,2,19801704
1473,198078,"Zepernick, Kirche",3,19801703
1474,198079,Achtermannstrasse,0,19800
1475,198079,Prenzlauer Chaussee,1,19801109
1476,198079,Kissingenstrasse,2,1980711
1477,198079,Stadtbezirksgericht,3,19801387
1478,198079,U-Bhf. Pankow,4,19801533
1479,198080,Rudow Stubenrauchstrasse,0,19801203
1480,198080,Seidelbastweg,1,19801324
1481,198080,Efeuweg,2,1980311
1482,198080,Rudowerstrasse,3,19801206
1483,198080,Lipschitzallee,4,1980868
1484,198080,Loewensteinring,5,1980873
1485,198080,Fritz-Erler-Allee,6,1980414
1486,198080,U-Bhf. Johannisthaler Ch.,7,19801507
1487,198080,Kölner Damm,8,1980781
1488,198080,Buckower Damm,9,1980238
1489,198080,Buckower Friedhof,10,1980239
1490,198080,Quarzweg,11,19801122
1492,198080,Lichtenrader Damm,12,1980842
1493,198080,Kettingerstrasse,13,1980705
1494,198080,Buckower Chaussee,14,1980236
1495,198080,Motzenerstrasse,15,1980948
1496,198080,Gutshof Marienfeld,16,1980510
1497,198080,Alt-Marienfelde,17,198039
1498,198080,Ahrensdorferstrasse,18,198010
1499,198080,Baußnernweg,19,1980120
1500,198080,Marienfelde Stadtrandsiedlung,20,1980912
1501,198081,"Hohenschönhausen, Degnerstrasse",0,1980601
1502,198081,Falkenbergerstrasse,1,1980350
1503,198081,Marzahnerstrasse,2,1980922
1504,198081,Chemie-Handel,3,1980265
1507,198081,Leninallee,4,1980821
1508,198081,Allee der Kosmonauten,5,198023
1509,198081,Kröverstrasse,6,1980764
1510,198081,S-Bhf. Friedrichsfelde Ost,7,19801222
1511,198081,Straße der Befreiung,8,19801415
1512,198081,U-Bhf. Friedrichsfelde,9,19801493
1513,198081,Mellenseestrasse,10,1980926
1514,198081,U-Bhf. Tierpark,11,19801558
1515,198082,Nikolassee Alemannenstrasse,0,1980986
1516,198082,An der Rehwiese,1,198085
1517,198082,Krottnaurerstrasse,2,1980762
1518,198082,Waldemarplatz,3,19801596
1519,198082,Argentinische Allee,4,198093
1520,198082,Forststrasse,5,1980381
1521,198082,U-Bhf. Krumme Lanke,6,19801515
1522,198082,Sven-Hedin-Strasse,7,19801428
1523,198082,Hartmannsweiler Weg,8,1980536
1526,198082,Potsdamerstrasse,9,19801097
1530,198082,Teltower Damm,10,19801442
1531,198082,Rathaus Zehlendorf,11,19801144
1532,198082,Machnowerstrasse,12,1980890
1533,198082,Knesebeckstrasse,13,1980731
1534,198082,Dahlemer Weg,14,1980275
1535,198082,Osteweg,15,19801032
1536,198082,Luzernerstrasse,16,1980882
1537,198082,Thuner Platz,17,19801450
1538,198082,Goerzallee,18,1980464
1539,198082,Drakestrasse,19,1980299
1543,198082,Ostpreußendamm,20,19801035
1544,198082,Marienstrasse,21,1980915
1546,198082,Morgensternstrasse,22,1980945
1547,198082,Kranoldplatz,23,1980757
1548,198082,Lichterfelde Oberhofer Platz,24,1980845
1549,198083,Bhf. Lichtenberg,0,1980160
1550,198083,U-Bhf. Friedrichsfelde,1,19801493
1551,198083,Alt-Biesdorf,2,198027
1552,198083,S-Bhf. Biesdorf,3,19801220
1553,198083,Elisabethstrasse,4,1980328
1555,198083,Alt-Marzahn,5,198040
1556,198083,Stadtberg,6,19801386
1557,198083,Annenstrasse,7,198090
1559,198083,S-Bhf. Springpfuhl,8,19801252
1562,198083,Rhinstrasse,9,19801171
1565,198083,Leninallee,10,1980821
1566,198083,Genslerstrasse,11,1980445
1567,198083,Ho-Chi-Minh-Strasse,12,1980591
1568,198083,S-Bhf. Leninallee,13,19801234
1569,198083,Dimitroffstrasse,14,1980288
1571,198083,Artur-Becker-Strasse,15,198099
1572,198084,Spandau Johannesstift,0,19801355
1573,198084,Stadtpark/Cautiusstrasse,1,19801389
1574,198084,Hohenzollernring,2,1980608
1575,198084,Lynarstrasse,3,1980884
1576,198084,Wröhmännerpark,4,19801688
1577,198084,Moritzstrasse,5,1980947
1578,198084,Rathaus Spandau,6,19801140
1579,198084,Ruhlebenerstrasse,7,19801208
1580,198084,Teltowerstrasse,8,19801443
1581,198084,Krematorium Ruhleben,9,1980759
1582,198084,U-Bhf. Ruhleben,10,19801545
1583,198084,Reichsstrasse,11,19801156
1584,198084,Klinikum Westend,12,1980723
1585,198084,Königin-Elisabeth-Strasse,13,1980784
1586,198084,Spandauer-Damm-Brücke,14,19801364
1587,198084,Sophie-Charlotten-Strasse,15,19801352
1588,198084,Klausenerplatz,16,1980715
1589,198084,Luisenplatz,17,1980881
1590,198084,Wilmersdorferstrasse,18,19801665
1591,198084,U-Bhf. Richard-Wagner-Platz,19,19801540
1593,198084,Leibnizstrasse,20,1980816
1594,198084,U-Bhf. Ernst-Reuter-Platz,21,19801489
1595,198084,Jebensstrasse/Amerikahaus,22,1980652
1596,198084,"Zoo, Hardenbergplatz",23,19801713
1597,198085,"Wilhelmsruh, Fontanestrasse",0,19801657
1598,198085,Edelweißstrasse,1,1980309
1599,198085,Ehrenmal Schönholz,2,1980313
1600,198085,Heinrich-Mann-Strasse,3,1980559
1601,198085,Bürgerpark,4,1980251
1602,198085,S-Bhf. Pankow,5,19801243
1603,198085,U-Bhf. Pankow,6,19801533
1604,198085,Prenzlauer Promenade,7,19801110
1606,198085,"Heinersdorf, Kirche",8,1980556
1607,198085,Pasedagplatz,9,19801062
1608,198085,Klement-Gottwald-Allee,10,1980718
1609,198085,Piesporterstrasse,11,19801078
1610,198086,Jakob-Kaiser-Platz,0,1980648
1611,198086,Letterhausweg,1,1980832
1612,198086,U-Bhf. Siemensdamm,2,19801552
1613,198086,Quellweg,3,19801123
1614,198086,U-Bhf. Rohrdamm,4,19801541
1615,198086,Schaltwerk,5,19801271
1617,198086,Paulsternstrasse,6,19801067
1618,198086,Gartenfelderstrasse,7,1980427
1619,198086,Haselhorster Damm,8,1980537
1620,198086,Siedlung Haselhorst,9,19801335
1621,198086,Am Juliusturm,10,198066
1622,198086,Zitadellenweg,11,19801711
1623,198086,BMW-Maschinenfabrik,12,1980110
1624,198086,Zur Zitadelle,13,19801717
1625,198086,Carl-Schurz-Strasse,14,1980258
1626,198086,Wröhmännerpark,15,19801688
1627,198086,Triftstrasse,16,19801470
1629,198086,Park-/Lynarstrasse,17,19801060
1630,198086,Schäferstrasse,18,19801302
1631,198086,Hohenzollernring,19,1980608
1632,198086,Reußstrasse,20,19801168
1633,198086,Rauchstrasse,21,19801150
1634,198086,Mertensstrasse,22,1980927
1635,198086,Werderstrasse,23,19801634
1637,198086,Spandau Hakenfelde,24,19801354
1638,198087,Gehringstrasse,0,1980435
1639,198087,Wigandstalerstrasse,1,19801647
1640,198087,Hamburger Platz,2,1980528
1642,198087,Prenzlauer Promenade,3,19801111
1643,198087,Grellstrasse,4,1980481
1645,198087,Greifswalderstrasse,5,1980477
1646,198087,Storkowerstrasse,6,19801405
1648,198087,Leninallee,7,1980820
1650,198087,S-Bhf. Storkowerstrasse,8,19801254
1651,198088,U-Bhf. Ruhleben,0,19801545
1652,198088,Krematorium Ruhleben,1,1980759
1653,198088,Klärwerkstrasse,2,1980729
1654,198088,Freiheit 42/43,3,1980398
1655,198088,Pichelswerderstrasse,4,19801077
1656,198088,Stresowplatz,5,19801420
1659,198088,Charlottenstrasse,6,1980263
1660,198088,"Spandau, Markt",7,19801359
1661,198088,Carl-Schurz-Strasse,8,1980258
1662,198088,Wröhmännerpark,9,19801688
1663,198088,Triftstrasse,10,19801470
1665,198088,Lynar-/Parkstrasse,11,1980883
1666,198088,Schäferstrasse,12,19801302
1667,198088,Hohenzollernring,13,1980608
1668,198088,Reußstrasse,14,19801168
1669,198088,Rauchstrasse,15,19801150
1670,198088,Mertensstrasse,16,1980927
1671,198088,Spandau Hakenfelde,17,19801354
1672,198089,Artur-Becker-Strasse Ecke Michelangelostrasse,0,1980101
1673,198089,Storkowerstrasse,1,19801405
1675,198089,Dimitroffstrasse,2,1980289
1676,198089,Am Friedrichshain,3,198062
1677,198089,Karl-Liebknecht-Strasse,4,1980690
1678,198089,Bhf. Alexanderplatz,5,1980153
1679,198089,Deutsche Staatsoper,6,1980283
1681,198089,Charlottenstrasse,7,1980262
1683,198089,Bhf. Friedrichstrasse,8,1980155
1684,198089,Oranienburgerstrasse,9,19801017
1687,198089,Oranienburger Tor,10,19801015
1688,198089,Invalidenstrasse,11,1980643
1689,198089,Platz vor dem Neuen Tor,12,19801087
1690,198089,Orthopädische Klinik,13,19801024
1691,198089,Scharnhorststrasse,14,19801273
1692,198090,Rudower Ring (U-Bhf. Zwickauer Damm),0,19801205
1693,198090,Zittauerstrasse,1,19801712
1694,198090,U-Bhf. Zwickauer Damm,2,19801570
1695,198090,Neuköllnerstrasse,3,1980983
1696,198090,Seidelbastweg/Stubenrauchstrasse,4,19801325
1697,198090,Köpenickerstrasse,5,1980793
1700,198090,Alt-Rudow,6,198046
1701,198090,U-Bhf. Rudow,7,19801544
1702,198090,Lockenhuhnweg,8,1980871
1703,198090,Geflügelsteig,9,1980434
1704,198090,Rhodeländerweg,10,19801174
1705,198090,Groß-Ziethener-Ch.,11,1980491
1706,198090,U-Bhf. Rudow,12,19801544
1707,198090,Alt-Rudow,13,198046
1708,198090,Köpenickerstrasse,14,1980793
1711,198090,Seidelbastweg/Stubenrauchstrasse,15,19801325
1712,198090,Neuköllnerstrasse,16,1980983
1713,198090,U-Bhf. Zwickauer Damm,17,19801570
1714,198090,Zittauerstrasse,18,19801712
1715,198090,Rudower Ring (U-Bhf. Zwickauer Damm),19,19801205
1716,198091,"Wannsee, Kronprinzessinnenweg",0,19801610
1717,198091,Königstrasse,1,1980788
1718,198091,Pfaueninselchaussee,2,19801071
1719,198091,Rathaus Wannsee,3,19801143
1720,198091,Friedenstrasse,4,1980400
1721,198091,Schäferberg,5,19801301
1722,198091,Nikolskoer Weg,6,1980987
1723,198091,Glienicker Brücke,7,1980457
1724,198092,"S-Bhf. Kaulsdorf, Bausdorfstrasse",0,19801231
1725,198092,Briesener Weg,1,1980217
1726,198092,Wernerbad,2,19801637
1727,198092,Grottkauerstrasse,3,1980489
1728,198092,Uckermarkstrasse,4,19801572
1729,198092,"S-Bhf. Kaulsdorf, Bausdorfstrasse",5,19801231
1730,198093,Wittenbergplatz,0,19801678
1731,198093,Breitscheidplatz,1,1980213
1732,198093,Kantstrasse,2,1980683
1737,198093,Uhlandstrasse,3,19801575
1738,198093,Kürfürstendamm/U-Bhf. Uhlandstrasse,4,1980798
1739,198093,Lietzenburgerstrasse,5,1980854
1740,198093,Ludwigkirchstrasse,6,1980879
1741,198093,U-Bhf. Hohenzollernplatz,7,19801503
1742,198093,Güntzelstrasse,8,1980513
1743,198093,U-Bhf. Blissestrasse,9,19801483
1744,198093,Blissestrasse,10,1980187
1745,198093,U-Bhf. Heidelberger Platz,11,19801502
1746,198093,Bingerstrasse,12,1980169
1747,198093,Sodenerstrasse,13,19801342
1748,198093,Kirchstrasse,14,1980709
1749,198093,Berkaerstrasse,15,1980132
1750,198093,Rathaus Schmargendorf,16,19801137
1751,198093,Elsterplatz,17,1980331
1752,198093,Roseneck,18,19801194
1753,198093,Königen-Luise-Strasse,19,1980782
1754,198093,Hüttenweg,20,1980631
1755,198093,U-Bhf. Oskar-Helene-Heim,21,19801531
1756,198093,Krankenhaus Oskar-Helene-Heim,22,1980755
1757,198093,Berlinerstrasse,23,1980135
1760,198093,Rathaus Zehlendorf,24,19801144
1761,198094,"Schöneiche, Dorfaue",0,19801305
1762,198094,Dr. Wilhelm-Külz-Strasse,1,1980298
1763,198094,S-Bhf. Rahnsdorf,2,19801248
1764,198094,Waldschänke,3,19801601
1765,198094,Zentralschule,4,19801701
1766,198094,S-Bhf. Wilhelmshagen,5,19801258
1767,198094,Fahlenbergstrasse,6,1980346
1768,198094,Hessenwinkel,7,1980580
1769,198095,Bernauerstrasse Ecke Wollinerstrasse,0,1980142
1770,198095,Lortzingstrasse,1,1980875
1771,198095,Ramlerstrasse,2,19801131
1772,198095,U-Bhf. Gesundbrunnen,3,19801494
1773,198095,U-Bhf. Pankstrasse,4,19801535
1774,198095,Exerzierstrasse,5,1980345
1775,198095,Schulstrasse,6,19801293
1776,198095,U-Bhf. Osloerstrasse,7,19801532
1777,198095,Koloniestrasse,8,1980739
1778,198095,Prinzenallee,9,19801116
1779,198095,Soldinerstrasse,10,19801343
1780,198095,Kühnemannstrasse,11,1980797
1782,198095,Pankower Allee,12,19801051
1783,198095,Reginhardstrasse,13,19801152
1784,198095,Residenzstrasse,14,19801165
1787,198095,Emmentalerstrasse,15,1980334
1789,198095,Lindauer Allee,16,1980857
1792,198095,Flottenstrasse,17,1980371
1794,198095,Paracelsus-Bad,18,19801056
1795,198095,Gemeindefriedhof,19,1980440
1797,198095,Ollenhauerstrasse,20,19801008
1799,198095,Kurt-Schumacher-Platz,21,1980779
1800,198095,Uranusweg,22,19801578
1801,198095,U-Bhf. Scharnweberstrasse,23,19801547
1802,198096,VEB Kombinat Auto Trans,0,19801583
1803,198096,Bhf. Schöneweide,1,1980163
1804,198096,Hoevelstrasse,2,1980597
1806,198097,Wilhelmsruher Damm Märkisches Viertel,0,19801661
1807,198097,Treuenbrietzenerstrasse,1,19801469
1808,198097,Gemeindezentrum,2,1980442
1810,198097,Oranienburgerstrasse,3,19801018
1813,198097,Roedernallee,4,19801188
1814,198097,Alt-Wittenau,5,198052
1816,198097,Karl-Bonhoeffer-Nervenklinik,6,1980687
1819,198097,Lindauer Allee,7,1980859
1820,198097,Auguste-Viktoria-Allee,8,1980107
1821,198097,U-Bhf. Kurt-Schumacher-Platz,9,19801518
1822,198097,Kaserne Napoleon,10,1980700
1823,198097,Kaserne Südtor,11,1980701
1824,198097,Saatwinkler Damm,12,19801260
1825,198097,U-Bhf. Jakob-Kaiser-Platz,13,19801506
1826,198097,Jakob-Kaiser-Platz,14,1980648
1827,198097,Olbersstrasse/DRK-Krankenhaus,15,19801005
1828,198097,Landgericht,16,1980801
1829,198097,Schloßbrücke,17,19801284
1830,198097,Luisenplatz,18,1980881
1831,198097,Wilmersdorferstrasse,19,19801665
1832,198097,U-Bhf. Richard-Wagner-Platz,20,19801540
1834,198097,Leibnizstrasse,21,1980816
1835,198097,U-Bhf. Ernst-Reuter-Platz,22,19801489
1836,198097,Steinplatz,23,19801398
1837,198097,"Zoo, Hardenbergplatz",24,19801713
1838,198098,Spandau Waldkrankenhaus,0,19801357
1839,198098,Pflegeheim,1,19801072
1840,198098,Kolonie Waldfrieden,2,1980738
1841,198098,Bötzow-Bahn,3,1980249
1842,198098,Gliensteig,4,1980459
1843,198098,Schwanter Weg,5,19801298
1844,198098,Kisselnallee,6,1980710
1845,198098,Pionierstrasse,7,19801082
1846,198098,Falkenseer Chaussee,8,1980353
1847,198098,Zweibrückerstrasse,9,19801718
1848,198098,Askanierring,10,1980102
1849,198098,Flankenschanze,11,1980370
1850,198098,Falkenseer Damm,12,1980355
1851,198098,Falkenseer Platz,13,1980356
1852,198098,Rathaus Spandau,14,19801140
1853,198098,Galenstrasse,15,1980425
1854,198098,Staakenerstrasse,16,19801382
1855,198098,Petzoldweg,17,19801070
1856,198098,Zeppelinstrasse,18,19801705
1858,198098,Schulzenstrasse,19,19801296
1859,198098,Viersenerstrasse,20,19801589
1860,198098,Dyrotzerstrasse,21,1980305
1861,198098,Straße 393,22,19801414
1862,198098,Spandau Seegefelder Weg,23,19801356
1863,198099,"Hohenschönhausen, Gartenstadt",0,1980603
1864,198099,Wartenbergerstrasse,1,19801617
1865,198099,Suermondtstrasse,2,19801424
1867,198099,Oberseestrasse,3,19801000
1869,198099,Ho-Chi-Minh-Strasse,4,1980593
1870,198099,S-Bhf. Leninallee,5,19801235
1871,198099,Dimitroffstrasse,6,1980290
1874,198099,Leninplatz,7,1980826
1875,198099,Hans-Beimler-Strasse,8,1980531
1876,198099,Prenzlauer Allee,9,19801105
1879,198099,U-Bhf. Rosa-Luxemburg-Platz,10,19801543
1880,198099,Hackescher Markt,11,1980520
1881,198099,Oranienburger Tor,12,19801016
1882,198099,Stadion der Weltjugend,13,19801385
1883,1980100,Krüllsstrasse,0,1980765
1884,1980100,S-Bhf. Treptower Park,1,19801255
1885,1980100,"Treptow, Rathaus",2,19801466
1886,1980100,S-Bhf. Treptower Park,3,19801255
1887,1980100,Karl-Kunger-Strasse,4,1980689
1888,1980101,Senftenberger Ring Märkisches Zentrum,0,19801329
1889,1980101,Calauerstrasse,1,1980257
1890,1980101,Eichhorster Weg,2,1980319
1892,1980101,Wilhelmsruher Damm,3,19801660
1893,1980101,Dannenwalder Weg,4,1980279
1894,1980101,Roedernallee,5,19801187
1897,1980101,Tessenowstrasse,6,19801447
1899,1980101,Flottenstrasse,7,1980372
1901,1980101,Lindauer Allee,8,1980858
1903,1980101,Humboldt-Krankenhaus,9,1980620
1904,1980101,Gotthardstrasse,10,1980470
1905,1980101,Holländerstrasse/Friedhöfe,11,1980610
1906,1980101,Londonerstrasse,12,1980874
1907,1980101,U-Bhf. Afrikanischestrasse,13,19801478
1908,1980101,Nachtigalplatz,14,1980967
1909,1980101,Transvaalstrasse,15,19801464
1910,1980101,Seestrasse,16,19801321
1911,1980101,U-Bhf. Amrumerstrasse,17,19801481
1912,1980101,U-Bhf. Leopoldplatz,18,19801519
1913,1980102,Krüllsstrasse,0,1980765
1914,1980102,S-Bhf. Treptower Park,1,19801255
1915,1980102,S-Bhf. Plänterwald,2,19801246
1916,1980102,Baumschulenstrasse,3,1980118
1917,1980102,Bhf. Schöneweide,4,1980163
1918,1980102,S-Bhf. Oberspree,5,19801241
1919,1980102,Oberspree,6,19801001
1920,1980103,Wedding Seestrasse Ecke Müllerstrasse,0,19801621
1921,1980103,Müllerstrasse/U-Bhf. Seestrasse,1,1980965
1922,1980103,Afrikanischestrasse,2,19808
1924,1980103,Beusselstrasse,3,1980150
1925,1980103,Paul-Hertz-Siedlung,4,19801064
1926,1980103,Jakob-Kaiser-Platz,5,1980648
1927,1980103,Spandauer Damm,6,19801362
1929,1980103,ICC/Omnibusbahnhof,7,1980634
1930,1980103,Rathenauplatz,8,19801146
1931,1980103,Hohenzollerndamm,9,1980606
1932,1980103,Mecklenburgischestrasse,10,1980924
1933,1980103,Bundesallee,11,1980243
1934,1980103,Innsbrucker Platz,12,1980640
1935,1980103,Dominicusstrasse,13,1980295
1936,1980103,Sportzentrum Schöneberg,14,19801375
1937,1980103,Gotenstrasse,15,1980469
1939,1980103,Alboinstrasse,16,198014
1940,1980103,Berlinickeplatz,17,1980139
1941,1980103,U-Bhf. Alt-Tempelhof,18,19801480
1942,1980103,Hermannstrasse,19,1980568
1943,1980103,Bendastrasse,20,1980127
1944,1980103,U-Bhf. Neukölln,21,19801528
1946,1980103,Sonnenallee,22,19801346
1949,1980103,Grenzallee,23,1980483
1950,1980103,Neukölln Schulenburgpark,24,1980981
1951,1980104,Krüllsstrasse,0,1980765
1952,1980104,S-Bhf. Treptower Park,1,19801255
1953,1980104,S-Bhf. Plänterwald,2,19801246
1954,1980104,Baumschulenstrasse,3,1980118
1955,1980104,Bhf. Schöneweide,4,1980163
1956,1980104,Sterndamm,5,19801402
1957,1980104,Lindhorstweg,6,1980867
1958,1980104,Springbornstrasse,7,19801377
1959,1980105,S-Bhf. Treptower Park,0,19801255
1960,1980105,S-Bhf. Plänterwald,1,19801246
1961,1980105,Hänselstrasse,2,1980627
1962,1980105,Krematorium,3,1980758
1963,1980105,Bhf. Schöneweide,4,1980163
1964,1980105,VEB Kombinat Auto Trans,5,19801583
1965,1980106,Kaulsdorferstrasse,0,1980704
1966,1980106,S-Bhf. Köpenick,1,19801232
1967,1980106,Lindenstrasse,2,1980863
1969,1980106,Schloßplatz,3,19801285
1970,1980106,Pablo-Neruda-Strasse,4,19801042
1971,1980106,Anemonenstrasse,5,198087
1972,1980106,Wendenschloßstrasse,6,19801631
1973,1980107,Eichkamp Dauerwaldweg,0,1980320
1974,1980107,Waldschulallee,1,19801600
1975,1980107,Jafféstrasse/Deutschlandhalle,2,1980647
1976,1980107,ICC/Ausstellungshallen,3,1980633
1977,1980107,Rathenauplatz,4,19801146
1978,1980107,Henriettenplatz,5,1980562
1979,1980107,Joachim-Friedrich-Strasse,6,1980654
1981,1980107,Lehniner Platz,7,1980811
1982,1980107,U-Bhf. Adenauerplatz,8,19801477
1983,1980107,Olivaer Platz,9,19801006
1984,1980107,Sächsischestrasse,10,19801429
1986,1980107,Uhlandstrasse,11,19801574
1988,1980107,Joachimstalerstrasse,12,1980656
1990,1980107,U-Bhf. Kurfürstendamm,13,19801516
1991,1980107,Kantstrasse,14,1980683
1994,1980107,Breitscheidplatz,15,1980213
1995,1980107,Bayreutherstrasse,16,1980123
1996,1980107,Lützowplatz,17,1980888
1997,1980107,Tiergartenstrasse,18,19801457
1998,1980107,Großer Stern,19,1980495
1999,1980107,Schloß Bellevue,20,19801283
2000,1980107,Kongreßhalle,21,1980741
2001,1980107,Entlastungsstrasse,22,1980338
2002,1980107,Reichstag,23,19801157
2003,1980108,"Glienicke, Kirche",0,1980456
2004,1980108,Breitscheidstrasse,1,1980214
2005,1980108,Lessingstrasse,2,1980831
2006,1980108,Johannes-Diekmann-Strasse,3,1980658
2007,1980108,Schildow,4,19801277
2008,1980108,Blankenfelde,5,1980183
2009,1980108,Nordend-Arena,6,1980992
2010,1980108,Nordend,7,1980990
2011,1980108,Kurt-Fischer-Strasse,8,1980777
2012,1980108,Bürgerpark,9,1980251
2013,1980108,"Pankow, Kirche",10,19801046
2014,1980108,S-Bhf. Pankow,11,19801243
2015,1980108,U-Bhf. Pankow,12,19801533
2016,1980109,U-Bhf. Alt-Mariendorf,0,19801479
2017,1980109,Körtingstrasse,1,1980796
2018,1980109,Rennbahn Mariendorf,2,19801163
2019,1980109,Pilatusweg,3,19801079
2020,1980109,Titlisweg,4,19801460
2021,1980109,Säntisstrasse,5,19801430
2022,1980109,Daimlerstrasse,6,1980276
2024,1980109,Brandaustrasse,7,1980201
2025,1980109,Buckower Chaussee,8,1980236
2026,1980109,Nahmitzer Damm,9,1980969
2027,1980109,Nunsdorfer Ring,10,1980995
2028,1980109,Sperenbergerstrasse,11,19801370
2029,1980109,Schichauweg,12,19801276
2030,1980109,"Lichtenrade, Motzenerstrasse Egestorffstrasse",13,1980840
2031,1980110,Wollankstrasse Ecke Kattegatstrasse,0,19801684
2032,1980110,Elisabeth-Friedhof,1,1980327
2033,1980110,Soldinerstrasse,2,19801343
2034,1980110,Osloerstrasse,3,19801028
2035,1980110,U-Bhf. Pankstrasse,4,19801535
2036,1980110,Brunnenplatz,5,1980223
2037,1980110,Wiesenstrasse,6,19801646
2038,1980110,Nettelbeckplatz,7,1980974
2039,1980110,Müllerstrasse,8,1980964
2040,1980110,Am Nordhafen,9,198070
2041,1980110,Lehrterstrasse,10,1980814
2042,1980110,Stephanstrasse,11,19801401
2043,1980110,Rathenowerstrasse,12,19801148
2045,1980110,Birkenstrasse,13,1980172
2046,1980110,Turmstrasse,14,19801472
2047,1980110,Wilsnackerstrasse,15,19801668
2048,1980110,Krankenhaus Moabit,16,1980754
2049,1980110,U-Bhf. Turmstrasse,17,19801560
2050,1980110,Rathaus Tiergarten,18,19801142
2051,1980110,Ottostrasse,19,19801041
2052,1980110,Waldstrasse/Beusselstrasse,20,19801603
2053,1980110,Berlichingenstrasse,21,1980134
2055,1980111,"Hohenschönhausen, Falkenbergerstrasse",0,1980602
2057,1980111,Suermondtstrasse,1,19801425
2058,1980111,Stadion Buschallee,2,19801383
2059,1980111,Kniprodeallee,3,1980732
2060,1980111,Klement-Gottwald-Allee,4,1980719
2061,1980111,Antonplatz,5,198092
2062,1980111,Wisbyerstrasse,6,19801671
2063,1980111,Humannplatz,7,1980619
2064,1980111,U-Bhf. Dimitroffstrasse,8,19801488
2065,1980111,Brunnenstrasse,9,1980225
2066,1980111,Oranienburger Tor,10,19801016
2067,1980111,Bhf. Friedrichstrasse,11,1980156
2068,1980111,Am Kupfergraben,12,198068
2069,1980112,Heinersdorf,0,1980555
2070,1980112,"Heinersdorf, Kirche",1,1980557
2071,1980112,Am Steinberg,2,198075
2072,1980112,Wisbyerstrasse,3,19801671
2073,1980112,S-Bhf. Prenzlauer Allee,4,19801247
2076,1980112,Dimitroffstrasse,5,1980292
2077,1980112,Knaackstrasse,6,1980730
2078,1980112,Wilhelm-Pieck-Strasse,7,19801650
2079,1980112,U-Bhf. Rosa-Luxemburg-Platz,8,19801543
2080,1980112,Hackescher Markt,9,1980520
2081,1980112,Oranienburger Tor,10,19801016
2082,1980112,Am Kupfergraben,11,198068
2083,1980113,Pasedagplatz,0,19801063
2084,1980113,Lichtenbergerstrasse,1,1980836
2085,1980113,Antonplatz,2,198092
2086,1980113,Wisbyerstrasse,3,19801671
2087,1980113,S-Bhf. Prenzlauer Allee,4,19801247
2090,1980113,Dimitroffstrasse,5,1980292
2091,1980113,Knaackstrasse,6,1980730
2092,1980113,Wilhelm-Pieck-Strasse,7,19801650
2093,1980113,U-Bhf. Rosa-Luxemburg-Platz,8,19801543
2094,1980113,Hackescher Markt,9,1980520
2095,1980114,Steglitzer Damm Ecke Munsterdamm,0,19801396
2097,1980114,Steglitzer Damm,1,19801395
2098,1980114,Bismarckstrasse,2,1980176
2101,1980114,Bergstrasse,3,1980131
2102,1980114,Feuerbachstrasse,4,1980364
2103,1980114,Kaisereiche,5,1980677
2104,1980114,Rathaus Friedenau,6,19801133
2105,1980114,U-Bhf. Innsbrucker Platz,7,19801505
2106,1980114,Dominicusstrasse,8,1980295
2107,1980114,Kaiser-Wilhelm-Platz,9,1980674
2108,1980114,U-Bhf. Kleistpark,10,19801510
2110,1980114,Goebenstrasse,11,1980463
2111,1980114,Bülowstrasse,12,1980250
2112,1980114,U-Bhf. Kurfürstenstrasse,13,19801517
2113,1980114,Lützowstrasse,14,1980889
2114,1980114,Potsdamer Brücke,15,19801092
2115,1980114,Askanischer Platz,16,1980103
2116,1980114,U-Bhf. Kochstrasse/Friedrichstrasse,17,19801511
2118,1980114,Lindenstrasse,18,1980864
2119,1980114,U-Bhf. Moritzplatz,19,19801525
2120,1980114,Adalbertstrasse,20,19801
2121,1980114,U-Bhf. Görlitzer Bhf.,21,19801498
2122,1980114,Spreewaldplatz,22,19801376
2126,1980114,Sonnenallee,23,19801348
2128,1980115,Steglitzer Damm Ecke Munsterdamm,0,19801396
2130,1980115,Steglitzer Damm,1,19801395
2131,1980115,Bismarckstrasse,2,1980176
2134,1980115,Bergstrasse,3,1980131
2135,1980115,Feuerbachstrasse,4,1980364
2136,1980115,Kaisereiche,5,1980677
2137,1980115,Rathaus Friedenau,6,19801133
2138,1980115,U-Bhf. Innsbrucker Platz,7,19801505
2139,1980115,Dominicusstrasse,8,1980295
2140,1980115,Kaiser-Wilhelm-Platz,9,1980674
2141,1980115,U-Bhf. Kleistpark,10,19801510
2143,1980115,Goebenstrasse,11,1980463
2144,1980115,Bülowstrasse,12,1980250
2145,1980115,U-Bhf. Kurfürstenstrasse,13,19801517
2146,1980115,Lützowstrasse,14,1980889
2147,1980115,Potsdamer Brücke,15,19801092
2148,1980115,Askanischer Platz,16,1980103
2149,1980115,U-Bhf. Kochstrasse/Friedrichstrasse,17,19801511
2151,1980115,Lindenstrasse,18,1980864
2152,1980115,U-Bhf. Moritzplatz,19,19801525
2153,1980115,Adalbertstrasse,20,19801
2154,1980115,U-Bhf. Görlitzer Bhf.,21,19801498
2155,1980115,Spreewaldplatz,22,19801376
2159,1980115,Sonnenallee,23,19801348
2160,1980115,Hermannplatz,24,1980565
2161,1980116,U-Bhf. Alt-Mariendorf,0,19801479
2162,1980116,Körtingstrasse,1,1980796
2163,1980116,Rennbahn Mariendorf,2,19801163
2164,1980116,Pilatusweg,3,19801079
2165,1980116,Titlisweg,4,19801460
2166,1980116,Säntisstrasse/Tauernallee,5,19801431
2167,1980116,Göllweg,6,1980511
2168,1980116,Buckower Chaussee/Marienfelder Chaussee,7,1980237
2169,1980116,Raabestrasse,8,19801125
2170,1980116,Goethestrasse,9,1980466
2171,1980116,Grimmstrasse,10,1980486
2173,1980116,Barnetstrasse,11,1980116
2174,1980116,Steinstrasse,12,19801399
2175,1980116,Rhinstrasse,13,19801169
2178,1980116,John-Locke-Strasse,14,1980665
2179,1980116,Riedingerstrasse,15,19801179
2180,1980116,Lichtenrade Bahnhofstrasse,16,1980838
2181,1980117,Arkonaplatz,0,198094
2182,1980117,Rosenthaler Platz,1,19801196
2183,1980117,Alexanderplatz,2,198018
2184,1980117,S-Bhf. Jannowitzbrücke,3,19801229
2185,1980117,Adalbertstrasse,4,19801
2186,1980117,U-Bhf. Märkisches Museum,5,19801526
2187,1980117,Breite-Strasse,6,1980204
2188,1980117,Oberwallstrasse,7,19801003
2189,1980117,Bhf. Friedrichstrasse,8,1980155
2190,1980117,Schumannstrasse,9,19801297
2191,1980118,Arkonaplatz,0,198094
2192,1980118,Rosenthaler Platz,1,19801196
2193,1980118,Alexanderplatz,2,198018
2194,1980118,S-Bhf. Jannowitzbrücke,3,19801229
2195,1980118,Adalbertstrasse,4,19801
2196,1980119,Alexanderstrasse,0,198021
2197,1980119,S-Bhf. Jannowitzbrücke,1,19801229
2198,1980119,U-Bhf. Märkisches Museum,2,19801526
2199,1980119,Französischestrasse,3,1980393
2201,1980119,Otto-Grotewohl-Strasse,4,19801038
2203,1980120,U-Bhf. Alt-Mariendorf,0,19801479
2204,1980120,Körtingstrasse,1,1980796
2205,1980120,Rennbahn Mariendorf,2,19801163
2206,1980120,Pilatusweg,3,19801079
2207,1980120,Titlisweg,4,19801460
2208,1980120,Säntisstrasse/Tauernallee,5,19801431
2209,1980120,Ankogelweg,6,198089
2210,1980120,Buckower Chaussee/Marienfelder Chaussee,7,1980237
2211,1980120,Raabestrasse,8,19801125
2212,1980120,Potsdamerstrasse,9,19801095
2218,1980120,Bernauerstrasse,10,1980141
2219,1980120,Töpchiner Weg,11,19801474
2220,1980120,Kloster-Zinna-Strasse,12,1980725
2221,1980120,Alt-Lichtenrade,13,198035
2222,1980120,Groß-Ziethener-Strasse,14,1980492
2223,1980120,Taunusstrasse,15,19801435
2224,1980120,Nahariyastrasse,16,1980968
2225,1980120,Skarbinastrasse,17,19801341
2226,1980120,Lichtenrade Nahariyastrasse,18,1980839
2227,1980121,"Waldesruh, Mahlsdorfer Allee",0,19801597
2228,1980121,Summterstrasse,1,19801426
2229,1980121,Hultschiner Damm,2,1980618
2230,1980121,Sadowastrasse,3,19801263
2231,1980121,Jägerstrasse,4,1980670
2233,1980121,Köpenickerstrasse,5,1980794
2235,1980121,Elsterwerdaer Platz,6,1980332
2236,1980121,Oberfeldstrasse,7,1980998
2238,1980121,Rhinstrasse,8,19801170
2240,1980121,Robert-Uhrig-Strasse,9,19801185
2241,1980121,Bhf. Lichtenberg,10,1980160
2242,1980122,Flughafen Berlin Tegel,0,1980373
2243,1980122,Flugsteig 15,1,1980379
2244,1980122,Haupthalle,2,1980538
2245,1980122,Verwaltungsgebäude/Luftfracht,3,19801587
2246,1980122,Kaserne Südtor,4,1980701
2247,1980122,U-Bhf. Kurt-Schumacher-Platz,5,19801518
2248,1980122,Holländerstrasse,6,1980609
2249,1980122,Gotthardstrasse,7,1980470
2250,1980122,Teichstrasse,8,19801440
2252,1980122,Aroser Allee,9,198098
2253,1980122,Genferstrasse,10,1980444
2254,1980122,Residenzstrasse,11,19801165
2256,1980122,Stargardtstrasse,12,19801392
2257,1980122,Pankower Allee,13,19801050
2259,1980122,Ritterlandweg,14,19801182
2260,1980122,U-Bhf. Osloerstrasse,15,19801532
2261,1980123,U-Bhf. Ruhleben,0,19801545
2262,1980123,Krematorium Ruhleben,1,1980759
2263,1980123,Güterbahn Ruhleben,2,1980515
2264,1980123,Teltowerstrasse,3,19801443
2265,1980123,Tiefwerderweg,4,19801455
2266,1980123,Grenadierstrasse,5,1980482
2267,1980123,Stresowplatz,6,19801420
2268,1980123,"Spandau, Markt",7,19801359
2269,1980123,Rathaus Spandau,8,19801140
2270,1980123,Klosterstrasse,9,1980726
2271,1980123,Elsflether Weg,10,1980330
2272,1980123,Grünhofer Weg,11,1980507
2273,1980123,Nauenerstrasse,12,1980972
2275,1980123,Päwesiner Weg,13,19801121
2276,1980123,Egelpfuhlstrasse,14,1980312
2277,1980123,Harburger Weg,15,1980534
2278,1980123,Magistratsweg,16,1980893
2279,1980123,Louise-Schroeder-Siedlung,17,1980877
2280,1980123,Zweiwinkelweg,18,19801719
2281,1980123,Staaken Brunsbütteler Damm,19,19801380
2282,1980124,U-Bhf. Friedrich-Wilhelm-Platz,0,19801492
2283,1980124,Stubenrauchstrasse,1,19801421
2284,1980124,U-Bhf. Walther-Schreiber-Platz,2,19801564
2285,1980124,Alsen-/Fregstrasse,3,198026
2286,1980124,Bismarckstrasse,4,1980176
2289,1980124,Bergstrasse,5,1980131
2291,1980124,Steglitzer Damm,6,19801395
2292,1980124,Munsterdamm,7,1980950
2293,1980124,Albrechtstrasse,8,198015
2296,1980124,Leonorenstrasse,9,1980827
2297,1980124,Calandrellistrasse/Stadtbad,10,1980255
2298,1980124,Rathaus Lankwitz,11,19801134
2299,1980124,"Lankwitz, Kirche",12,1980806
2300,1980124,Bruchwitzstrasse,13,1980222
2301,1980124,Alt-Lankwitz,14,198032
2303,1980124,Mühlenstrasse,15,1980962
2304,1980124,"Alt-Lankwitz, Dorfaue",16,198033
2305,1980124,Greinerstrasse/Dederingstrasse,17,1980480
2306,1980124,Alt-Mariendorf,18,198037
2307,1980124,U-Bhf. Alt-Mariendorf,19,19801479
2308,1980124,Am Heidefriedhof,20,198065
2309,1980124,Britzerstrasse,21,1980221
2310,1980124,Dardanellenweg,22,1980280
2311,1980124,Mariendorf Dardanellenweg,23,1980908
2312,1980125,Mahlsdorf-Süd,0,1980896
2313,1980125,Wongrowitzer Steig,1,19801686
2314,1980125,S-Bhf. Köpenick,2,19801233
2315,1980125,Institut für Lehrerbildung,3,1980642
2316,1980125,Erich-Weinert-Klubhaus,4,1980339
2318,1980125,Pionierpark,5,19801081
2319,1980125,Rathenaustrasse,6,19801147
2320,1980125,Wilhelminenhofstrasse,7,19801652
2321,1980125,Hermann-Duncker-Strasse,8,1980564
2322,1980125,Hönower Wiesenweg,9,1980630
2323,1980125,Kraftwerk Klingenberg,10,1980749
2324,1980125,S-Bhf. Ostkreuz,11,19801242
2325,1980126,S-Bhf. Mahlsdorf,0,19801237
2326,1980126,Alt-Mahlsdorf,1,198036
2328,1980126,Rahnsdorferstrasse,2,19801129
2329,1980126,Bürgerwäldchen,3,1980253
2330,1980126,Ruhlsdorferstrasse,4,19801209
2331,1980126,Mahlsdorf-Süd,5,1980896
2332,1980126,Wongrowitzer Steig,6,19801686
2333,1980126,S-Bhf. Köpenick,7,19801233
2334,1980126,Lindenstrasse,8,1980865
2335,1980126,Grünstrasse,9,1980508
2336,1980126,Strassenbahn-Betriebshof,10,19801408
2337,1980126,VEB Yachtwerft,11,19801585
2338,1980126,Wendenschloß,12,19801630
2339,1980127,Lichterfelde Ringstrasse Ecke Weißwasserweg,0,1980847
2340,1980127,Finckensteinallee,1,1980366
2341,1980127,Baselerstrasse,2,1980117
2342,1980127,Kadettenweg,3,1980672
2343,1980127,Karwendelstrasse,4,1980699
2344,1980127,Hindenburgdamm,5,1980585
2346,1980127,Bäkestrasse,6,1980247
2347,1980127,Krahmerstrasse,7,1980750
2348,1980127,Moltkestrasse (Klinikum),8,1980943
2349,1980127,Klingsorstrasse,9,1980721
2350,1980127,Haydnstrasse,10,1980545
2351,1980127,Händelplatz,11,1980626
2352,1980127,Fronhoferstrasse,12,1980418
2354,1980127,Albrechtstrasse,13,198016
2356,1980127,Düppelstrasse,14,1980307
2357,1980127,Friedenauer Brücke,15,1980399
2358,1980127,Sachsendamm,16,19801262
2359,1980127,Torgauerstrasse,17,19801463
2360,1980127,Gustav-Müller-Platz,18,1980509
2361,1980127,Kolonnenstrasse,19,1980740
2362,1980127,Kaiser-Wilhelm-Platz,20,1980674
2363,1980127,U-Bhf. Kleistpark,21,19801510
2365,1980127,Goebenstrasse,22,1980463
2366,1980127,Bülowstrasse,23,1980250
2367,1980127,U-Bhf. Kurfürstenstrasse,24,19801517
2368,1980128,Wasserwerk,0,19801618
2369,1980128,Brauerei,1,1980203
2370,1980128,S-Bhf. Friedrichshagen,2,19801224
2371,1980128,Hirschgarten,3,1980589
2372,1980128,Lindenstrasse,4,1980865
2373,1980128,Grünstrasse,5,1980508
2374,1980128,S-Bhf. Spindlersfeld,6,19801251
2375,1980128,S-Bhf. Adlershof,7,19801217
2376,1980128,Kanalbrücke,8,1980682
2377,1980128,"Altglienicke, Kirche",9,198060
2378,1980128,Am Falkenberg,10,198061
2379,1980129,Lichterfelde-Süd Holtheimer Weg,0,1980852
2380,1980129,Ostpreußendamm,1,19801034
2382,1980129,Goerzallee,2,1980464
2383,1980129,Thuner Platz,3,19801450
2384,1980129,Osteweg,4,19801032
2385,1980129,Rittberg-Krankenhaus,5,19801180
2386,1980129,Finckensteinallee,6,1980366
2388,1980129,Drakestrasse,7,1980300
2390,1980129,Gardeschützenweg,8,1980426
2392,1980129,Moltkestrasse,9,1980942
2393,1980129,Händelplatz,10,1980626
2395,1980129,Birkbuschstrasse,11,1980171
2396,1980129,Schloßstrasse/Wrangelstrasse,12,19801287
2397,1980129,U-Bhf. Rathaus Steglitz,13,19801539
2398,1980129,U-Bhf. Schloßstrasse,14,19801549
2399,1980129,U-Bhf. Walther-Schreiber-Platz,15,19801564
2400,1980129,Kaisereiche,16,1980677
2401,1980129,Rathaus Friedenau,17,19801133
2402,1980129,U-Bhf. Innsbrucker Platz,18,19801505
2403,1980129,Rathaus Schöneberg,19,19801138
2404,1980129,Grunewaldstrasse,20,1980501
2405,1980129,Barbarossastrasse,21,1980114
2406,1980129,Hohenstaufenstrasse,22,1980605
2407,1980129,Motzstrasse,23,1980949
2408,1980129,Wittenbergplatz,24,19801678
2409,1980130,"Johannisthal, Haeckelstrasse",0,1980659
2410,1980130,Bhf. Schöneweide,1,1980164
2411,1980130,Wilhelminenhofstrasse,2,19801652
2412,1980130,Rathenaustrasse,3,19801147
2413,1980130,Pionierpark,4,19801080
2415,1980130,Erich-Weinert-Klubhaus,5,1980339
2416,1980130,Institut für Lehrerbildung,6,1980642
2417,1980130,Grünstrasse,7,1980508
2418,1980130,Wendenschloßstrasse,8,19801632
2419,1980130,"Köpenick, Straßenbahn-Betriebshof",9,1980792
2420,1980130,VEB Yachtwerft,10,19801585
2421,1980130,Wendenschloß,11,19801630
2422,1980131,Fehrbelliner Platz,0,1980360
2423,1980131,U-Bhf. Blissestrasse,1,19801483
2424,1980131,Am Volkspark,2,198077
2425,1980131,Weimarischestrasse,3,19801624
2426,1980131,U-Bhf. Bundesplatz,4,19801486
2427,1980131,U-Bhf. Friedrich-Wilhelm-Platz,5,19801492
2428,1980131,U-Bhf. Walther-Schreiber-Platz,6,19801564
2429,1980131,U-Bhf. Schloßstrasse,7,19801549
2430,1980131,U-Bhf. Rathaus Steglitz,8,19801539
2431,1980131,Fronhofer-/Wrangelstrasse,9,1980417
2432,1980131,Klingsorstrasse,10,1980721
2433,1980131,Sedanstrasse,11,19801315
2434,1980131,Siemensstrasse,12,19801339
2436,1980131,Stadion Lichterfelde,13,19801384
2437,1980131,Königsbergerstrasse,14,1980787
2438,1980131,Morgensternstrasse,15,1980944
2440,1980131,Giesensdorferstrasse,16,1980451
2441,1980131,Osdorferstrasse,17,19801026
2442,1980131,Fahrenheitstrasse,18,1980347
2443,1980131,"Lichterfelde, Celsiusstrasse",19,1980850
2444,1980132,Hirtestrasse,0,1980590
2445,1980132,S-Bhf. Köpenick,1,19801233
2446,1980132,Lindenstrasse,2,1980865
2447,1980132,Grünstrasse,3,1980508
2448,1980132,VEB Kühlbetrieb,4,19801584
2449,1980132,VEB Berlin-Chemie,5,19801581
2450,1980132,S-Bhf. Grünau,6,19801227
2451,1980132,Regattatribünen,7,19801151
2452,1980132,Freibad Grünau,8,1980395
2453,1980132,Richtershorn,9,19801178
2454,1980132,Karolinenhof-Mitte,10,1980695
2455,1980132,Reifenwerk,11,19801158
2457,1980133,U-Bhf. Richard-Wagner-Platz,0,19801540
2458,1980133,Wilmersdorferstrasse,1,19801665
2459,1980133,Luisenplatz,2,1980881
2460,1980133,Klausenerplatz,3,1980715
2461,1980133,Sophie-Charlotten-Strasse,4,19801352
2462,1980133,Mollwitzstrasse,5,1980940
2463,1980133,Heubnerweg,6,1980581
2464,1980133,Pulsstrasse,7,19801118
2465,1980134,U-Bhf. Rathaus Steglitz,0,19801539
2466,1980134,Fronhoferstrasse/Wrangelstrasse,1,1980419
2468,1980134,Birkbuschstrasse,2,1980171
2469,1980134,Breitestrasse/Haydnstrasse,3,1980212
2470,1980134,Klingsorstrasse,4,1980721
2471,1980134,Amfortasweg,5,198079
2472,1980134,Klinikum Steglitz,6,1980722
2474,1980134,Hindenburgdamm,7,1980586
2475,1980134,Moltkestrasse,8,1980941
2477,1980134,"Lichterfelde, Augustaplatz",9,1980849
2478,1980135,Bornholmerstrasse,0,1980196
2479,1980135,Prinzenallee,1,19801116
2480,1980135,Koloniestrasse,2,1980739
2481,1980135,U-Bhf. Osloerstrasse,3,19801532
2482,1980135,Louise-Schroeder-Platz,4,1980876
2483,1980135,Indischestrasse,5,1980639
2484,1980135,U-Bhf. Seestrasse/Müllerstrasse,6,19801551
2485,1980135,Togostrasse,7,19801461
2486,1980135,Afrikanischestrasse,8,19808
2487,1980135,Seestrasse/Friedhöfe,9,19801323
2488,1980135,Plötzensee/Dohnagestell,10,19801090
2489,1980135,Beusselstrasse,11,1980149
2491,1980135,Sickingenstrasse,12,19801334
2492,1980135,Wittstockerstrasse,13,19801681
2493,1980135,Huttenstrasse/Turmstrasse,14,1980625
2494,1980135,Berlichingenstrasse,15,1980134
2495,1980135,Wiebestrasse,16,19801643
2497,1980135,Kaiserin-Augusta-Allee,17,1980679
2498,1980135,Ilsenburgerstrasse,18,1980637
2500,1980136,John-Schehr-Strasse,0,1980666
2501,1980136,Am Friedrichshain,1,198062
2502,1980136,Mollstrasse,2,1980938
2503,1980136,Alexanderplatz,3,198018
2504,1980136,Spandauerstrasse,4,19801365
2508,1980136,Breitestrasse,5,1980211
2509,1980136,Friedrichstrasse,6,1980409
2511,1980136,Otto-Grotewohl-Strasse,7,19801038
2513,1980137,Flughafen Berlin-Tegel,0,1980375
2514,1980137,Flugsteig 15,1,1980379
2515,1980137,Haupthalle,2,1980538
2516,1980137,Verwaltungsgebäude/Luftfracht,3,19801587
2517,1980137,U-Bhf. Jakob-Kaiser-Platz,4,19801506
2518,1980137,Jakob-Kaiser-Platz,5,1980648
2519,1980137,Bhf. Jungfernheide,6,1980157
2520,1980137,Luisenplatz,7,1980881
2521,1980137,Kantstrasse,8,1980683
2524,1980137,U-Bhf. Adenauerplatz,9,19801477
2525,1980137,Olivaer Platz/Leibnizstrasse,10,19801007
2526,1980137,Bleibtreustrasse,11,1980186
2527,1980137,U-Bhf. Uhlandstrasse,12,19801562
2528,1980137,U-Bhf. Kurfürstendamm,13,19801516
2529,1980137,U-Bhf. Zoologischer Garten,14,19801569
2530,1980137,Breitscheidplatz,15,1980213
2531,1980137,Bayreutherstrasse,16,1980123
2532,1980137,Landgrafenstrasse,17,1980802
2533,1980137,Lützowplatz,18,1980888
2534,1980137,Budapesterstrasse,19,1980240
2535,1980138,S-Bhf. Marzahn,0,19801238
2536,1980138,Stadtberg,1,19801386
2537,1980138,Alt-Marzahn,2,198040
2538,1980138,Elisabethstrasse,3,1980328
2540,1980138,Cecilienstrasse,4,1980259
2541,1980138,S-Bhf. Biesdorf,5,19801220
2542,1980139,Lindenhof,0,1980862
2543,1980139,Fanningerstrasse,1,1980358
2544,1980139,Frankfurter Allee,2,1980384
2545,1980139,Bhf. Lichtenberg,3,1980160
2546,1980139,Zentralfriedhof,4,19801700
2548,1980140,U-Bhf. Tierpark,0,19801558
2549,1980140,Zwieselerstrasse,1,19801722
2550,1980140,Robert-Siewert-Strasse,2,19801184
2551,1980140,Frankestrasse,3,1980383
2552,1980140,U-Bhf. Tierpark,4,19801558
2553,1980141,Heerstrasse Ecke Reimerweg,0,1980549
2554,1980141,Wilhelmstrasse,1,19801663
2556,1980141,Gatowerstrasse,2,1980432
2557,1980141,Pichelsdorferstrasse,3,19801073
2560,1980141,Alt-Pichelsdorf/Freybrücke,4,198045
2561,1980141,Pichelswerder,5,19801076
2562,1980141,Stößenseebrücke,6,19801422
2563,1980141,Scholzplatz,7,19801289
2564,1980141,Reichssportfeldstrasse,8,19801155
2565,1980141,Mohrunger Allee,9,1980937
2566,1980141,Preußenallee,10,19801112
2567,1980141,U-Bhf. Theodor-Heuss-Platz,11,19801556
2568,1980141,Ausstellungshallen,12,1980109
2569,1980141,ICC/Omnibusbahnhof,13,1980634
2570,1980141,Dernburgstrasse,14,1980281
2571,1980141,Kuno-Fischer-Strasse,15,1980767
2572,1980141,Suarezstrasse/Amtsgericht,16,19801423
2573,1980141,Kaiser-Friedrich-Strasse,17,1980673
2574,1980141,U-Bhf. Wilmersdorferstrasse,18,19801566
2575,1980141,Leibnizstrasse,19,1980815
2577,1980141,Schlüterstrasse,20,19801288
2578,1980141,Savignyplatz,21,19801269
2581,1980141,Uhlandstrasse,22,19801575
2583,1980141,Joachimstalerstrasse,23,1980657
2584,1980141,"Zoo, Hardenbergplatz",24,19801713
2585,1980142,S-Bhf. Marzahn,0,19801238
2586,1980142,Murtzaner Ring,1,1980951
2588,1980142,Elisabethstrasse,2,1980329
2589,1980142,Zentrale Baustelleneinrichtung,3,19801699
2590,1980142,LPG Edwin-Hoernle,4,1980799
2591,1980142,Hellersdorf,5,1980560
2592,1980142,S-Bhf. Kaulsdorf,6,19801230
2593,1980142,Am Rosenhag,7,198073
2594,1980142,Lemkestrasse,8,1980818
2595,1980142,"Mahlsdorf, Greifswalderstrasse",9,1980895
2596,1980143,Sonnenallee Ecke Peter-Anders-Strasse,0,19801349
2597,1980143,Schulenburg-Park,1,19801292
2598,1980143,Planetenstrasse,2,19801083
2599,1980143,Dammweg,3,1980278
2600,1980143,Ziegrastrasse,4,19801708
2601,1980143,Saalestrasse,5,19801259
2602,1980143,Mareschstrasse,6,1980905
2603,1980143,Hertzbergplatz,7,1980576
2604,1980143,Geygerstrasse,8,1980450
2605,1980143,Wildenbruchstrasse,9,19801649
2606,1980143,Fuldastrasse,10,1980420
2607,1980143,Pannierstrasse,11,19801053
2611,1980143,Sonnenallee,12,19801348
2612,1980143,Hermannplatz,13,1980565
2613,1980143,Schönleinstrasse,14,19801313
2615,1980143,Grimmstrasse,15,1980487
2616,1980143,Geibelstrasse/Urban-Krankenhaus,16,1980438
2617,1980143,Baerwaldstrasse,17,1980112
2618,1980143,Blücherstrasse,18,1980190
2619,1980143,Johanniterstrasse,19,1980662
2620,1980143,Neuenburgerstrasse,20,1980978
2621,1980143,Alte Jakobstrasse,21,198055
2624,1980143,Gitschinerstrasse,22,1980453
2625,1980143,U-Bhf. Hallesches Tor,23,19801500
2626,1980144,S-Bhf. Nöldnerplatz,0,19801240
2627,1980144,Kraftwerk Klingenberg,1,1980748
2628,1980144,IFA-Vertrieb,2,1980635
2629,1980144,Bhf. Karlshorst,3,1980158
2630,1980144,U-Bhf. Tierpark,4,19801558
2631,1980144,Mellenseestrasse,5,1980926
2632,1980144,Weitlingstrasse,6,19801626
2633,1980144,S-Bhf. Nöldnerplatz,7,19801240
2634,1980145,Platz der Luftbrücke,0,19801085
2635,1980145,Manfred-v.-Richthofen-Strasse,1,1980900
2636,1980145,Bayernring,2,1980122
2637,1980145,Schreiberring,3,19801291
2638,1980145,Adolf-Scheidt-Platz/Krankenhaus,4,19807
2639,1980145,Hoeppnerstrasse,5,1980596
2640,1980145,Berlinickeplatz,6,1980139
2643,1980145,Albrechtstrasse,7,198017
2644,1980145,Friedrich-Wilhelm-Strasse,8,1980404
2645,1980145,Attilaplatz,9,1980104
2646,1980145,Paul-Schmidt-Strasse,10,19801065
2647,1980145,Röblingstrasse,11,19801212
2648,1980145,Steglitzer Damm,12,19801394
2650,1980145,Crailsheimerstrasse,13,1980270
2651,1980145,Alt-Lankwitz/Krankenhaus,14,198034
2652,1980145,Bruchwitzstrasse,15,1980222
2653,1980145,Lankwitz/Kirche,16,1980807
2654,1980145,Seydlitzstrasse,17,19801332
2655,1980145,Amalienstrasse,18,198078
2656,1980145,Kranoldplatz,19,1980757
2658,1980145,Morgensternstrasse,20,1980945
2659,1980145,Ostpreußendamm,21,19801034
2661,1980145,Osdorferstrasse,22,19801026
2662,1980145,Wismarerstrasse,23,19801672
2664,1980145,Lichterfelde Lindenstrasse,24,1980844
2665,1980146,Heerstrasse/Stadtgrenze,0,1980550
2666,1980146,Reimerweg,1,19801159
2667,1980146,Magistratsweg,2,1980893
2668,1980146,Sandstrasse,3,19801268
2669,1980146,Wilhelmstrasse,4,19801663
2671,1980146,Gatowerstrasse,5,1980432
2672,1980146,Jaczostrasse,6,1980646
2674,1980146,Pichelsdorferstrasse,7,19801074
2676,1980146,Genfenbergstrasse,8,1980443
2677,1980146,Adamstrasse,9,19802
2679,1980146,Weißenburgerstrasse,10,19801627
2680,1980146,Metzerstrasse,11,1980929
2681,1980146,Ruhlebenerstrasse,12,19801208
2682,1980146,Rathaus Spandau,13,19801140
2683,1980146,"Spandau, Markt",14,19801359
2684,1980146,Am Juliusturm,15,198066
2685,1980146,Wröhmännerpark,16,19801688
2686,1980146,Triftstrasse,17,19801470
2688,1980146,Parkstrasse/Lynarstrasse,18,19801061
2689,1980146,Schäferstrasse,19,19801302
2690,1980146,Hohenzollernring,20,1980608
2691,1980146,Rauchstrasse,21,19801150
2692,1980146,Mertensstrasse,22,1980927
2694,1980146,Werderstrasse,23,19801635
2695,1980146,Hakenfelde Aalemannufer,24,1980523
2696,1980147,"Wedding, Gartenplatz",0,19801623
2697,1980147,Brunnenstrasse,1,1980224
2698,1980147,U-Bhf. Gesundbrunnen,2,19801494
2699,1980147,U-Bhf. Pankstrasse,3,19801535
2700,1980147,Nettelbeckplatz,4,1980974
2701,1980147,Müllerstrasse,5,1980964
2703,1980147,Rathenowerstrasse,6,19801149
2704,1980147,Wilhelmshavenerstrasse,7,19801655
2705,1980147,Beusselstrasse,8,1980149
2708,1980147,Wiebestrasse,9,19801644
2709,1980147,Lise-Meitner-Strasse,10,1980870
2710,1980147,Tegeler Weg/DRK-Krankenhaus,11,19801438
2711,1980147,Jakob-Kaiser-Platz,12,1980648
2712,1980147,U-Bhf. Rohrdamm,13,19801541
2713,1980147,Paulsternstrasse,14,19801066
2715,1980147,Gartenfelderstrasse,15,1980427
2716,1980147,Carl-Schurz-Strasse,16,1980258
2717,1980147,Rathaus Spandau,17,19801140
2718,1980147,Zeppelinstrasse,18,19801705
2720,1980147,Falkenseer Chaussee,19,1980353
2721,1980147,Wasserwerkstrasse,20,19801619
2722,1980147,Stadtrandstrasse,21,19801391
2723,1980147,Spandau Freudstrasse,22,19801353
2724,1980148,Wannsee Kronprinzessinenweg,0,19801608
2725,1980148,Nibelungenstrasse,1,1980984
2726,1980148,Isoldestrasse,2,1980644
2727,1980148,Drewitz,3,1980302
2728,1980149,S-Bhf. Friedrichshagen,0,19801224
2729,1980149,Brösenerstrasse,1,1980228
2730,1980149,Waldstrasse,2,19801602
2731,1980149,Goethepark,3,1980465
2732,1980149,Rahnsdorferstrasse,4,19801128
2734,1980149,Dorfstrasse,5,1980297
2735,1980149,Thälmannpark,6,19801451
2736,1980149,Schillerstrasse,7,19801279
2737,1980149,Grätzwalde,8,1980502
2738,1980149,Jägerstrasse,9,1980671
2739,1980149,Kalkbergerstrasse,10,1980681
2740,1980149,Berghof-Weiche,11,1980130
2741,1980149,Berghof,12,1980129
2742,1980149,Torellplatz,13,19801462
2743,1980149,Kulturhaus,14,1980766
2744,1980149,Rathaus,15,19801132
2745,1980149,Breitscheidstrasse,16,1980215
2746,1980149,Brückenstrasse,17,1980229
2747,1980149,Alt-Rüdersdorf,18,198047
2748,1980150,S-Bhf. Rahnsdorf,0,19801249
2749,1980150,Goethestrasse,1,1980467
2750,1980150,Eichendamm,2,1980317
2751,1980150,Lerchenstrasse,3,1980830
2752,1980150,Fasanenstrasse,4,1980359
2753,1980150,Thälmannplatz,5,19801452
2754,1980150,Blumenstrasse,6,1980189
2755,1980150,Krankenhaus,7,1980752
2756,1980150,Woltersdorfer Schleuse,8,19801685
2757,1980151,Pankow (Vinetastrasse),0,19801045
2758,1980151,Schönhauser Allee,1,19801311
2759,1980151,Dimitroffstrasse,2,1980293
2760,1980151,Senefelderplatz,3,19801328
2761,1980151,Rosa-Luxemburg-Platz,4,19801193
2762,1980151,Alexanderplatz,5,198020
2763,1980151,Klosterstrasse,6,1980727
2764,1980151,Märkisches Museum,7,1980952
2765,1980151,Spittelmarkt,8,19801374
2766,1980151,Hausvogteiplatz,9,1980542
2767,1980151,Stadtmitte,10,19801388
2768,1980151,Thälmannplatz,11,19801453
2769,1980152,Alexanderplatz,0,198020
2770,1980152,Schillingstrasse,1,19801280
2771,1980152,Strausberger Platz,2,19801412
2772,1980152,Marchlewskistrasse,3,1980904
2773,1980152,Frankfurter Tor,4,1980388
2774,1980152,Samariterstrasse,5,19801266
2775,1980152,Frankfurter Allee,6,1980386
2776,1980152,Magdalenenstrasse,7,1980891
2777,1980152,Lichtenberg,8,1980834
2778,1980152,Friedrichsfelde,9,1980405
2779,1980152,Tierpark,10,19801459
2780,1980153,Friedrichstrasse,0,1980410
2781,1980153,Marx-Engels-Platz,1,1980920
2782,1980153,Alexanderplatz,2,198019
2783,1980153,Jannowitzbrücke,3,1980650
2784,1980153,Ostbahnhof,4,19801031
2785,1980153,Warschauerstrasse,5,19801613
2786,1980153,Ostkreuz,6,19801033
2787,1980153,Nöldnerplatz,7,1980997
2788,1980153,Lichtenberg,8,1980833
2789,1980153,Friedrichsfelde Ost,9,1980406
2790,1980153,Biesdorf,10,1980166
2791,1980153,Kaulsdorf,11,1980703
2792,1980153,Mahlsdorf,12,1980894
2793,1980153,Hoppegarten (Mark),13,1980615
2794,1980153,Neuenhagen (b Bln),14,1980979
2795,1980153,Fredersdorf (b Bln),15,1980394
2796,1980153,Petershagen Nord,16,19801068
2797,1980153,Strausberg,17,19801409
2798,1980153,Strausberg Stadt,18,19801411
2799,1980153,Strausberg Nord,19,19801410
2800,1980154,Warschauerstrasse,0,19801613
2801,1980154,Ostkreuz,1,19801033
2802,1980154,Nöldnerplatz,2,1980997
2803,1980154,Lichtenberg,3,1980833
2804,1980154,Friedrichsfelde Ost,4,1980406
2805,1980154,Springpfuhl,5,19801379
2806,1980154,Karl-Maron-Strasse,6,1980691
2807,1980154,Marzahn,7,1980921
2808,1980155,Friedrichstrasse,0,1980410
2809,1980155,Marx-Engels-Platz,1,1980920
2810,1980155,Alexanderplatz,2,198019
2811,1980155,Jannowitzbrücke,3,1980650
2812,1980155,Ostbahnhof,4,19801031
2813,1980155,Warschauerstrasse,5,19801613
2814,1980155,Ostkreuz,6,19801033
2815,1980155,Rummelsburg,7,19801210
2816,1980155,Betriebsbhf. Rummelsburg,8,1980147
2817,1980155,Karlshorst,9,1980694
2818,1980155,Wuhlheide,10,19801689
2819,1980155,Köpenick,11,1980790
2820,1980155,Hirschgarten,12,1980588
2821,1980155,Friedrichshagen,13,1980407
2822,1980155,Rahnsdorf,14,19801126
2823,1980155,Wilhelmshagen,15,19801654
2824,1980155,Erkner,16,1980340
2825,1980156,Friedrichstrasse,0,1980410
2826,1980156,Marx-Engels-Platz,1,1980920
2827,1980156,Alexanderplatz,2,198019
2828,1980156,Jannowitzbrücke,3,1980650
2829,1980156,Ostbahnhof,4,19801031
2830,1980156,Warschauerstrasse (< Ostkreuz),5,19801614
2831,1980156,Treptower Park,6,19801467
2832,1980156,Plänterwald,7,19801089
2833,1980156,Baumschulenweg,8,1980119
2834,1980156,Schöneweide,9,19801306
2835,1980156,Betriebsbhf. Schöneweide,10,1980148
2836,1980156,Adlershof,11,19805
2837,1980156,Grünau,12,1980503
2838,1980156,Eichwalde,13,1980321
2839,1980156,Zeuthen,14,19801707
2840,1980156,Wildau,15,19801648
2841,1980156,Königs Wusterhausen,16,1980786
2842,1980157,Friedrichstrasse,0,1980410
2843,1980157,Marx-Engels-Platz,1,1980920
2844,1980157,Alexanderplatz,2,198019
2845,1980157,Jannowitzbrücke,3,1980650
2846,1980157,Ostbahnhof,4,19801031
2847,1980157,Warschauerstrasse (< Ostkreuz),5,19801614
2848,1980157,Treptower Park,6,19801467
2849,1980157,Plänterwald,7,19801089
2850,1980157,Baumschulenweg,8,1980119
2851,1980157,Schöneweide,9,19801306
2852,1980157,Betriebsbhf. Schöneweide,10,1980148
2853,1980157,Adlershof,11,19805
2854,1980157,Altglienicke,12,198058
2855,1980157,Grünbergallee,13,1980504
2856,1980157,Flughafen Berlin-Schönefeld,14,1980374
2857,1980158,Oranienburg,0,19801014
2858,1980158,Lehnitz,1,1980812
2859,1980158,Borgsdorf,2,1980195
2860,1980158,Birkenwerder,3,1980174
2861,1980158,Hohen Neuendorf (b Bln),4,1980599
2862,1980158,Bergfelde (b Bln),5,1980128
2863,1980158,Schönfließ,6,19801307
2864,1980158,Blankenburg,7,1980182
2865,1980158,Pankow-Heinersdorf,8,19801049
2866,1980158,Pankow,9,19801044
2867,1980158,Schönhauser Allee,10,19801308
2868,1980158,Prenzlauer Allee,11,19801104
2869,1980158,Greifswalderstrasse,12,1980478
2870,1980158,Leninallee,13,1980822
2871,1980158,Storkowerstrasse,14,19801406
2872,1980158,Frankfurter Allee,15,1980385
2873,1980158,Ostkreuz,16,19801033
2874,1980158,Treptower Park,17,19801467
2875,1980158,Plänterwald,18,19801089
2876,1980158,Baumschulenweg,19,1980119
2877,1980158,Schöneweide,20,19801306
2878,1980158,Betriebsbhf. Schöneweide,21,1980148
2879,1980158,Adlershof,22,19805
2880,1980158,Altglienicke,23,198058
2881,1980158,Grünbergallee,24,1980504
2882,1980158,Flughafen Berlin-Schönefeld,25,1980374
2883,1980159,Bernau (b Bln),0,1980140
2884,1980159,Zepernick (b Bernau),1,19801702
2885,1980159,Röntgental,2,19801214
2886,1980159,Buch,3,1980230
2887,1980159,Karow,4,1980697
2888,1980159,Blankenburg,5,1980182
2889,1980159,Pankow-Heinersdorf,6,19801049
2890,1980159,Pankow,7,19801044
2891,1980159,Schönhauser Allee,8,19801308
2892,1980159,Prenzlauer Allee,9,19801104
2893,1980159,Greifswalderstrasse,10,1980478
2894,1980159,Leninallee,11,1980822
2895,1980159,Storkowerstrasse,12,19801406
2896,1980159,Frankfurter Allee,13,1980385
2897,1980159,Ostkreuz,14,19801033
2898,1980159,Treptower Park,15,19801467
2899,1980159,Plänterwald,16,19801089
2900,1980159,Baumschulenweg,17,1980119
2901,1980159,Schöneweide,18,19801306
2902,1980159,Betriebsbhf. Schöneweide,19,1980148
2903,1980159,Adlershof,20,19805
2904,1980159,Grünau,21,1980503
2905,1980159,Eichwalde,22,1980321
2906,1980159,Zeuthen,23,19801707
2907,1980160,Blankenburg,0,1980182
2908,1980160,Pankow-Heinersdorf,1,19801049
2909,1980160,Pankow,2,19801044
2910,1980160,Schönhauser Allee,3,19801308
2911,1980160,Prenzlauer Allee,4,19801104
2912,1980160,Greifswalderstrasse,5,1980478
2913,1980160,Leninallee,6,1980822
2914,1980160,Storkowerstrasse,7,19801406
2915,1980160,Frankfurter Allee,8,1980385
2916,1980160,Ostkreuz,9,19801033
2917,1980160,Treptower Park,10,19801467
2918,1980160,Plänterwald,11,19801089
2919,1980160,Baumschulenweg,12,1980119
2920,1980160,Schöneweide,13,19801306
2921,1980160,Oberspree,14,19801002
2922,1980160,Spindlersfeld,15,19801372
2923,1980161,Alexanderplatz,0,198019
2924,1980161,Jannowitzbrücke,1,1980650
2925,1980161,Ostbahnhof,2,19801031
2926,1980161,Warschauerstrasse (> Ostkreuz),3,19801615
2927,1980161,Frankfurter Allee,4,1980385
2928,1980161,Storkowerstrasse,5,19801406
2929,1980161,Leninallee,6,1980822
2930,1980161,Greifswalderstrasse,7,1980478
2931,1980161,Prenzlauer Allee,8,19801104
2932,1980161,Schönhauser Allee,9,19801308
2933,1980161,Pankow,10,19801044
2934,1980161,Pankow-Heinersdorf,11,19801049
2935,1980161,Blankenburg,12,1980182
2936,1980161,Karow,13,1980697
2937,1980161,Buch,14,1980230
2938,1980162,Schlesisches Tor,0,19801281
2939,1980162,Görlitzer Bahnhof (Oranienstrasse),1,1980512
2940,1980162,Kottbusser Tor,2,1980747
2941,1980162,Prinzenstrasse,3,19801117
2942,1980162,Hallesches Tor,4,1980526
2943,1980162,Möckernbrücke,5,1980954
2944,1980162,Gleisdreieck,6,1980454
2945,1980162,Kurfürstenstrasse,7,1980774
2946,1980162,Nollendorfplatz,8,1980988
2947,1980162,Wittenbergplatz,9,19801679
2948,1980162,Zoologischer Garten,10,19801715
2949,1980162,Ernst-Reuter-Platz,11,1980342
2950,1980162,Deutsche Oper,12,1980282
2951,1980162,Bismarckstrasse,13,1980179
2952,1980162,Sophie-Charlotte-Platz,14,19801350
2953,1980162,Kaiserdamm,15,1980676
2954,1980162,Theodor-Heuss-Platz,16,19801448
2955,1980162,Neu-Westend,17,1980976
2956,1980162,Olympia-Stadion,18,19801010
2957,1980162,Ruhleben,19,19801207
2958,1980163,Wittenbergplatz,0,19801679
2959,1980163,Augsburgerstrasse,1,1980106
2960,1980163,Spichernstrasse (Bundesallee),2,19801371
2961,1980163,Hohenzollernplatz,3,1980607
2962,1980163,Fehrbelliner Platz,4,1980361
2963,1980163,Heidelberger Platz,5,1980551
2964,1980163,Rüdesheimer Platz,6,19801215
2965,1980163,Breitenbachplatz,7,1980207
2966,1980163,Podbielskiallee,8,19801091
2967,1980163,Dahlem-Dorf,9,1980274
2968,1980163,Thielplatz,10,19801449
2969,1980163,Oskar-Helene-Heim,11,19801027
2970,1980163,Onkel Toms Hütte,12,19801013
2971,1980163,Krumme Lanke,13,1980763
2972,1980164,Wittenbergplatz,0,19801679
2973,1980164,Kurfürstendamm (Joachimstalerstrasse),1,1980769
2974,1980164,Uhlandstrasse,2,19801576
2975,1980165,Nollendorfplatz,0,1980988
2976,1980165,Viktoria-Luise-Platz,1,19801590
2977,1980165,Bayerischer Platz,2,1980121
2978,1980165,Rathaus Schöneberg,3,19801139
2979,1980165,Innsbrucker Platz (Hauptstrasse),4,1980641
2980,1980166,Tegel,0,19801437
2981,1980166,Borsigwerke,1,1980197
2982,1980166,Holzhauserstrasse,2,1980614
2983,1980166,Seidelstrasse,3,19801326
2984,1980166,Scharnweberstrasse,4,19801274
2985,1980166,Kurt-Schumacher-Platz,5,1980780
2986,1980166,Afrikanischestrasse (Friedrich-Ebert-Siedlung),6,19809
2987,1980166,Rehberge,7,19801153
2988,1980166,Seestrasse,8,19801322
2989,1980166,Leopoldplatz,9,1980828
2990,1980166,Wedding,10,19801620
2991,1980166,Reinickendorferstrasse,11,19801162
2992,1980166,Friedrichstrasse,12,1980411
2993,1980166,Kochstrasse,13,1980733
2994,1980166,Hallesches Tor,14,1980526
2995,1980166,Mehringdamm,15,1980925
2996,1980166,Platz der Luftbrücke,16,19801086
2997,1980166,Paradestrasse,17,19801057
2998,1980166,Tempelhof,18,19801444
2999,1980166,Alt-Tempelhof,19,198051
3000,1980166,Kaiserin-Augusta-Strasse,20,1980680
3001,1980166,Ullsteinstrasse,21,19801577
3002,1980166,Westpfahlweg,22,19801642
3003,1980166,Alt-Mariendorf,23,198038
3004,1980167,Rohrdamm,0,19801190
3005,1980167,Siemensdamm,1,19801338
3006,1980167,Halemweg,2,1980525
3007,1980167,Jakob-Kaiser-Platz,3,1980649
3008,1980167,Jungfernheide,4,1980668
3009,1980167,Mierendorffplatz,5,1980931
3010,1980167,Richard-Wagner-Platz,6,19801177
3011,1980167,Bismarckstrasse,7,1980179
3012,1980167,Wilmersdorferstrasse,8,19801666
3013,1980167,Adenauerplatz,9,19804
3014,1980167,Konstanzerstrasse,10,1980743
3015,1980167,Fehrbelliner Platz,11,1980361
3016,1980167,Blissestrasse,12,1980188
3017,1980167,Berlinerstrasse,13,1980138
3018,1980167,Bayerischer Platz,14,1980121
3019,1980167,Eisenacherstrasse,15,1980324
3020,1980167,Kleistpark,16,1980717
3021,1980167,Yorckstrasse,17,19801692
3022,1980167,Möckernbrücke,18,1980954
3023,1980167,Mehringdamm,19,1980925
3024,1980167,Gneisenaustrasse,20,1980460
3025,1980167,Südstern,21,19801434
3026,1980167,Hermannplatz,22,1980566
3027,1980167,Rathaus Neukölln,23,19801135
3028,1980167,Karl-Marx-Strasse,24,1980693
3029,1980167,Neukölln,25,1980980
3030,1980167,Grenzallee,26,1980484
3031,1980167,Blaschkoallee,27,1980185
3032,1980167,Parchimer Allee,28,19801059
3033,1980167,Britz-Süd,29,1980219
3034,1980167,Johannisthaler Ch. (Gropiusstadt),30,1980660
3035,1980167,Lipschitzallee,31,1980869
3036,1980167,Wutzkyallee,32,19801690
3037,1980167,Zwickauer Damm,33,19801721
3038,1980167,Rudow,34,19801201
3039,1980168,Osloerstrasse,0,19801029
3040,1980168,Pankstrasse,1,19801052
3041,1980168,Gesundbrunnen,2,1980449
3042,1980168,Voltastrasse,3,19801592
3043,1980168,Moritzplatz,4,1980946
3044,1980168,Kottbusser Tor,5,1980747
3045,1980168,Kottbusser Damm (Schönleinstrasse),6,1980746
3046,1980168,Hermannplatz,7,1980566
3047,1980168,Boddinstrasse,8,1980191
3048,1980168,Leinestrasse,9,1980817
3049,1980169,Osloerstrasse,0,19801029
3050,1980169,Nauener Platz,1,1980971
3051,1980169,Leopoldplatz,2,1980828
3052,1980169,Amrumerstrasse (Rudolf-Virchow-Krankenhaus),3,198081
3053,1980169,Putlitzstrasse (Westhafen),4,19801119
3054,1980169,Birkenstrasse,5,1980173
3055,1980169,Turmstrasse,6,19801473
3056,1980169,Hansaplatz,7,1980533
3057,1980169,Zoologischer Garten,8,19801715
3058,1980169,Kurfürstendamm (Joachimstalerstrasse),9,1980769
3059,1980169,Spichernstrasse (Bundesallee),10,19801371
3060,1980169,Güntzelstrasse,11,1980514
3061,1980169,Berlinerstrasse,12,1980138
3062,1980169,Bundesplatz,13,1980244
3063,1980169,Friedrich-Wilhelm-Platz,14,1980403
3064,1980169,Walther-Schreiber-Platz,15,19801606
3065,1980169,Schloßstrasse,16,19801286
3066,1980169,Rathaus Steglitz,17,19801141
3067,1980170,Frohnau,0,1980415
3068,1980170,Hermsdorf,1,1980570
3069,1980170,Waidmannslust,2,19801594
3070,1980170,Wittenau (Nordbahn),3,19801675
3071,1980170,Wilhelmsruh,4,19801656
3072,1980170,Schönholz,5,19801312
3073,1980170,Wollankstrasse,6,19801683
3074,1980170,Gesundbrunnen,7,1980448
3075,1980170,Humboldthain,8,1980621
3076,1980170,Friedrichstrasse,9,1980410
3077,1980170,Anhalter Bahnhof,10,198088
3078,1980170,Yorckstrasse,11,19801691
3079,1980170,Papestrasse,12,19801055
3080,1980170,Priesterweg,13,19801115
3081,1980170,Mariendorf,14,1980907
3082,1980170,Marienfelde,15,1980910
3083,1980170,Buckower Ch.,16,1980235
3084,1980170,Lichtenrade,17,1980837
3085,1980171,Heiligensee,0,1980552
3086,1980171,Schulzendorf (b Tegel),1,19801294
3087,1980171,Tegel,2,19801436
3088,1980171,Eichbornstrasse,3,1980315
3089,1980171,Wittenau (Kremmener Bahn),4,19801674
3090,1980171,Reinickendorf,5,19801160
3091,1980171,Schönholz,6,19801312
3092,1980171,Wollankstrasse,7,19801683
3093,1980171,Gesundbrunnen,8,1980448
3094,1980171,Humboldthain,9,1980621
3095,1980171,Friedrichstrasse,10,1980410
3096,1980171,Anhalter Bahnhof,11,198088
3097,1980171,Yorckstrasse,12,19801691
3098,1980171,Papestrasse,13,19801055
3099,1980171,Priesterweg,14,19801115
3100,1980171,Südende,15,19801432
3101,1980171,Lankwitz,16,1980805
3102,1980171,Lichterfelde Ost,17,1980846
3103,1980171,Lichterfelde Süd,18,1980848
3104,1980172,Friedrichstrasse,0,1980410
3105,1980172,Lehrter Stadtbahnhof,1,1980813
3106,1980172,Bellevue,2,1980125
3107,1980172,Tiergarten,3,19801456
3108,1980172,Zoologischer Garten,4,19801714
3109,1980172,Savignyplatz,5,19801270
3110,1980172,Charlottenburg,6,1980260
3111,1980172,Westkreuz,7,19801641
3112,1980172,Grunewald,8,1980497
3113,1980172,Nikolassee,9,1980985
3114,1980172,Wannsee,10,19801607
