,stop_id,stop_name,type,location,in_lines,identifier
0,19800,Achtermannstrasse,bus,"52.57652468032656, 13.418517187666131",['52'],nan
1,19801,Adalbertstrasse,bus,"52.50548699996121, 13.42221404498021","['78', '75', '78E']",nan
2,19802,Adamstrasse,bus,"52.521029117218866, 13.19780699419913","['97', '34']",nan
3,19803,Adamstrasse,bus,"52.52107002529741, 13.187973386740664","['13', '35']",nan
4,19804,Adenauerplatz,u-bahn,"52.499722222222,13.307222222222",['7'],Q570939
5,19805,Adlershof,s-bahn,"52.434722222222,13.541388888889","['KBS 141', 'KBS 140', 'KBS 115', 'KBS 110']",Q323551
6,19806,Adolf-Martens-Strasse,bus,"52.4439303939079, 13.288858198599703",['11'],nan
7,19807,Adolf-Scheidt-Platz/Krankenhaus,bus,"52.47818518185836, 13.37828632745728",['96'],nan
8,19808,Afrikanischestrasse,bus,"52.54630534791768, 13.343982606132034","['65', '89']",nan
9,19809,Afrikanischestrasse (Friedrich-Ebert-Siedlung),u-bahn,"52.560027777778,13.334633333333",['6'],Q559239
10,198010,Ahrensdorferstrasse,bus,"52.40904426274492, 13.359316733496573",['52'],nan
11,198011,"Ahrensfelde, Kirche",bus,"52.57532251281871, 13.576456279814597",['41'],nan
12,198012,Albertstrasse,bus,"52.4844490887776, 13.352821218973295",['48'],nan
13,198013,Alboinstrasse,bus,"52.45576600655153, 13.369901354003483",['25'],nan
14,198014,Alboinstrasse,bus,"52.46988352895753, 13.372100454061455",['65'],nan
15,198015,Albrechtstrasse,bus,"52.44699308706475, 13.342439352513631","['2', '81', '17', '30']",nan
16,198016,Albrechtstrasse,bus,"52.45654850047487, 13.322386656459386",['84'],nan
17,198017,Albrechtstrasse,bus,"52.461538575992826, 13.376822231146619",['96'],nan
18,198018,Alexanderplatz,bus,"52.5219449,13.4143847","['78', '9', '78E', '112']",nan
19,198019,Alexanderplatz,s-bahn,"52.521388888889,13.411944444444","['KBS 105', 'KBS 115', 'KBS 100', 'KBS 143', 'KBS 110']",Q111324700
20,198020,Alexanderplatz,u-bahn,"52.5214,13.4119","['E', 'A']",Q17173458
21,198021,Alexanderstrasse,bus,"52.51778540833277, 13.418077932963259",['79'],nan
22,198022,Alexandrinenstrasse,bus,"52.50514667360263, 13.4052810548807","['41', '29']",nan
23,198023,Allee der Kosmonauten,bus,"52.52596219227965, 13.519530561714028",['53'],nan
24,198024,Allee der Kosmonauten,strassenbahn,"52.5259894,13.5186756","['19', '17']",Q65683164
25,198025,Alsen-/Fregestrasse,bus,"52.46381573178922, 13.33148620356095",['2'],nan
26,198026,Alsen-/Fregstrasse,bus,"52.46374242546418, 13.331639020201665",['81'],nan
27,198027,Alt-Biesdorf,bus,"52.508805788386496, 13.558724778261455",['54'],nan
28,198028,Alt-Blankenburg,bus,"52.59317785157442, 13.454731457303565","['42', '31']",nan
29,198029,Alt-Gatow,bus,"52.48354259089879, 13.182970819429137",['34E'],nan
30,198030,Alt-Heiligensee,bus,"52.60510283029124, 13.209634214081166","['14E', '13', '14']",nan
31,198031,Alt-Karow,bus,"52.60931228539711, 13.481265848599735","['42', '31']",nan
32,198032,Alt-Lankwitz,bus,"52.43848298401557, 13.354194783337245",['81'],nan
33,198033,"Alt-Lankwitz, Dorfaue",bus,"52.43908382575332, 13.354417745001864",['81'],nan
34,198034,Alt-Lankwitz/Krankenhaus,bus,"52.43730490015878, 13.358440903360284",['96'],nan
35,198035,Alt-Lichtenrade,bus,"52.39426173436838, 13.41108129819545","['30', '79']",nan
36,198036,Alt-Mahlsdorf,strassenbahn,"52.5051992,13.6133347",['83'],Q66364530
37,198037,Alt-Mariendorf,bus,"52.43923357641858, 13.38166242974063","['11', '81']",nan
38,198038,Alt-Mariendorf,u-bahn,"52.4391,13.3877",['6'],Q262168
39,198039,Alt-Marienfelde,bus,"52.413385082183694, 13.36338063003787","['11', '52']",nan
40,198040,Alt-Marzahn,bus,"52.54208620315265, 13.563823392369315","['92', '54']",nan
41,198041,Alt-Moabit,bus,"52.52368883820615, 13.356893941995768",['24'],nan
42,198042,Alt-Moabit,bus,"52.52381231642733, 13.329817608488819",['1'],nan
43,198043,Alt-Moabit,bus,"52.52452711686722, 13.3496548557308",['16'],nan
44,198044,Alt-Müggelheim,bus,"52.41018331064196, 13.665897531850348",['27'],nan
45,198045,Alt-Pichelsdorf/Freybrücke,bus,"52.5122477912736, 13.200889215866068",['94'],nan
46,198046,Alt-Rudow,bus,"52.41770072121206, 13.49572951039219",['57'],nan
47,198047,Alt-Rüdersdorf,strassenbahn,"52.4664099,13.8054805",['S-Bhf. Friedrichshagen <> Alt-Rüdersdorf'],Q66528564
48,198048,Alt-Schmöckwitz,strassenbahn,"52.3752767,13.649549",['86'],Q66459540
49,198049,Alt-Stralau,bus,"52.49250215076991, 13.477901745330643",['34'],nan
50,198050,Alt-Tegel/U-Bhf. Tegel,bus,"52.58989357817254, 13.283311087588116","['15', '20']",nan
51,198051,Alt-Tempelhof,u-bahn,"52.465952777778,13.385897222222",['6'],Q559212
52,198052,Alt-Wittenau,bus,"52.58973926240553, 13.334237941623051",['62'],nan
53,198053,Alt-Wittenau,bus,"52.59333225029317, 13.322111304991704","['22E', '21', '14']",nan
54,198054,"Alt-Wittenau, Kirche",bus,"52.591892471479916, 13.3264195185693",['15'],nan
55,198055,Alte Jakobstrasse,bus,"52.49899774675935, 13.395604260127172",['95'],nan
56,198056,Alte Jakobstrasse,bus,"52.50615421281323, 13.401681660371056","['41', '29']",nan
57,198057,Altenheim Hottengrund,bus,"52.44892366863784, 13.114237745947817",['35E'],nan
58,198058,Altglienicke,s-bahn,"52.4073,13.5588","['KBS 140', 'KBS 115']",Q4736651
59,198059,"Altglienicke, Kirche",bus,"52.421845729296805, 13.539407702079252",['23'],nan
60,198060,"Altglienicke, Kirche",strassenbahn,"52.421845729296805, 13.539407702079252",['84'],nan
61,198061,Am Falkenberg,strassenbahn,"52.41079970042163, 13.570452931545786",['84'],nan
62,198062,Am Friedrichshain,bus,"52.52873150888438, 13.424352760138131","['9', '32', '57', '40']",nan
63,198063,Am Graben,bus,"52.47903536411806, 13.17933172348599",['35'],nan
64,198064,Am Großen Wannsee,bus,"52.42052910509018, 13.167172834369081","['18', '3']",nan
65,198065,Am Heidefriedhof,bus,"52.43998235203173, 13.393010546456246",['81'],nan
66,198066,Am Juliusturm,bus,"52.539578710212595, 13.2054936901799","['55', '13'], ['97']","nan, nan"
67,198067,Am Kiesteich,bus,"52.551166212587965, 13.165323363657249",['5'],nan
68,198068,Am Kupfergraben,strassenbahn,"52.5194208,13.3953839","['70', '71', '46', '22']",Q65055027
69,198069,Am Nordgraben,bus,"52.588108073077045, 13.33987637535727","['12', '22']",nan
70,198070,Am Nordhafen,bus,"52.53868315849872, 13.363248409190426",['70'],nan
71,198071,Am Omnibushof,bus,"52.517897245023185, 13.18497677087069","['13', '35']",nan
72,198072,Am Pilz,bus,"52.64251497264632, 13.300908054411988",['15'],nan
73,198073,Am Rosenhag,bus,"52.52474356253909, 13.621775828105108","['44', '95']",nan
74,198074,Am Steinberg,bus,"52.55648144940878, 13.429306764151775","['45', '42', '31']",nan
75,198075,Am Steinberg,strassenbahn,"52.5585796,13.4333751",['71'],Q65103320
76,198076,Am Vierrutenberg,bus,"52.613535544271876, 13.343827205969221",['20'],nan
77,198077,Am Volkspark,bus,"52.483222065143515, 13.32036833862448",['86'],nan
78,198078,Amalienstrasse,bus,"52.430150812046016, 13.334039923561416",['96'],nan
79,198079,Amfortasweg,bus,"52.4458677095568, 13.324594238605897",['88'],nan
80,198080,Amrumerstrasse,bus,"52.5462955560136, 13.343933965140167",['16'],nan
81,198081,Amrumerstrasse (Rudolf-Virchow-Krankenhaus),u-bahn,"52.5425,13.350277777778",['9'],Q557577
82,198082,Amtgerichtsplatz,bus,"52.50682826380543, 13.295178534915353",['10'],nan
83,198083,Amtsgericht Charlottenburg,bus,"52.50571853839105, 13.295347400894903",['21'],nan
84,198084,An der Heilandsweide,bus,"52.41760670857809, 13.366580060034295","['11', '32']",nan
85,198085,An der Rehwiese,bus,"52.43422344388058, 13.199161827610604",['53'],nan
86,198086,An der Urania,bus,"52.50313263781954, 13.3499093331407",['29'],nan
87,198087,Anemonenstrasse,bus,"52.44348370546986, 13.593511422511465",['68'],nan
88,198088,Anhalter Bahnhof,s-bahn,"52.503055555556,13.381944444444","['KBS 153', 'KBS 152']",Q111324573
89,198089,Ankogelweg,bus,"52.419552813130366, 13.398328132078321",['79'],nan
90,198090,Annenstrasse,bus,"52.53180886397556, 13.55871869726003",['54'],nan
91,198091,Annenstrasse,bus,"52.53241578266354, 13.53767853161781",['43'],nan
92,198092,Antonplatz,strassenbahn,"52.5484803,13.4517416","['24', '20', '28', '72', '3', '70']",Q65548849
93,198093,Argentinische Allee,bus,"52.43767451883506, 13.23233406765131",['53'],nan
94,198094,Arkonaplatz,bus,"52.53753415367688, 13.401767623579223","['78', '78E']",nan
95,198095,Arnikaweg,bus,"52.43011081467595, 13.477429437980076",['41'],nan
96,198096,Arnimstrasse,bus,"52.55810653253893, 13.515860697561052",['39'],nan
97,198097,Aroser Allee,bus,"52.57376245122369, 13.351970705456408","['22', '14']",nan
98,198098,Aroser Allee,bus,"52.57376706520514, 13.35201441269534",['8'],nan
99,198099,Artur-Becker-Strasse,bus,"52.532128259520775, 13.441464475643278","['30', '54']",nan
100,1980100,Artur-Becker-Strasse,strassenbahn,"52.5325286,13.4406868","['19', '13', '21', '4']",Q65707391
101,1980101,Artur-Becker-Strasse Ecke Michelangelostrasse,bus,"52.54132663209953, 13.455252354589401",['57'],nan
102,1980102,Askanierring,bus,"52.545679974269035, 13.194267325495874",['63'],nan
103,1980103,Askanischer Platz,bus,"52.50447796179715, 13.38228227112231","['24', '75', '29']",nan
104,1980104,Attilaplatz,bus,"52.4554738213535, 13.375407117415186","['96', '25']",nan
105,1980105,Attilastrasse,bus,"52.44965106917626, 13.366909063216056",['33'],nan
106,1980106,Augsburgerstrasse,u-bahn,"52.500555555556,13.336388888889",['2'],Q667035
107,1980107,Auguste-Viktoria-Allee,bus,"52.569268504658915, 13.329801350092811",['62'],nan
108,1980108,Auguste-Viktoria-Krankenhaus,bus,"52.4590671738712, 13.348491313406196",['25'],nan
109,1980109,Ausstellungshallen,bus,"52.507560787103635, 13.276081957440764","['94', '4']",nan
110,1980110,BMW-Maschinenfabrik,bus,"52.537251895204555, 13.223205797129593",['55'],nan
111,1980111,BWF Marzahn,strassenbahn,"52.53886802247272, 13.533795479358202","['11', '12']",nan
112,1980112,Baerwaldstrasse,bus,"52.49400261608628, 13.402912697183803",['95'],nan
113,1980113,Bahnhof,bus,"52.39260379531954, 13.5173267347486",['361'],nan
114,1980114,Barbarossastrasse,bus,"52.491919179981245, 13.345139286455641",['85'],nan
115,1980115,Barfusstrasse,bus,"52.554307201956135, 13.345153941265151",['12'],nan
116,1980116,Barnetstrasse,bus,"52.39384206889992, 13.406703683360332",['76E'],nan
117,1980117,Baselerstrasse,bus,"52.43781528112191, 13.295405618271035",['84'],nan
118,1980118,Baumschulenstrasse,bus,"52.460823690124585, 13.503654622533428","['65', '66']",nan
119,1980119,Baumschulenweg,s-bahn,"52.4675,13.489722","['KBS 141', 'KBS 115', 'KBS 142', 'KBS 110', 'KBS 140']",Q324336
120,1980120,Baußnernweg,bus,"52.40552764373322, 13.356400744655776",['52'],nan
121,1980121,Bayerischer Platz,u-bahn,"52.488333333333,13.340277777778","['7', '4']",Q668574
122,1980122,Bayernring,bus,"52.48253685459361, 13.381049547471969",['96'],nan
123,1980123,Bayreutherstrasse,bus,"52.50163998582795, 13.343660724504073","['9', '69']",nan
124,1980124,Behring-Krankenhaus,bus,"52.42410894567823, 13.251764544509987",['10'],nan
125,1980125,Bellevue,s-bahn,"52.52,13.348055555556",['KBS 156'],Q374018
126,1980126,Belßstrasse,bus,"52.42719908422464, 13.365826813492008","['30', '32']",nan
127,1980127,Bendastrasse,bus,"52.46695300094916, 13.436394446161026",['65'],nan
128,1980128,Bergfelde (b Bln),s-bahn,"52.6702,13.3203",['KBS 140'],Q4891640
129,1980129,Berghof,strassenbahn,"52.4735431,13.7613062",['S-Bhf. Friedrichshagen <> Alt-Rüdersdorf'],Q66550988
130,1980130,Berghof-Weiche,strassenbahn,"52.4733349,13.7520292",['S-Bhf. Friedrichshagen <> Alt-Rüdersdorf'],Q66550992
131,1980131,Bergstrasse,bus,"52.4586368537812, 13.339246302632247","['2', '75', '81']",nan
132,1980132,Berkaerstrasse,bus,"52.48209270683341, 13.281182952838728","['60', '17']",nan
133,1980133,Berkaerstrasse/ Elsterplatz,bus,"52.479165109956405, 13.28576620114883",['50'],nan
134,1980134,Berlichingenstrasse,bus,"52.52781016393892, 13.324880288269696","['70', '89']",nan
135,1980135,Berlinerstrasse,bus,"52.435083319419306, 13.260410168709265","['60', '48', '10', '1']",nan
136,1980136,Berlinerstrasse,bus,"52.44187339521801, 13.282703313467785",['11'],nan
137,1980137,Berlinerstrasse,bus,"52.48854918541416, 13.307631571116701","['50', '21']",nan
138,1980138,Berlinerstrasse,u-bahn,"52.487222222222,13.330833333333","['9', '7']",Q637739
139,1980139,Berlinickeplatz,bus,"52.46607292094852, 13.378516406213421","['65', '96']",nan
140,1980140,Bernau (b Bln),s-bahn,"52.6763,13.5931",['KBS 141'],Q479789
141,1980141,Bernauerstrasse,bus,"52.40127283182526, 13.411771545988342",['79'],nan
142,1980142,Bernauerstrasse Ecke Wollinerstrasse,bus,"52.53976704920815, 13.4015980999198",['61'],nan
143,1980143,Bernhard-Beyer-Strasse,bus,"52.391758854827614, 13.13183862470428",['18'],nan
144,1980144,Bernkastelerstrasse,bus,"52.557002071967496, 13.466894624996348",['45'],nan
145,1980145,Bernkastelerstrasse,strassenbahn,"52.55700474140414, 13.467005851524313",['28'],nan
146,1980146,Besarinstrasse,strassenbahn,"52.52639219393025, 13.44755936273526",['17'],nan
147,1980147,Betriebsbhf. Rummelsburg,s-bahn,"52.4939,13.4978",['KBS 105'],Q829009
148,1980148,Betriebsbhf. Schöneweide,s-bahn,"52.44676,13.52391","['KBS 141', 'KBS 140', 'KBS 115', 'KBS 110']",Q4526101
149,1980149,Beusselstrasse,bus,"52.53293844477406, 13.328446253301122","['99', '89']",nan
150,1980150,Beusselstrasse,bus,"52.538162816205364, 13.326153362098783",['65'],nan
151,1980151,Beusselstrasse/Goerdelerdamm,bus,"52.538207243690735, 13.326140120191338",['23'],nan
152,1980152,Bhf. Ahrensfelde,bus,"52.571313719653176, 13.566341546222308",['41'],nan
153,1980153,Bhf. Alexanderplatz,bus,"52.52074877770386, 13.412147230655155",['57'],nan
154,1980154,Bhf. Frankfurter Allee,strassenbahn,"52.5138037,13.4773772",['3'],Q65948557
155,1980155,Bhf. Friedrichstrasse,bus,"52.5205606637086, 13.388231915342985","['78', '57']",nan
156,1980156,Bhf. Friedrichstrasse,strassenbahn,"52.5192805,13.3884107","['70', '46', '22']",Q65095382
157,1980157,Bhf. Jungfernheide,bus,"52.530138785889896, 13.296018817180764",['9'],nan
158,1980158,Bhf. Karlshorst,bus,"52.481331,13.5254433",['96'],nan
159,1980159,Bhf. Karlshorst,strassenbahn,"52.481331,13.5254433","['19', '17']",Q65952829
160,1980160,Bhf. Lichtenberg,bus,"52.51086483639184, 13.499794165236494","['112', '54', '93', '30', '8']",nan
161,1980161,Bhf. Lichtenberg,strassenbahn,"52.5123603,13.4977547","['15', '20']",Q66013733
162,1980162,Bhf. Schönefeld,bus,"52.38192403313463, 13.511545079208773",['36'],nan
163,1980163,Bhf. Schöneweide,bus,"52.45374952013775, 13.510200397684477","['47', '62', '65', '66', '67']",nan
164,1980164,Bhf. Schöneweide,strassenbahn,"52.4553413,13.5110449","['85', '26', '25', '17']",Q65950245
165,1980165,Bhf. Schönhauser Allee,strassenbahn,"52.5493619,13.4135734","['49', '22']",Q65088013
166,1980166,Biesdorf,s-bahn,"52.5131,13.5554",['KBS 100'],Q4892357
167,1980167,"Biesdorf, Karl-Maron-Strasse",strassenbahn,"52.5339076,13.5526731",['18'],Q65681667
168,1980168,"Biesdorf-Süd, Köpenickerstrasse",bus,"52.50540750631891, 13.561822203827356",['35'],nan
169,1980169,Bingerstrasse,bus,"52.47860731690142, 13.309520331957327",['60'],nan
170,1980170,Birkbuschstrasse,bus,"52.442446070952045, 13.33208709992057",['17'],nan
171,1980171,Birkbuschstrasse,bus,"52.452746371165205, 13.319710019070339","['85', '88']",nan
172,1980172,Birkenstrasse,bus,"52.53079718877779, 13.347189131007013",['70'],nan
173,1980173,Birkenstrasse,u-bahn,"52.532222222222,13.341388888889",['9'],Q555998
174,1980174,Birkenwerder,s-bahn,"52.6885,13.2888",['KBS 140'],Q2343634
175,1980175,Bismarckplatz,bus,"52.492064537089135, 13.28493897027407",['29'],nan
176,1980176,Bismarckstrasse,bus,"52.45104613779833, 13.337984178349748","['17', '2' '30', '32', '81', '33', '75']",nan
177,1980177,Bismarckstrasse,bus,"52.51156584388718, 13.305262677680595",['21'],nan
178,1980178,Bismarckstrasse,bus,"52.51213972539539, 13.31476635820591",['1'],nan
179,1980179,Bismarckstrasse,u-bahn,"52.511388888889,13.305","['1', '7']",Q686132
180,1980180,Björnsonstrasse,bus,"52.465537379031005, 13.313402757322454",['33'],nan
181,1980181,Björnsonstrasse,strassenbahn,"52.5537705,13.4138898","['22', '3']",Q65076842
182,1980182,Blankenburg,s-bahn,"52.5915,13.4435","['KBS 141', 'KBS 140', 'KBS 142', 'KBS 143']",Q800469
183,1980183,Blankenfelde,bus,"52.61834588206829, 13.390559367661176",['7'],nan
184,1980184,Blaschkoallee,bus,"52.452527739561745, 13.452132008638982",['41'],nan
185,1980185,Blaschkoallee,u-bahn,"52.451944444444,13.449444444444",['7'],Q666911
186,1980186,Bleibtreustrasse,bus,"52.50162717169989, 13.319466346593028","['9', '19', '29']",nan
187,1980187,Blissestrasse,bus,"52.48376778578, 13.320278052796514",['60'],nan
188,1980188,Blissestrasse,u-bahn,"52.486666666667,13.321944444444",['7'],Q571397
189,1980189,Blumenstrasse,strassenbahn,"52.4494503,13.7594534",['S-Bhf. Rahnsdorf <> Woltersdorfer Schleuse'],Q66977546
190,1980190,Blücherstrasse,bus,"52.494544810791446, 13.399589946762335",['95'],nan
191,1980191,Boddinstrasse,u-bahn,"52.48,13.425277777778",['8'],Q819495
192,1980192,Boelckestrasse,bus,"52.480786395990485, 13.377428055833606",['28'],nan
193,1980193,"Bohnsdorf, Kirche",bus,"52.39948771402893, 13.555574431978044",['36'],nan
194,1980194,"Bohnsdorf, Waldstrasse",bus,"52.389397192754984, 13.570666562153916",['38'],nan
195,1980195,Borgsdorf,s-bahn,"52.7155,13.2764",['KBS 140'],Q4093486
196,1980196,Bornholmerstrasse,bus,"52.5549426407197, 13.395363798814545",['89'],nan
197,1980197,Borsigwerke,u-bahn,"52.5819,13.2907",['6'],Q525185
198,1980198,Boschpolerstrasse,bus,"52.5281225944603, 13.548869333486577",['43'],nan
199,1980199,Boschpolerstrasse,strassenbahn,"52.5273236,13.5486703",['18'],Q65681726
200,1980200,Boxhagenerstrasse,strassenbahn,"52.508620954574766, 13.466318705478798",['3'],nan
201,1980201,Brandaustrasse,bus,"52.417146144238515, 13.386046989745367",['7'],nan
202,1980202,Brandenburgplatz,strassenbahn,"52.4553193,13.5908277",['25'],Q66338590
203,1980203,Brauerei,strassenbahn,"52.44699265840037, 13.624251999339991",['84'],nan
204,1980204,Breite-Strasse,bus,"52.5140675536693, 13.40574007426647",['78'],nan
205,1980205,Breitehornweg/Krankenhaus,bus,"52.47044572189344, 13.169372570939597","['34', '35']",nan
206,1980206,Breitenbachplatz,bus,"52.467219717443385, 13.309473490660878",['16'],nan
207,1980207,Breitenbachplatz,u-bahn,"52.466388888889,13.308055555556",['2'],Q571339
208,1980208,Breitenbachstrasse,bus,"52.58199659447502, 13.305445353625542","['15', '22E', '21']",nan
209,1980209,Breitestrasse,bus,"52.45433337627122, 13.328234324102299",['32'],nan
210,1980210,Breitestrasse,bus,"52.45434970242913, 13.328273041731025",['30'],nan
211,1980211,Breitestrasse,bus,"52.5140675536693, 13.40574007426647",['9'],nan
212,1980212,Breitestrasse/Haydnstrasse,bus,"52.449642196356386, 13.323567575321938",['88'],nan
213,1980213,Breitscheidplatz,bus,"52.504438063129996, 13.33564615707506","['9', '60', '19', '69']",nan
214,1980214,Breitscheidstrasse,bus,"52.63978191539914, 13.317789778141295",['7'],nan
215,1980215,Breitscheidstrasse,strassenbahn,"52.4685102,13.7928271",['S-Bhf. Friedrichshagen <> Alt-Rüdersdorf'],Q66531394
216,1980216,Breslauer Platz/Rathaus Friedenau,bus,"52.472258296062634, 13.336106779429679",['48'],nan
217,1980217,Briesener Weg,bus,"52.515989948329185, 13.609410940393886",['60'],nan
218,1980218,Britz-Süd,bus,"52.43697966573562, 13.448134256305682",['25'],nan
219,1980219,Britz-Süd,u-bahn,"52.437777777778,13.448055555556",['7'],Q571845
220,1980220,Britzer Damm,bus,"52.45270582469712, 13.438600568590575",['25'],nan
221,1980221,Britzerstrasse,bus,"52.44019828016907, 13.39521021528824",['81'],nan
222,1980222,Bruchwitzstrasse,bus,"52.437914827364786, 13.348377144075371","['96', '81']",nan
223,1980223,Brunnenplatz,bus,"52.54967231813887, 13.377205988834362",['70'],nan
224,1980224,Brunnenstrasse,bus,"52.53827699316531, 13.396004706370867",['99'],nan
225,1980225,Brunnenstrasse,strassenbahn,"52.5324542,13.3974236","['70', '46', '22']",Q65691740
226,1980226,Brunsbütteler Damm,bus,"52.53292762063852, 13.198429555074528","['34', '13']",nan
227,1980227,Brunsbütteler Damm,bus,"52.53310870663978, 13.157950786711206",['31'],nan
228,1980228,Brösenerstrasse,strassenbahn,"52.4591543,13.635078",['S-Bhf. Friedrichshagen <> Alt-Rüdersdorf'],Q66528570
229,1980229,Brückenstrasse,strassenbahn,"52.468598604942, 13.80052411472712",['S-Bhf. Friedrichshagen <> Alt-Rüdersdorf'],nan
230,1980230,Buch,s-bahn,"52.6359,13.4917","['KBS 141', 'KBS 143']",Q4892359
231,1980231,"Buch, Am Sandhaus",bus,"52.6379918370594, 13.490907382587826",['51'],nan
232,1980232,"Buch, Hobrechtsfelder Chaussee",bus,"52.64858618670595, 13.484683854486553",['31'],nan
233,1980233,"Buch, Zepernickerstrasse",bus,"52.63316196724486, 13.51360237687453",['42'],nan
234,1980234,"Bucholz, Hauptstrasse",strassenbahn,"52.60726996020294, 13.433394005316927",['49'],nan
235,1980235,Buckower Ch.,s-bahn,"52.4103,13.3829",['KBS 152'],Q800499
236,1980236,Buckower Chaussee,bus,"52.414558044256225, 13.401161035852658","['7', '52']",nan
237,1980237,Buckower Chaussee/Marienfelder Chaussee,bus,"52.414555939046274, 13.401107771457488","['76E', '79']",nan
238,1980238,Buckower Damm,bus,"52.42368329841466, 13.436638725763267",['52'],nan
239,1980239,Buckower Friedhof,bus,"52.42151537347778, 13.43036950960343",['52'],nan
240,1980240,Budapesterstrasse,bus,"52.50516506753211, 13.336671016983322",['9'],nan
241,1980241,Buddestrasse,bus,"52.59011025204419, 13.287457889605605",['15'],nan
242,1980242,Buhrowstrasse,bus,"52.44920703499153, 13.353277489535056",['33'],nan
243,1980243,Bundesallee,bus,"52.46493052962428, 13.32853185257923",['65'],nan
244,1980244,Bundesplatz,u-bahn,"52.478080555556,13.328519444444",['9'],Q3647008
245,1980245,Burgfrauenstrasse,bus,"52.62759147421597, 13.311323579642115",['12'],nan
246,1980246,Buschkrugallee,bus,"52.44537971273351, 13.455058587836387",['25'],nan
247,1980247,Bäkestrasse,bus,"52.43526738320262, 13.31322719177085",['84'],nan
248,1980248,Bölschestrasse,strassenbahn,"52.44753754960049, 13.624290215589",['25'],nan
249,1980249,Bötzow-Bahn,bus,"52.560824422323606, 13.172066794689416",['63'],nan
250,1980250,Bülowstrasse,bus,"52.49785615051477, 13.362013709342792","['84', '75', '48']",nan
251,1980251,Bürgerpark,bus,"52.56929473750183, 13.400863229040334","['50', '33', '55', '7']",nan
252,1980252,Bürgerpark,strassenbahn,"52.5714873,13.3984217","['46', '22']",Q65055045
253,1980253,Bürgerwäldchen,strassenbahn,"52.48924332057368, 13.606368760127548",['83'],Q66364551
254,1980254,Calandrellistrasse (Stadtbad),bus,"52.442592851117794, 13.341275641965193",['32'],nan
255,1980255,Calandrellistrasse/Stadtbad,bus,"52.44257137441378, 13.341299544015",['81'],nan
256,1980256,"Calandrellistrasse/Stadtbad, Rathaus",bus,"52.44257598085535, 13.341282190494303",['30'],nan
257,1980257,Calauerstrasse,bus,"52.6039046981797, 13.35101806751932","['64', '22']",nan
258,1980258,Carl-Schurz-Strasse,bus,"52.53953156633325, 13.205576158577","['55', '99', '13', '34', '56']",nan
259,1980259,Cecilienstrasse,bus,"52.52916119988477, 13.56567001818894",['92'],nan
260,1980260,Charlottenburg,s-bahn,"52.504722222222,13.303333333333",['KBS 156'],Q111326217
261,1980261,Charlottenstrasse,bus,"52.41530988829396, 13.145423878646657",['18'],nan
262,1980262,Charlottenstrasse,bus,"52.51714232691195, 13.390652672122041",['57'],nan
263,1980263,Charlottenstrasse,bus,"52.53600752976199, 13.20480821557962",['56'],nan
264,1980264,Chausseestrasse,strassenbahn,"52.53057118981624, 13.383070997521115","['11', '18']",nan
265,1980265,Chemie-Handel,bus,"52.54635511419105, 13.519416309000189",['53'],nan
266,1980266,Chemnitzerstrasse,bus,"52.5051288553116, 13.581585054064426",['27'],nan
267,1980267,Clayallee,bus,"52.46042333572993, 13.274946148765821",['3'],nan
268,1980268,Columbiadamm,bus,"52.48398171737193, 13.394418749054523",['24'],nan
269,1980269,Corrensplatz,bus,"52.446014012041694, 13.284264679815902","['11', '10']",nan
270,1980270,Crailsheimerstrasse,bus,"52.444274212475506, 13.354224635353715",['96'],nan
271,1980271,Cunostrasse,bus,"52.485632143913, 13.296298367587678",['50'],nan
272,1980272,Cyclopstrasse,bus,"52.60208376924525, 13.32483857919441",['12'],nan
273,1980273,Dahlem Waldfriedhof,bus,"52.454988100614784, 13.265939139958043",['11'],nan
274,1980274,Dahlem-Dorf,u-bahn,"52.456944444444,13.289444444444",['2'],Q668585
275,1980275,Dahlemer Weg,bus,"52.44179805042347, 13.282699371472702","['53', '48']",nan
276,1980276,Daimlerstrasse,bus,"52.42004129886981, 13.390580631715386",['7'],nan
277,1980277,Daimlerstrasse,bus,"52.42633426517634, 13.374372783711541",['11'],nan
278,1980278,Dammweg,bus,"52.47029082500845, 13.464688258814357",['95'],nan
279,1980279,Dannenwalder Weg,bus,"52.59156023305015, 13.346103882346329","['64', '22']",nan
280,1980280,Dardanellenweg,bus,"52.44483148936466, 13.410763994344759",['81'],nan
281,1980281,Dernburgstrasse,bus,"52.50646678185195, 13.28367883075423","['94', '10']",nan
282,1980282,Deutsche Oper,u-bahn,"52.511944444444,13.310555555556",['1'],Q869501
283,1980283,Deutsche Staatsoper,bus,"52.51738792599121, 13.39467182238642",['57'],nan
284,1980284,Diakoniezentrum,bus,"52.61149887487554, 13.251436670031126",['14'],nan
285,1980285,Dianaplatz,bus,"52.606727147275635, 13.312809212946904",['20'],nan
286,1980286,Dianastrasse,bus,"52.611345702626494, 13.318042679764599",['12'],nan
287,1980287,Diepensee,bus,"52.300569220227956, 13.588920019126693",['38'],nan
288,1980288,Dimitroffstrasse,bus,"52.52644944679887, 13.447574773361476","['54', '48']",nan
289,1980289,Dimitroffstrasse,bus,"52.53214076529275, 13.441437817185522","['30', '57']",nan
290,1980290,Dimitroffstrasse,strassenbahn,"52.5263926244183, 13.447646411219079","['11', '15', '63', '18', '19']",nan
291,1980291,Dimitroffstrasse,strassenbahn,"52.536198395743384, 13.43305330311556","['24', '28']",nan
292,1980292,Dimitroffstrasse,strassenbahn,"52.539215728844226, 13.42421962115618","['20', '71', '72']",nan
293,1980293,Dimitroffstrasse,u-bahn,"52.541666666667,13.412222222222",['A'],Q571382
294,1980294,Dolomitenstrasse,bus,"52.56142249168458, 13.404195228458164",['50'],nan
295,1980295,Dominicusstrasse,bus,"52.481845594274056, 13.348295976204904","['65', '75', '48']",nan
296,1980296,Donnersmarckplatz,bus,"52.62982465046043, 13.28047497184123","['15', '12']",nan
297,1980297,Dorfstrasse,strassenbahn,"52.4785253,13.6950292",['S-Bhf. Friedrichshagen <> Alt-Rüdersdorf'],Q66564222
298,1980298,Dr. Wilhelm-Külz-Strasse,bus,"52.46622633660755, 13.700755982362814",['61'],nan
299,1980299,Drakestrasse,bus,"52.43129851364018, 13.30971175416101",['53'],nan
300,1980300,Drakestrasse,bus,"52.439789082027474, 13.300246115143795",['85'],nan
301,1980301,Drakestrasse,bus,"52.445663118820534, 13.293766125661357","['11', '48']",nan
302,1980302,Drewitz,bus,"52.383210942095026, 13.122280120317033",['E'],nan
303,1980303,Drontheimerstrasse,bus,"52.55658565363752, 13.377068634643702",['14'],nan
304,1980304,Dudenstrasse,bus,"52.485078406979376, 13.376567552300232",['28'],nan
305,1980305,Dyrotzerstrasse,bus,"52.541533204193215, 13.168717392964442",['63'],nan
306,1980306,Düppel-Süd,bus,"52.423091212760234, 13.233043898233506",['3'],nan
307,1980307,Düppelstrasse,bus,"52.46050228641594, 13.327668795336404",['84'],nan
308,1980308,Eberswalderstrasse,strassenbahn,"52.5401928,13.4113979","['13', '21', '4']",Q65088313
309,1980309,Edelweißstrasse,bus,"52.58637603770021, 13.367525194816494","['45', '55']",nan
310,1980310,Edisonstrasse,strassenbahn,"52.4619496,13.5139049",['19'],Q65951882
311,1980311,Efeuweg,bus,"52.42961975739112, 13.47788675809725",['52'],nan
312,1980312,Egelpfuhlstrasse,bus,"52.53353984351533, 13.169416926784528","['80', '31']",nan
313,1980313,Ehrenmal Schönholz,bus,"52.580179307507684, 13.375830702482576","['45', '55']",nan
314,1980314,Eichborndamm,bus,"52.59189972544546, 13.326509287366479","['12', '12E', '14']",nan
315,1980315,Eichbornstrasse,s-bahn,"52.5776,13.3169",['KBS 153'],Q800500
316,1980316,Eichbuschplatz,bus,"52.39366126137233, 13.582046308470128",['38'],nan
317,1980317,Eichendamm,strassenbahn,"52.4557019,13.730965",['S-Bhf. Rahnsdorf <> Woltersdorfer Schleuse'],Q66980691
318,1980318,Eichholzbahn,bus,"52.53745641909849, 13.149835716602464",['31'],nan
319,1980319,Eichhorster Weg,bus,"52.60003194903096, 13.341216343271132","['64', '22']",nan
320,1980320,Eichkamp Dauerwaldweg,bus,"52.48910045407201, 13.259629130168845",['69'],nan
321,1980321,Eichwalde,s-bahn,"52.3715,13.6152","['KBS 141', 'KBS 110']",Q19274479
322,1980322,Eisenacherstrasse,bus,"52.446763982320256, 13.402055874121041",['33'],nan
323,1980323,Eisenacherstrasse,bus,"52.49468880545909, 13.349802236493753",['50'],nan
324,1980324,Eisenacherstrasse,u-bahn,"52.489444444444,13.350277777778",['7'],Q571170
325,1980325,"Eiswald-/Emmerichstrasse, Hochschule",bus,"52.4276733720371, 13.355227466541969",['30'],nan
326,1980326,Eiswaldstrasse,bus,"52.42768407828006, 13.355221272560957",['32'],nan
327,1980327,Elisabeth-Friedhof,bus,"52.5606565984888, 13.387868890755703",['70'],nan
328,1980328,Elisabethstrasse,bus,"52.534079281753165, 13.559516643069438","['92', '54']",nan
329,1980329,Elisabethstrasse,bus,"52.534314530848086, 13.566386506145411",['95'],nan
330,1980330,Elsflether Weg,bus,"52.53387421969225, 13.1936438306569","['80', '31']",nan
331,1980331,Elsterplatz,bus,"52.47977982878401, 13.285507613099716","['60', '10']",nan
332,1980332,Elsterwerdaer Platz,bus,"52.506069286264314, 13.561702990422047","['8', '35']",nan
333,1980333,Emmentalerstrasse,bus,"52.56753442425038, 13.351220133812342","['12', '12E']",nan
334,1980334,Emmentalerstrasse,bus,"52.57040409711633, 13.360868970172627","['61', '22']",nan
335,1980335,Emmentalerstrasse,bus,"52.57436366539218, 13.368494321270632",['14'],nan
336,1980336,Emser Platz,bus,"52.492072890007414, 13.319251387534207",['50'],nan
337,1980337,Endestrasse,bus,"52.41965961978957, 13.160396994674473",['18'],nan
338,1980338,Entlastungsstrasse,bus,"52.51939151946091, 13.370756955535764",['69'],nan
339,1980339,Erich-Weinert-Klubhaus,strassenbahn,"52.455916,13.5586012","['26', '19', '85', '25', '82']",Q66095725
340,1980340,Erkner,s-bahn,"52.4296,13.7513",['KBS 105'],Q14434071
341,1980341,Erkstrasse/U-Bhf. Rathaus Neukölln,bus,"52.48087081333717, 13.435364974946072",['4'],nan
342,1980342,Ernst-Reuter-Platz,u-bahn,"52.511944444444,13.322222222222",['1'],Q658361
343,1980343,Ernst-Weinert-Klubhaus,strassenbahn,"52.455916,13.5586012",['21'],Q66095725
344,1980344,Eschachstrasse/Ziekowstrasse,bus,"52.59029771885372, 13.289367157414716",['15'],nan
345,1980345,Exerzierstrasse,bus,"52.553756646174705, 13.37716619556309",['61'],nan
346,1980346,Fahlenbergstrasse,bus,"52.431470149043314, 13.718708856639706",['61'],nan
347,1980347,Fahrenheitstrasse,bus,"52.41442729967662, 13.317808293573478",['86'],nan
348,1980348,Falckensteinstrasse,bus,"52.50006740058051, 13.443824961890895",['28'],nan
349,1980349,Falkenberger Chaussee,bus,"52.565814225343445, 13.511924619006814",['39'],nan
350,1980350,Falkenbergerstrasse,bus,"52.55648662489534, 13.486621227706236","['41', '39', '53']",nan
351,1980351,Falkenhöhe,bus,"52.400507029940435, 13.538229483128243",['23'],nan
352,1980352,Falkenplatz,bus,"52.58483834291436, 13.227491413045145","['14E', '20']",nan
353,1980353,Falkenseer Chaussee,bus,"52.54750354783305, 13.184668062763297","['63', '99', '5']",nan
354,1980354,Falkenseer Chaussee/Stadtrandstrasse,bus,"52.553417103891, 13.153520760843469",['5'],nan
355,1980355,Falkenseer Damm,bus,"52.541921441242074, 13.20003803734455",['63'],nan
356,1980356,Falkenseer Platz,bus,"52.54045617500718, 13.203419756102146",['63'],nan
357,1980357,Falkentaler Steig,bus,"52.61956101840572, 13.304151399505054",['15'],nan
358,1980358,Fanningerstrasse,bus,"52.514005623083534, 13.498138966555556",['93'],nan
359,1980359,Fasanenstrasse,strassenbahn,"52.4530423,13.744271",['S-Bhf. Rahnsdorf <> Woltersdorfer Schleuse'],Q66980261
360,1980360,Fehrbelliner Platz,bus,"52.490390927187676, 13.31417745809863","['21', '86']",nan
361,1980361,Fehrbelliner Platz,u-bahn,"52.490277777778,13.314444444444","['2', '7']",Q663245
362,1980362,Feldtmannstrasse,bus,"52.56401588379611, 13.46980857664685",['41'],nan
363,1980363,Fennstrasse,bus,"52.53790305026232, 13.36156749519695",['16'],nan
364,1980364,Feuerbachstrasse,bus,"52.463135641874736, 13.326732020590491",['75'],nan
365,1980365,Filandastrasse,bus,"52.45830016222382, 13.332000437695363",['33'],nan
366,1980366,Finckensteinallee,bus,"52.43271069172293, 13.28705129301604","['85', '84']",nan
367,1980367,Finnensiedlung,bus,"52.45776614181094, 13.150049064089199",['35'],nan
368,1980368,Finsterwalderstrasse,bus,"52.600048458103096, 13.341236103226572",['15'],nan
369,1980369,Fischerhüttenstrasse,bus,"52.43576520834544, 13.256135254159986",['18'],nan
370,1980370,Flankenschanze,bus,"52.54285108073802, 13.198524346220605",['63'],nan
371,1980371,Flottenstrasse,bus,"52.577013821677525, 13.360955072816076",['61'],nan
372,1980372,Flottenstrasse,bus,"52.57854656153007, 13.347242859300291","['12E', '64']",nan
373,1980373,Flughafen Berlin Tegel,bus,"52.55403638121108, 13.293890891657346",['8'],nan
374,1980374,Flughafen Berlin-Schönefeld,s-bahn,"52.3914,13.5128","['KBS 140', 'KBS 115']",Q661069
375,1980375,Flughafen Berlin-Tegel,bus,"52.55403638121108, 13.293890891657346",['9'],nan
376,1980376,Flughafen Schönefeld,bus,"52.391323335655244, 13.51608796588043",['361'],nan
377,1980377,"Flughafen, Inland",bus,"52.342093062255294, 13.510465453623498",['36'],nan
378,1980378,"Flugplatz, Haupteingang",bus,"52.46658956261734, 13.164541627721409","['34', '35']",nan
379,1980379,Flugsteig 15,bus,"52.55399013109914, 13.291000322517526","['9', '8']",nan
380,1980380,Forckenbeckstrasse,bus,"52.482221394934605, 13.290044081376928",['50'],nan
381,1980381,Forststrasse,bus,"52.44018878722606, 13.23646612794553",['53'],nan
382,1980382,Frankenwaldstrasse,bus,"52.54996371596514, 13.171838568952742",['5'],nan
383,1980383,Frankestrasse,bus,"52.49265052375857, 13.532057921698504",['94'],nan
384,1980384,Frankfurter Allee,bus,"52.51348352208039, 13.476830323062508",['93'],nan
385,1980385,Frankfurter Allee,s-bahn,"52.514166666667,13.474722222222","['KBS 141', 'KBS 140', 'KBS 142', 'KBS 143']",Q111250033
386,1980386,Frankfurter Allee,u-bahn,"52.513638888889,13.475694444444",['E'],Q3752007
387,1980387,Frankfurter Tor,strassenbahn,"52.5153903,13.4540172","['13', '21', '4']",Q65706246
388,1980388,Frankfurter Tor,u-bahn,"52.515833333333,13.454166666667",['E'],Q568627
389,1980389,Franklinstrasse,bus,"52.522283871477285, 13.328349242353065",['1'],nan
390,1980390,Franz-Jacob-Strasse,strassenbahn,"52.5285069951728, 13.466925730548898","['15', '19', '18', '17']",nan
391,1980391,Franz-Mehring-Platz,bus,"52.51371039681593, 13.437822888670022",['30'],nan
392,1980392,Franzensbaderstrasse/Sportplatz,bus,"52.48531047979718, 13.284276944205017",['29'],nan
393,1980393,Französischestrasse,bus,"52.51477056481976, 13.389185172689716",['79'],nan
394,1980394,Fredersdorf (b Bln),s-bahn,"52.5265,13.7625",['KBS 100'],Q15197387
395,1980395,Freibad Grünau,strassenbahn,"52.4086224,13.604455",['86'],Q66489598
396,1980396,Freie Scholle,bus,"52.599851537868666, 13.301736158422598",['20'],nan
397,1980397,Freiheit,strassenbahn,"52.44751245016566, 13.575397816761088",['19'],nan
398,1980398,Freiheit 42/43,bus,"52.5305888635336, 13.224095725446475",['56'],nan
399,1980399,Friedenauer Brücke,bus,"52.467136873118974, 13.33767977795157","['84', '25']",nan
400,1980400,Friedenstrasse,bus,"52.417223782342035, 13.138950169993388",['6'],nan
401,1980401,Friedrich-Junge-Strasse,bus,"52.49382897072681, 13.471572865851856",['34'],nan
402,1980402,Friedrich-Olbricht-Damm,bus,"52.54441142183259, 13.313159139083618",['23'],nan
403,1980403,Friedrich-Wilhelm-Platz,u-bahn,"52.47194,13.32861",['9'],Q559207
404,1980404,Friedrich-Wilhelm-Strasse,bus,"52.45895211969007, 13.376248282408774",['96'],nan
405,1980405,Friedrichsfelde,u-bahn,"52.506111111111,13.512777777778",['E'],Q429781
406,1980406,Friedrichsfelde Ost,s-bahn,"52.5141,13.5198","['KBS 100', 'KBS 101']",Q800473
407,1980407,Friedrichshagen,s-bahn,"52.4574,13.6233",['KBS 105'],Q800474
408,1980408,Friedrichsrodaerstrasse,bus,"52.4201108132188, 13.359007420818845",['32'],nan
409,1980409,Friedrichstrasse,bus,"52.51718498081941, 13.388821428784585","['9', '32']",nan
410,1980410,Friedrichstrasse,s-bahn,"52.52027777777778,13.386944444444444","['KBS 105', 'KBS 115', 'KBS 100', 'KBS 110', 'KBS 152', 'KBS 156', 'KBS 153']",Q111219456
411,1980411,Friedrichstrasse,u-bahn,"52.520111111111,13.388305555556",['6'],Q3753274
412,1980412,Friedrichstrasse/U-Bhf. Kochstrasse,bus,"52.506461639098845, 13.39051870297674",['29'],nan
413,1980413,Friesenstrasse,bus,"52.483950604682775, 13.394359749805426",['4'],nan
414,1980414,Fritz-Erler-Allee,bus,"52.425820619613276, 13.483152637127983","['25', '52']",nan
415,1980415,Frohnau,s-bahn,"52.6325,13.2902",['KBS 152'],Q800472
416,1980416,Frohnau Invalidensiedlung,bus,"52.65520839664635, 13.284793871557998",['15'],nan
417,1980417,Fronhofer-/Wrangelstrasse,bus,"52.45432970776737, 13.318802488731677",['86'],nan
418,1980418,Fronhoferstrasse,bus,"52.4536095013498, 13.319123581679202",['84'],nan
419,1980419,Fronhoferstrasse/Wrangelstrasse,bus,"52.45432970776737, 13.318802488731677",['88'],nan
420,1980420,Fuldastrasse,bus,"52.483802510465225, 13.435884392882318",['95'],nan
421,1980421,Fährstrasse,bus,"52.607046957760666, 13.21078222815492","['14E', '14']",nan
422,1980422,Fürstenbrunner Weg/Friedhof,bus,"52.52418583721669, 13.279290457923098",['10'],nan
423,1980423,Fürstendamm,bus,"52.633201285794975, 13.29168257304951",['12E'],nan
424,1980424,Gabrielenstrasse,bus,"52.5948594090207, 13.279545908495535",['20'],nan
425,1980425,Galenstrasse,bus,"52.535513174510704, 13.195323305598267","['63', '5']",nan
426,1980426,Gardeschützenweg,bus,"52.44269703422099, 13.296991593442124","['11', '85']",nan
427,1980427,Gartenfelderstrasse,bus,"52.54416414332362, 13.247054939968866","['55', '10', '99']",nan
428,1980428,Gartenstadtweg,bus,"52.412313913821045, 13.56660267841369",['36'],nan
429,1980429,Garystrasse,bus,"52.4442077967708, 13.28357204535823",['11'],nan
430,1980430,Gatow Kirche,bus,"52.48658875560032, 13.182345187620795",['35'],nan
431,1980431,"Gatow, Kirche",bus,"52.48684680676539, 13.18215147844503",['34'],nan
432,1980432,Gatowerstrasse,bus,"52.489436255649245, 13.180387588417426","['94', '97', '34', '35']",nan
433,1980433,"Gatowerstrasse ""Biberburg""",bus,"52.49797592518819, 13.180036801876797","['34', '35']",nan
434,1980434,Geflügelsteig,bus,"52.40509575868019, 13.490612934623142",['57'],nan
435,1980435,Gehringstrasse,bus,"52.56216163837131, 13.468446044017584","['45', '56']",nan
436,1980436,Gehsenerstrasse,bus,"52.46321577871702, 13.58365868698432",['27'],nan
437,1980437,Geibelstrasse,bus,"52.49351434160696, 13.405865390190371",['28'],nan
438,1980438,Geibelstrasse/Urban-Krankenhaus,bus,"52.49479123527596, 13.406648041036469",['95'],nan
439,1980439,Gemeinde-Zentrum,bus,"52.59643859073574, 13.351715376359108",['22'],nan
440,1980440,Gemeindefriedhof,bus,"52.57293803082037, 13.34166243791318",['61'],nan
441,1980441,Gemeindefriedhof,bus,"52.59833165955323, 13.215509615640908",['14E'],nan
442,1980442,Gemeindezentrum,bus,"52.59650422528956, 13.352130648813059",['62'],nan
443,1980443,Genfenbergstrasse,bus,"52.51750221401804, 13.197731492020262",['97'],nan
444,1980444,Genferstrasse,bus,"52.56900243790613, 13.356352056641578",['8'],nan
445,1980445,Genslerstrasse,bus,"52.53422697165157, 13.496979463218665","['54', '48']",nan
446,1980446,Genslerstrasse,strassenbahn,"52.5343884,13.4948777","['11', '12']",Q65640299
447,1980447,Gersdorfstrasse,bus,"52.4497135211621, 13.366843463731259",['33'],nan
448,1980448,Gesundbrunnen,s-bahn,"52.548611111111,13.389444444444","['KBS 153', 'KBS 152']",Q111239092
449,1980449,Gesundbrunnen,u-bahn,"52.548611,13.389444",['8'],Q3761416
450,1980450,Geygerstrasse,bus,"52.47976469123224, 13.444053924636787",['95'],nan
451,1980451,Giesensdorferstrasse,bus,"52.42400068709971, 13.31440991636864",['86'],nan
452,1980452,Gitschinerstrasse,bus,"52.49813710118797, 13.39367521589463",['41'],nan
453,1980453,Gitschinerstrasse,bus,"52.49835268572559, 13.395892294792292",['95'],nan
454,1980454,Gleisdreieck,u-bahn,"52.49952,13.37409",['1'],Q678372
455,1980455,Glienicke Gutshof,bus,"52.47526152065717, 13.120610836844609",['34'],nan
456,1980456,"Glienicke, Kirche",bus,"52.63062737184449, 13.312861916755343",['7'],nan
457,1980457,Glienicker Brücke,bus,"52.413474089031965, 13.091235881924467",['6'],nan
458,1980458,Glienicker Weg,bus,"52.42911840822696, 13.550747599297186",['23'],nan
459,1980459,Gliensteig,bus,"52.55955215458691, 13.177291674100829",['63'],nan
460,1980460,Gneisenaustrasse,u-bahn,"52.491388888889,13.395555555556",['7'],Q668618
461,1980461,Goebelplatz,bus,"52.53812718171093, 13.27991414794248",['23'],nan
462,1980462,Goebenstrasse,bus,"52.49352617261973, 13.366079955859773",['19'],nan
463,1980463,Goebenstrasse,bus,"52.49432104446879, 13.361075538452589","['84', '75', '48']",nan
464,1980464,Goerzallee,bus,"52.42198671722762, 13.298478688518832","['85', '53']",nan
465,1980465,Goethepark,strassenbahn,"52.470862,13.6885591",['S-Bhf. Friedrichshagen <> Alt-Rüdersdorf'],Q66564231
466,1980466,Goethestrasse,bus,"52.40437395250698, 13.406194791584095",['76E'],nan
467,1980467,Goethestrasse,strassenbahn,"52.4555753,13.7263905",['S-Bhf. Rahnsdorf <> Woltersdorfer Schleuse'],Q66980872
468,1980468,Gorkistrasse,bus,"52.59059426195262, 13.292011153010927",['20'],nan
469,1980469,Gotenstrasse,bus,"52.47544911672171, 13.359851155294415",['65'],nan
470,1980470,Gotthardstrasse,bus,"52.56628742362028, 13.339139315236876","['8', '64']",nan
471,1980471,Gottlieb-Dunkel-Strasse,bus,"52.46047500564911, 13.417979057824004",['25'],nan
472,1980472,Gotzkowskystrasse,bus,"52.527175382748375, 13.33054791755954",['23'],nan
473,1980473,Grabensprung,bus,"52.49796135202633, 13.55542240450611",['35'],nan
474,1980474,Gradestrasse,bus,"52.45253783133086, 13.4330277622881",['25'],nan
475,1980475,Grazer Platz,bus,"52.46714786852433, 13.344179308164394",['25'],nan
476,1980476,Greifswalderstrasse,bus,"52.530034573162204, 13.626829299933483",['44'],nan
477,1980477,Greifswalderstrasse,bus,"52.54129394662311, 13.438891154043352",['56'],nan
478,1980478,Greifswalderstrasse,s-bahn,"52.539722222222,13.439444444444","['KBS 141', 'KBS 140', 'KBS 142', 'KBS 143']",Q439246
479,1980479,Greifswalderstrasse,strassenbahn,"52.5364975,13.4334045","['13', '21', '4']",Q65548960
480,1980480,Greinerstrasse/Dederingstrasse,bus,"52.43670205861796, 13.37209191098168",['81'],nan
481,1980481,Grellstrasse,bus,"52.54566404757848, 13.427807153394088",['56'],nan
482,1980482,Grenadierstrasse,bus,"52.530981925368565, 13.205371761701368","['80', '31', '5']",nan
483,1980483,Grenzallee,bus,"52.47029008909428, 13.464648179097418",['65'],nan
484,1980484,Grenzallee,u-bahn,"52.463333333333,13.443888888889",['7'],Q571836
485,1980485,Grimmelshausenstrasse,bus,"52.45303649357869, 13.127161227036714",['35E'],nan
486,1980486,Grimmstrasse,bus,"52.398478487745884, 13.406451050741552",['76E'],nan
487,1980487,Grimmstrasse,bus,"52.49189559637106, 13.412879626389314",['95'],nan
488,1980488,Gritznerstrasse,bus,"52.46438146098689, 13.316483335491945",['33'],nan
489,1980489,Grottkauerstrasse,bus,"52.52747689361331, 13.606500303391726",['60'],nan
490,1980490,Groß-Glienicker Weg,bus,"52.48314168800522, 13.182649808839098","['34', '35', '34E']",nan
491,1980491,Groß-Ziethener-Ch.,bus,"52.410472559817045, 13.479414283129158",['57'],nan
492,1980492,Groß-Ziethener-Strasse,bus,"52.39430930301034, 13.411034857603847",['79'],nan
493,1980493,Großbeerenstrasse,bus,"52.49366889465351, 13.383531559754024",['19'],nan
494,1980494,Großbeerenstrasse,bus,"52.49899269436089, 13.385321352334506",['24'],nan
495,1980495,Großer Stern,bus,"52.51471344339627, 13.349987328429489","['16', '69']",nan
496,1980496,Grumbkowstrasse,bus,"52.59081479417949, 13.419895078886073",['33'],nan
497,1980497,Grunewald,s-bahn,"52.4892,13.2614",['KBS 156'],Q457266
498,1980498,Grunewald Fontanestrasse,bus,"52.48764743893716, 13.263943281681717",['17'],nan
499,1980499,Grunewald Roseneck,bus,"52.475832942010044, 13.282326941329416","['50', '19']",nan
500,1980500,"Grunewald, Roseneck",bus,"52.47580089902253, 13.282411270445099",['29'],nan
501,1980501,Grunewaldstrasse,bus,"52.48907804007202, 13.345000249198607",['85'],nan
502,1980502,Grätzwalde,strassenbahn,"52.4738933,13.7134019",['S-Bhf. Friedrichshagen <> Alt-Rüdersdorf'],Q66552987
503,1980503,Grünau,s-bahn,"52.4122,13.5746","['KBS 141', 'KBS 110']",Q324777
504,1980504,Grünbergallee,s-bahn,"52.3992,13.5416","['KBS 140', 'KBS 115']",Q5612896
505,1980505,Grünbergerstrasse,strassenbahn,"52.5122359,13.452609",['4'],Q65706239
506,1980506,Grüner Weg,bus,"52.42955863550208, 13.453590733350595","['41', '25']",nan
507,1980507,Grünhofer Weg,bus,"52.534302716812704, 13.18775030784576","['80', '31']",nan
508,1980508,Grünstrasse,strassenbahn,"52.44496772124069, 13.574134773392572","['26', '86', '84', '21', '85', '83']",nan
509,1980509,Gustav-Müller-Platz,bus,"52.483564682706586, 13.361433684488112",['84'],nan
510,1980510,Gutshof Marienfeld,bus,"52.408557224431995, 13.376664128444137",['52'],nan
511,1980511,Göllweg,bus,"52.419168041416384, 13.398459522103638",['76E'],nan
512,1980512,Görlitzer Bahnhof (Oranienstrasse),u-bahn,"52.4992,13.428",['1'],Q597759
513,1980513,Güntzelstrasse,bus,"52.49154575346882, 13.323206588873013",['60'],nan
514,1980514,Güntzelstrasse,u-bahn,"52.49194,13.33083",['9'],Q571563
515,1980515,Güterbahn Ruhleben,bus,"52.528463786145274, 13.221054867506954","['80', '31', '5', '35']",nan
516,1980516,Habichtstrasse/Strandbad,bus,"52.58584168347821, 13.2325834411171",['14E'],nan
517,1980517,Habichtswald,bus,"52.47956121753944, 13.142152412425958",['34E'],nan
518,1980518,Hackbuschstrasse,bus,"52.53959956967987, 13.150244533066292",['31'],nan
519,1980519,Hackerscher Markt,strassenbahn,"52.5238354,13.402603",['20'],Q65094590
520,1980520,Hackescher Markt,strassenbahn,"52.5238354,13.402603","['15', '24', '71', '63', '72', '49']",Q65094590
521,1980521,"Hackescher Markt""",strassenbahn,"52.5238354,13.402603",['28'],Q65094590
522,1980522,Hagenplatz,bus,"52.483382973651, 13.265818700272884",['17'],nan
523,1980523,Hakenfelde Aalemannufer,bus,"52.57317659817781, 13.217773260185606",['97'],nan
524,1980524,Halemweg,bus,"52.53821272416298, 13.286713503416276",['23'],nan
525,1980525,Halemweg,u-bahn,"52.536666666667,13.286388888889",['7'],Q571025
526,1980526,Hallesches Tor,u-bahn,"52.497777777778,13.391111111111","['1', '6']",Q658302
527,1980527,Halskestrasse,bus,"52.449975911659585, 13.34671540590703",['17'],nan
528,1980528,Hamburger Platz,bus,"52.555394187589414, 13.438973139463632","['45', '56']",nan
529,1980529,Hampsteadstrasse,bus,"52.43082935146337, 13.259259141051635",['1'],nan
530,1980530,Hans-Beimler-Strasse,bus,"52.52515376382797, 13.419905951093401",['32'],nan
531,1980531,Hans-Beimler-Strasse,strassenbahn,"52.5255473,13.4202755","['11', '63', '18']",Q65548984
532,1980532,Hans-Beimlerstrasse,strassenbahn,"52.5255473,13.4202755",['15'],Q65548984
533,1980533,Hansaplatz,u-bahn,"52.517777777778,13.342222222222",['9'],Q287552
534,1980534,Harburger Weg,bus,"52.53331049970506, 13.163165096763427","['80', '31']",nan
535,1980535,Hartlebenstrasse,strassenbahn,"52.4566822,13.6324878",['25'],Q66363202
536,1980536,Hartmannsweiler Weg,bus,"52.43871188132932, 13.248833836243495",['53'],nan
537,1980537,Haselhorster Damm,bus,"52.54707556922512, 13.236790392928848","['55', '13', '10']",nan
538,1980538,Haupthalle,bus,"52.55215743105169, 13.293862366303594","['9', '8']",nan
539,1980539,Hauptstrasse,bus,"52.48189961451138, 13.348451031942695",['4'],nan
540,1980540,Hauptstrasse,strassenbahn,"52.49911536933863, 13.480658310279543",['13'],nan
541,1980541,Hauptstrasse,strassenbahn,"52.50155559438059, 13.475250558286046",['21'],nan
542,1980542,Hausvogteiplatz,u-bahn,"52.513055555556,13.396666666667",['A'],Q656523
543,1980543,Havelblick,bus,"52.60198867886582, 13.210115307087476",['14E'],nan
544,1980544,"Havelhöhe, Krankenhaus",bus,"52.46269634246782, 13.158668657391756","['34', '35']",nan
545,1980545,Haydnstrasse,bus,"52.447125268727255, 13.315264231850549",['84'],nan
546,1980546,Heckerdamm,bus,"52.53962816572025, 13.295048454368684",['23'],nan
547,1980547,Heerstrasse,bus,"52.515448440041354, 13.184617989755766",['34'],nan
548,1980548,Heerstrasse,bus,"52.516681444146954, 13.179074894670572",['13'],nan
549,1980549,Heerstrasse Ecke Reimerweg,bus,"52.52185290480752, 13.154325747514633",['94'],nan
550,1980550,Heerstrasse/Stadtgrenze,bus,"52.52866541956905, 13.122497644636924",['97'],nan
551,1980551,Heidelberger Platz,u-bahn,"52.479808333333,13.313236111111",['2'],Q21777872
552,1980552,Heiligensee,s-bahn,"52.6247,13.2292",['KBS 153'],Q800475
553,1980553,Heiligenseestrasse,bus,"52.61129233483152, 13.217409582039851","['13', '14']",nan
554,1980554,Heiligenseestrasse/Gabelung,bus,"52.59986227773425, 13.251985191364742",['20'],nan
555,1980555,Heinersdorf,strassenbahn,"52.5725511,13.4371063",['71'],Q65096052
556,1980556,"Heinersdorf, Kirche",bus,"52.568251990817764, 13.440484539756532","['42', '31', '55']",nan
557,1980557,"Heinersdorf, Kirche",strassenbahn,"52.5686908,13.4389053",['71'],Q65096107
558,1980558,Heinrich-Mann-Platz,bus,"52.57297246262195, 13.392146133350426",['45'],nan
559,1980559,Heinrich-Mann-Strasse,bus,"52.57112932974108, 13.398022674909079",['55'],nan
560,1980560,Hellersdorf,bus,"52.53960892831625, 13.5919553649653",['95'],nan
561,1980561,Hennigsdorferstrasse,bus,"52.62645591553446, 13.227536420581599",['14'],nan
562,1980562,Henriettenplatz,bus,"52.49701780222877, 13.290339505649852","['29', '4', '19', '10', '69']",nan
563,1980563,Herbertstrasse/BSC-Sportplatz,bus,"52.48592765814362, 13.284252743983183",['10'],nan
564,1980564,Hermann-Duncker-Strasse,strassenbahn,"52.4789566,13.5234316","['21', '82']",Q65951921
565,1980565,Hermannplatz,bus,"52.48778872855567, 13.425393480017616","['95', '41', '75']",nan
566,1980566,Hermannplatz,u-bahn,"52.48629,13.42455","['8', '7']",Q658929
567,1980567,"Hermannplatz""",bus,"52.48778872855567, 13.425393480017616",['75'],nan
568,1980568,Hermannstrasse,bus,"52.46646251945033, 13.431890719360734",['65'],nan
569,1980569,Hermannstrasse/U-Bhf. Boddinstrasse,bus,"52.48013245590942, 13.425241582806905",['4'],nan
570,1980570,Hermsdorf,s-bahn,"52.6178,13.3069",['KBS 152'],Q263189
571,1980571,Hermsdorfer Damm,bus,"52.599883148643556, 13.281299020234579",['15'],nan
572,1980572,Hermsdorfer Damm,bus,"52.622436342455615, 13.312864109919186","['12', '12E']",nan
573,1980573,Hermsdorfer Friedhof,bus,"52.62649354690516, 13.290747444282744",['15'],nan
574,1980574,Hermsdorferstrasse,bus,"52.59361417204346, 13.321244588114943","['12', '14']",nan
575,1980575,Hermsdorferstrasse,bus,"52.604616135087134, 13.326600468324967",['22'],nan
576,1980576,Hertzbergplatz,bus,"52.477487105395774, 13.448598156816837",['95'],nan
577,1980577,Herzbergstrasse,bus,"52.52658888540259, 13.490778333520318",['30'],nan
578,1980578,Herzbergstrasse,strassenbahn,"52.52657851285749, 13.490537826697876","['15', '20', '17']",Q65685127
579,1980579,Herzbergstrasse,strassenbahn,"52.52668864635021, 13.479824769123358","['12', '3', '29']",
580,1980580,Hessenwinkel,bus,"52.430136769038455, 13.730987779637607",['61'],nan
581,1980581,Heubnerweg,bus,"52.52334631976074, 13.288644133285885",['87'],nan
582,1980582,Hildburghauserstrasse,bus,"52.4125084179002, 13.361394552947699",['30'],nan
583,1980583,Hildburghauserstrasse,bus,"52.41593912926577, 13.341726815502268","['11', '2']",nan
584,1980584,Hildegardstrasse,bus,"52.48185906011362, 13.320391438761659",['1'],nan
585,1980585,Hindenburgdamm,bus,"52.43138305228653, 13.309681949641572",['84'],nan
586,1980586,Hindenburgdamm,bus,"52.45352507850236, 13.315671490206539",['88'],nan
587,1980587,Hindenburgdamm/Wiesenbaude,bus,"52.430495242672045, 13.31180861060395",['11'],nan
588,1980588,Hirschgarten,s-bahn,"52.4579,13.6032",['KBS 105'],Q4892435
589,1980589,Hirschgarten,strassenbahn,"52.4518533,13.6006245","['84', '25']",Q66360740
590,1980590,Hirtestrasse,strassenbahn,"52.46228517510202, 13.582989445330378",['86'],nan
591,1980591,Ho-Chi-Minh-Strasse,bus,"52.5330704220753, 13.4761025820549","['54', '48']",nan
592,1980592,Ho-Chi-Minh-Strasse,strassenbahn,"52.52667662778445, 13.479846111733366","['19', '18', '15']",nan
593,1980593,Ho-Chi-Minh-Strasse,strassenbahn,"52.53614337349791, 13.473491168269483","['12', '11', '20', '63']",nan
594,1980594,Hochmeisterplatz,bus,"52.49468637986547, 13.301254684721862",['4'],nan
595,1980595,Hochschule für Ökonomie,strassenbahn,"52.4927681,13.5266059","['19', '17']",Q65952866
596,1980596,Hoeppnerstrasse,bus,"52.47246448756941, 13.377940520811295",['96'],nan
597,1980597,Hoevelstrasse,bus,"52.44352585442774, 13.502982371335742",['62'],nan
598,1980598,Hohefeldstrasse,bus,"52.626267554133165, 13.29937720159586",['12E'],nan
599,1980599,Hohen Neuendorf (b Bln),s-bahn,"52.6684,13.287",['KBS 140'],Q4500489
600,1980600,"Hohenschönhausen, Chemie-Handel",bus,"52.54635511419105, 13.519416309000189",['48'],nan
601,1980601,"Hohenschönhausen, Degnerstrasse",bus,"52.54984208715898, 13.49807918181441",['53'],nan
602,1980602,"Hohenschönhausen, Falkenbergerstrasse",strassenbahn,"52.5508672,13.5094994",['70'],Q65555882
603,1980603,"Hohenschönhausen, Gartenstadt",strassenbahn,"52.5508672,13.5094994",['63'],Q65555882
604,1980604,Hohenschönhauserstrasse,strassenbahn,"52.5359329,13.4729468","['29', '20', '3']",Q65553684
605,1980605,Hohenstaufenstrasse,bus,"52.49444389446449, 13.345941313199432",['85'],nan
606,1980606,Hohenzollerndamm,bus,"52.476835205459196, 13.28097752710442","['65', '50']",nan
607,1980607,Hohenzollernplatz,u-bahn,"52.493888888889,13.325",['2'],Q571570
608,1980608,Hohenzollernring,bus,"52.55569430282622, 13.207589665448262","['55', '97', '56', '54']",nan
609,1980609,Holländerstrasse,bus,"52.565215912186005, 13.335535213908962","['8', '12', '12E']",nan
610,1980610,Holländerstrasse/Friedhöfe,bus,"52.56208059904821, 13.35153256635908",['64'],nan
611,1980611,Holteistrasse,bus,"52.50859353995203, 13.466288145839554",['30'],nan
612,1980612,Holteistrasse,strassenbahn,"52.5088235,13.465969","['13', '21']",Q65675805
613,1980613,Holzhauserstrasse,bus,"52.587596015660594, 13.323924613516958",['15'],nan
614,1980614,Holzhauserstrasse,u-bahn,"52.575833333333,13.296111111111",['6'],Q557566
615,1980615,Hoppegarten (Mark),s-bahn,"52.5183,13.6734",['KBS 100'],Q15197357
616,1980616,Hotel,bus,"52.386411754827485, 13.510058655526867",['361'],nan
617,1980617,Hranitzkystrasse,bus,"52.42251302643871, 13.370742695013","['11', '32']",nan
618,1980618,Hultschiner Damm,bus,"52.47711373957008, 13.600598140620137",['8'],nan
619,1980619,Humannplatz,strassenbahn,"52.5493627,13.4213646",['70'],Q65962652
620,1980620,Humboldt-Krankenhaus,bus,"52.57241175917693, 13.347438523711851",['64'],nan
621,1980621,Humboldthain,s-bahn,"52.5451,13.3796","['KBS 153', 'KBS 152']",Q481276
622,1980622,Hundekehlestrasse,bus,"52.47548162130776, 13.290308772196097",['10'],nan
623,1980623,Hutten-/Turmstrasse,bus,"52.52739659116741, 13.328686515745709",['23'],nan
624,1980624,Huttenstrasse,bus,"52.52743600724727, 13.328636640111993",['24'],nan
625,1980625,Huttenstrasse/Turmstrasse,bus,"52.52742057228689, 13.328649305337452",['89'],nan
626,1980626,Händelplatz,bus,"52.449992542295014, 13.315419307645962","['85', '84']",nan
627,1980627,Hänselstrasse,bus,"52.47002488925071, 13.480826366857992",['67'],nan
628,1980628,"Hönow, Dorf",bus,"52.54518016764201, 13.638723222029224",['44'],nan
629,1980629,"Hönow, Nord",bus,"52.55708326027787, 13.633254033658826",['44'],nan
630,1980630,Hönower Wiesenweg,strassenbahn,"52.484276289226976, 13.505820970561828","['13', '21', '82']",nan
631,1980631,Hüttenweg,bus,"52.45351715177107, 13.272228537845908",['60'],nan
632,1980632,Hüttigpfad,bus,"52.53962429902484, 13.326765783829195",['23'],nan
633,1980633,ICC/Ausstellungshallen,bus,"52.50459502336341, 13.279503842419016","['69', '4']",nan
634,1980634,ICC/Omnibusbahnhof,bus,"52.50658970412032, 13.279680093135237","['65', '94', '10', '4']",nan
635,1980635,IFA-Vertrieb,bus,"52.50272647424267, 13.505857698408706",['96'],nan
636,1980636,Illigstrasse,bus,"52.39764788718754, 13.385139222911588",['30'],nan
637,1980637,Ilsenburgerstrasse,bus,"52.525749229554776, 13.30988310299495",['89'],nan
638,1980638,Im Fischgrund,bus,"52.62965843509205, 13.294335908368284",['12E'],nan
639,1980639,Indischestrasse,bus,"52.55400429683892, 13.35885680761456",['89'],nan
640,1980640,Innsbrucker Platz,bus,"52.478545508234895, 13.34405868604117",['65'],nan
641,1980641,Innsbrucker Platz (Hauptstrasse),u-bahn,"52.4786,13.3439",['4'],Q10275871
642,1980642,Institut für Lehrerbildung,strassenbahn,"52.451002710524044, 13.571970685250104","['26', '19', '21', '85', '25', '82']",nan
643,1980643,Invalidenstrasse,bus,"52.53056312073795, 13.383072771001865",['57'],nan
644,1980644,Isoldestrasse,bus,"52.419265807632776, 13.18907469","['E', '18']",nan
645,1980645,Jacques-Duclos-Strasse,bus,"52.52044449240082, 13.47956421096199",['30'],nan
646,1980646,Jaczostrasse,bus,"52.51421725408393, 13.191015928298432","['97', '34']",nan
647,1980647,Jafféstrasse/Deutschlandhalle,bus,"52.49962817740136, 13.26898769147191",['69'],nan
648,1980648,Jakob-Kaiser-Platz,bus,"52.536739701449115, 13.293604878938678","['55', '99', '62', '23', '9', '65', '21']",nan
649,1980649,Jakob-Kaiser-Platz,u-bahn,"52.53633333333333,13.29336111111111",['7'],Q638526
650,1980650,Jannowitzbrücke,s-bahn,"52.514822222222,13.41795","['KBS 105', 'KBS 115', 'KBS 100', 'KBS 143', 'KBS 110']",Q27955427
651,1980651,Jansenstrasse,bus,"52.584686526680464, 13.334842370084557",['14'],nan
652,1980652,Jebensstrasse/Amerikahaus,bus,"52.50679676645561, 13.331137587984307","['23', '54']",nan
653,1980653,Jerusalemerstrasse,bus,"52.51087934454085, 13.395833696965838",['32'],nan
654,1980654,Joachim-Friedrich-Strasse,bus,"52.49795053611048, 13.296208849846598","['69', '29', '4']",nan
655,1980655,Joachim-Friedrich-Strasse,bus,"52.49798639251364, 13.2962135822083",['19'],nan
656,1980656,Joachimstalerstrasse,bus,"52.50045539818131, 13.33076056527222",['69'],nan
657,1980657,Joachimstalerstrasse,bus,"52.504602554405665, 13.33142131035668",['94'],nan
658,1980658,Johannes-Diekmann-Strasse,bus,"52.63183664861537, 13.33891637728793",['7'],nan
659,1980659,"Johannisthal, Haeckelstrasse",strassenbahn,"52.44039533652145, 13.505590429052203","['85', '17']",nan
660,1980660,Johannisthaler Ch. (Gropiusstadt),u-bahn,"52.429166666667,13.453333333333",['7'],Q638553
661,1980661,Johannisthaler Chaussee,bus,"52.45136033294721, 13.488299619950027",['47'],nan
662,1980662,Johanniterstrasse,bus,"52.4964129290161, 13.398664078305833",['95'],nan
663,1980663,John-F-Kennedy-Platz,bus,"52.484744961721695, 13.345157012411544",['4'],nan
664,1980664,John-F.-Kennedy-Platz,bus,"52.484744961721695, 13.345157012411544",['16'],nan
665,1980665,John-Locke-Strasse,bus,"52.392595230763796, 13.398057966921561",['76E'],nan
666,1980666,John-Schehr-Strasse,bus,"52.53535918214356, 13.43910011271603",['9'],nan
667,1980667,Jugenderholungsheim,bus,"52.42617111269117, 13.161450253323418",['3'],nan
668,1980668,Jungfernheide,u-bahn,"52.5307879,13.3006301",['7'],Q19951075
669,1980669,Jungfernstieg,bus,"52.42812725440389, 13.325285480034943",['17'],nan
670,1980670,Jägerstrasse,bus,"52.48596831477271, 13.574167191759361","['8', '27']",nan
671,1980671,Jägerstrasse,strassenbahn,"52.4727253,13.7302613",['S-Bhf. Friedrichshagen <> Alt-Rüdersdorf'],Q66551064
672,1980672,Kadettenweg,bus,"52.432433042743625, 13.299187162075915",['84'],nan
673,1980673,Kaiser-Friedrich-Strasse,bus,"52.50678666128108, 13.302343266081147",['94'],nan
674,1980674,Kaiser-Wilhelm-Platz,bus,"52.486329247981715, 13.35655627172785","['84', '75', '48']",nan
675,1980675,Kaiser-Wilhem-Platz,bus,"52.48689920021619, 13.357074173349613",['4'],nan
676,1980676,Kaiserdamm,u-bahn,"52.51,13.2822",['1'],Q656409
677,1980677,Kaisereiche,bus,"52.46896806014468, 13.332614886077709","['85', '75', '25'], ['48']","nan, nan"
678,1980678,Kaisereiche/Schmiljanstrasse,bus,"52.469010135703016, 13.33250958104903",['17'],nan
679,1980679,Kaiserin-Augusta-Allee,bus,"52.52572924294773, 13.306185767937748",['89'],nan
680,1980680,Kaiserin-Augusta-Strasse,u-bahn,"52.460152777778,13.384577777778",['6'],Q559226
681,1980681,Kalkbergerstrasse,strassenbahn,"52.4722942,13.7377538",['S-Bhf. Friedrichshagen <> Alt-Rüdersdorf'],Q66551067
682,1980682,Kanalbrücke,strassenbahn,"52.42565024524898, 13.545298469936332",['84'],nan
683,1980683,Kantstrasse,bus,"52.50531853853559, 13.331554843104856","['60', '9', '69']",nan
684,1980684,Kantstrasse,bus,"52.50629342560052, 13.313913567555115",['1'],nan
685,1980685,Kantstrasse,bus,"52.50678948797454, 13.296163386390713",['21'],nan
686,1980686,Karl Marx-Allee,bus,"52.51796623612338, 13.432923587088723",['32'],nan
687,1980687,Karl-Bonhoeffer-Nervenklinik,bus,"52.57804915259495, 13.332858932266909","['62', '14']",nan
688,1980688,Karl-Elsasser-Strasse,bus,"52.457913831157164, 13.424894305630426",['25'],nan
689,1980689,Karl-Kunger-Strasse,bus,"52.491648564897346, 13.44665797007497",['64'],nan
690,1980690,Karl-Liebknecht-Strasse,bus,"52.52700439922152, 13.415594245385797",['57'],nan
691,1980691,Karl-Maron-Strasse,s-bahn,"52.53556,13.53556",['KBS 101'],Q2180548
692,1980692,Karl-Marx-Allee,bus,"52.51831920404112, 13.430003655626638",['40'],nan
693,1980693,Karl-Marx-Strasse,u-bahn,"52.476111111111,13.439166666667",['7'],Q519494
694,1980694,Karlshorst,s-bahn,"52.4808,13.5258",['KBS 105'],Q111327045
695,1980695,Karolinenhof-Mitte,strassenbahn,"52.39149046222949, 13.634827621551574",['86'],nan
696,1980696,Karolinenstrasse,bus,"52.597959693433545, 13.275023334530093","['13', '20']",nan
697,1980697,Karow,s-bahn,"52.615,13.4692","['KBS 141', 'KBS 143']",Q800480
698,1980698,Karowerstrasse,bus,"52.63349334589059, 13.498857770767476","['42', '31']",nan
699,1980699,Karwendelstrasse,bus,"52.43340354690581, 13.3072909155276",['84'],nan
700,1980700,Kaserne Napoleon,bus,"52.561238739799634, 13.32543368870084",['62'],nan
701,1980701,Kaserne Südtor,bus,"52.55685969560147, 13.3084342409763","['8', '62', '21']",nan
702,1980702,Katzbach-/Boelckestrasse,bus,"52.485085800545285, 13.37658958301417",['4'],nan
703,1980703,Kaulsdorf,s-bahn,"52.5121,13.5904",['KBS 100'],Q800478
704,1980704,Kaulsdorferstrasse,bus,"52.46039451596403, 13.579989999006296",['68'],nan
705,1980705,Kettingerstrasse,bus,"52.413417179153015, 13.396063625312399",['52'],nan
706,1980706,Kielerstrasse,bus,"52.45900263211566, 13.322779054057017",['17'],nan
707,1980707,Kienitzerstrasse,bus,"52.476105470646026, 13.426835505238055",['4'],nan
708,1980708,"Kinderkrankenhaus Lindenhof""",bus,"52.51187975743517, 13.4931404241461",['93'],nan
709,1980709,Kirchstrasse,bus,"52.47415366087044, 13.294490182531689",['60'],nan
710,1980710,Kisselnallee,bus,"52.55649278406277, 13.188691953356178",['63'],nan
711,1980711,Kissingenstrasse,bus,"52.56794246263401, 13.427626602915375",['52'],nan
712,1980712,Kladow,bus,"52.45156751539905, 13.147837826277277",['35E'],nan
713,1980713,Kladow Hottengrund,bus,"52.44607416847932, 13.126300435760513",['35'],nan
714,1980714,"Kladow, Ritterfelddamm",bus,"52.45434181256702, 13.144364323200607",['34'],nan
715,1980715,Klausenerplatz,bus,"52.51920997381545, 13.291921994814121","['87', '54']",nan
716,1980716,Klausthalerstrasse,strassenbahn,"52.57550501916806, 13.421414928652002",['49'],nan
717,1980717,Kleistpark,u-bahn,"52.490555555556,13.360277777778",['7'],Q571161
718,1980718,Klement-Gottwald-Allee,bus,"52.55009811835956, 13.459044786589162","['45', '55']",nan
719,1980719,Klement-Gottwald-Allee,strassenbahn,"52.553895463463604, 13.467472780449688","['70', '29']",nan
720,1980720,Klement-Gottwald-Strasse,strassenbahn,"52.55195794348502, 13.465463416078652",['20'],nan
721,1980721,Klingsorstrasse,bus,"52.45309021884074, 13.33121103955973","['32', '88', '86', '84', '17', '30', '33']",nan
722,1980722,Klinikum Steglitz,bus,"52.44415720118784, 13.321367176792748",['88'],nan
723,1980723,Klinikum Westend,bus,"52.5186331579093, 13.276978139965799",['54'],nan
724,1980724,"Kloster ""Zum guten Hirten""",bus,"52.41554832810355, 13.361688446214297",['32'],nan
725,1980725,Kloster-Zinna-Strasse,bus,"52.4026890932609, 13.412748029411977",['79'],nan
726,1980726,Klosterstrasse,bus,"52.53290008602445, 13.198388225941354","['80', '31']",nan
727,1980727,Klosterstrasse,u-bahn,"52.516111111111,13.412222222222",['A'],Q657893
728,1980728,Kluckstrasse,bus,"52.505469929566765, 13.362407164396801",['29'],nan
729,1980729,Klärwerkstrasse,bus,"52.52762712571129, 13.232570614119659",['56'],nan
730,1980730,Knaackstrasse,strassenbahn,"52.5334285,13.4208487","['71', '20', '72']",Q65225141
731,1980731,Knesebeckstrasse,bus,"52.428912094809505, 13.267664971836647",['53'],nan
732,1980732,Kniprodeallee,strassenbahn,"52.55328910288231, 13.479535430290078",['70'],nan
733,1980733,Kochstrasse,u-bahn,"52.505897222222,13.390611111111",['6'],Q201849
734,1980734,Koenigsallee/Hagenplatz,bus,"52.483388672241965, 13.265817428647791",['19'],nan
735,1980735,Kohlhasenbrück,bus,"52.399386850068794, 13.141401147548066",['18'],nan
736,1980736,Kollostrasse,bus,"52.447619832052744, 13.392134381284215",['33'],nan
737,1980737,Kolonie Hasenheide,bus,"52.523483453205884, 13.18426784659892",['13'],nan
738,1980738,Kolonie Waldfrieden,bus,"52.56289979723415, 13.165640324141387",['63'],nan
739,1980739,Koloniestrasse,bus,"52.556442893073715, 13.37759581883847","['61', '89']",nan
740,1980740,Kolonnenstrasse,bus,"52.48620930513327, 13.360839456594093",['84'],nan
741,1980741,Kongreßhalle,bus,"52.51763253396976, 13.363196975404886",['69'],nan
742,1980742,Konradshöherstrasse,bus,"52.59991005182659, 13.252027971230675",['13'],nan
743,1980743,Konstanzerstrasse,u-bahn,"52.494166666667,13.309722222222",['7'],Q571019
744,1980744,Kormoranweg,bus,"52.437654867207655, 13.456577084623888",['25'],nan
745,1980745,Kosleckweg,bus,"52.44733571636485, 13.39571835610992",['33'],nan
746,1980746,Kottbusser Damm (Schönleinstrasse),u-bahn,"52.493055555556,13.421944444444",['8'],Q666868
747,1980747,Kottbusser Tor,u-bahn,"52.499166666667,13.418055555556","['1', '8']",Q819768
748,1980748,Kraftwerk Klingenberg,bus,"52.4881374,13.4958685",['96'],nan
749,1980749,Kraftwerk Klingenberg,strassenbahn,"52.4881374,13.4958685","['13', '21', '82']",Q66079524
750,1980750,Krahmerstrasse,bus,"52.43794764888544, 13.31545324667399",['84'],nan
751,1980751,Krampnitzer Weg,bus,"52.45227343259078, 13.13842230425098","['35', '35E']",nan
752,1980752,Krankenhaus,strassenbahn,"52.4473014,13.761517",['S-Bhf. Rahnsdorf <> Woltersdorfer Schleuse'],Q66977234
753,1980753,Krankenhaus Köpenick,bus,"52.4388396,13.5920763",['27'],nan
754,1980754,Krankenhaus Moabit,bus,"52.52631363859675, 13.347762408358612","['24', '70']",nan
755,1980755,Krankenhaus Oskar-Helene-Heim,bus,"52.4491965892725, 13.2695820679902","['60', '18']",nan
756,1980756,Krankenhaus Tegel-Süd,bus,"52.57573397877684, 13.278749331662",['13'],nan
757,1980757,Kranoldplatz,bus,"52.427774762936416, 13.326473583049795","['11', '53', '96', '17']",nan
758,1980758,Krematorium,bus,"52.46067580978568, 13.494054512249367",['67'],nan
759,1980759,Krematorium Ruhleben,bus,"52.52776167394749, 13.231812082714828","['80', '35', '54', '5', '31', '56']",nan
760,1980760,Kreuzbergstrasse,bus,"52.48940663862394, 13.376689964763667",['28'],nan
761,1980761,Kronprinzessinenweg,bus,"52.41996044157457, 13.17530987707389",['18'],nan
762,1980762,Krottnaurerstrasse,bus,"52.434048198019276, 13.206642741771725",['53'],nan
763,1980763,Krumme Lanke,u-bahn,"52.443333333333,13.241388888889",['2'],Q663945
764,1980764,Kröverstrasse,bus,"52.51971182588689, 13.530856945332832",['53'],nan
765,1980765,Krüllsstrasse,bus,"52.492630497557684, 13.448240154824834","['65', '66', '64']",nan
766,1980766,Kulturhaus,strassenbahn,"52.47210371967514, 13.77858363359214",['S-Bhf. Friedrichshagen <> Alt-Rüdersdorf'],nan
767,1980767,Kuno-Fischer-Strasse,bus,"52.506627368592966, 13.289283045690706",['94'],nan
768,1980768,Kurfürstendamm,bus,"52.498023305214666, 13.296217571157966","['21', '1', '10']",nan
769,1980769,Kurfürstendamm (Joachimstalerstrasse),u-bahn,"52.504166666667,13.332777777778","['9', '3']",Q663933
770,1980770,Kurfürstendamm/Rathenauplatz,bus,"52.49485378033746, 13.28551741139731",['4'],nan
771,1980771,Kurfürstendamm/Rathenauplatz,bus,"52.49497561622804, 13.28570891177715","['19', '29']",nan
772,1980772,Kurfürstenstrasse,bus,"52.445643034300396, 13.36805209564975",['33'],nan
773,1980773,Kurfürstenstrasse,bus,"52.503162309862205, 13.349890336949962",['29'],nan
774,1980774,Kurfürstenstrasse,u-bahn,"52.5,13.361944",['1'],Q690203
775,1980775,Kurt-Fischer-Platz,bus,"52.57973292845757, 13.398330728468228",['33'],nan
776,1980776,Kurt-Fischer-Platz,strassenbahn,"52.578668,13.3983016",['22'],Q65032974
777,1980777,Kurt-Fischer-Strasse,bus,"52.579791905153954, 13.398288330120595","['50', '7']",nan
778,1980778,Kurt-Fischer-Strasse,strassenbahn,"52.57972262368477, 13.398329593785958",['46'],nan
779,1980779,Kurt-Schumacher-Platz,bus,"52.563438249109005, 13.32713028618972",['61'],nan
780,1980780,Kurt-Schumacher-Platz,u-bahn,"52.563555555556,13.326572222222",['6'],Q555916
781,1980781,Kölner Damm,bus,"52.427057948053516, 13.447031128873432",['52'],nan
782,1980782,Königen-Luise-Strasse,bus,"52.460424025034314, 13.274838703500087",['60'],nan
783,1980783,Königen-Luise-Strasse/Museum Dahlem,bus,"52.4580469214445, 13.291771531599098",['10'],nan
784,1980784,Königin-Elisabeth-Strasse,bus,"52.51841060617521, 13.280216309480307",['54'],nan
785,1980785,Königin-Luise-Strasse,bus,"52.460437412108, 13.274873746874988",['1'],nan
786,1980786,Königs Wusterhausen,s-bahn,"52.2966,13.6311",['KBS 110'],Q178002
787,1980787,Königsbergerstrasse,bus,"52.430805437088516, 13.317511969726693","['17', '86']",nan
788,1980788,Königstrasse,bus,"52.41987226002477, 13.175332944592043","['6', '3']",nan
789,1980789,Königsweg,bus,"52.396218398039885, 13.139697309847662",['18'],nan
790,1980790,Köpenick,s-bahn,"52.4586,13.5808",['KBS 105'],Q800479
791,1980791,"Köpenick, Krankenhaus",strassenbahn,"52.4388396,13.5920763","['26', '19', '21']",Q66091900
792,1980792,"Köpenick, Straßenbahn-Betriebshof",strassenbahn,"52.439913, 13.581782",[ '85'],Q66370900
793,1980793,Köpenickerstrasse,bus,"52.42382702942483, 13.514468139477932",['57'],nan
794,1980794,Köpenickerstrasse,bus,"52.48661965394429, 13.560355132284862",['8'],nan
795,1980795,Köpenickerstrasse,bus,"52.50575979044679, 13.431993324280384",['28'],nan
796,1980796,Körtingstrasse,bus,"52.43435461971694, 13.389910428550607","['79', '76E', '7']",nan
797,1980797,Kühnemannstrasse,bus,"52.56754367117252, 13.384454851230698",['61'],nan
798,1980798,Kürfürstendamm/U-Bhf. Uhlandstrasse,bus,"52.50268554582132, 13.32607295",['60'],nan
799,1980799,LPG Edwin-Hoernle,bus,"52.540375787223944, 13.574171908812394",['95'],nan
800,1980800,Landeckerstrasse,bus,"52.48429939508389, 13.29377529639171",['50'],nan
801,1980801,Landgericht,bus,"52.52708325416579, 13.297171132317839","['62', '21']",nan
802,1980802,Landgrafenstrasse,bus,"52.503589100436095, 13.348048032852889",['9'],nan
803,1980803,Landshuterstrasse,bus,"52.49435308536897, 13.338553316209746",['50'],nan
804,1980804,Lange Enden,bus,"52.59788544584239, 13.323456122333635",['12E'],nan
805,1980805,Lankwitz,s-bahn,"52.4386,13.3417",['KBS 153'],Q800481
806,1980806,"Lankwitz, Kirche",bus,"52.43629186979271, 13.345745387354132","['30', '2', '81', '32']",nan
807,1980807,Lankwitz/Kirche,bus,"52.43629186979271, 13.345745387354132",['96'],nan
808,1980808,Laubacherstrasse,bus,"52.47201606834429, 13.320113377363734",['1'],nan
809,1980809,Laubacherstrasse/Südwestkorso,bus,"52.47195118228527, 13.320063935630069",['17'],nan
810,1980810,Lauenburger Platz,bus,"52.461985842386426, 13.33927388252173",['2'],nan
811,1980811,Lehniner Platz,bus,"52.499065552958605, 13.301876906899123","['19', '29', '69']",nan
812,1980812,Lehnitz,s-bahn,"52.7411,13.2635",['KBS 140'],Q4258498
813,1980813,Lehrter Stadtbahnhof,s-bahn,"52.5253,13.3694",['KBS 156'],Q821299
814,1980814,Lehrterstrasse,bus,"52.53599832247221, 13.357457663763338",['70'],nan
815,1980815,Leibnizstrasse,bus,"52.50628030580801, 13.313846889129698",['94'],nan
816,1980816,Leibnizstrasse,bus,"52.51466443411573, 13.31517207133642","['62', '54']",nan
817,1980817,Leinestrasse,u-bahn,"52.472777777778,13.428333333333",['8'],Q668563
818,1980818,Lemkestrasse,bus,"52.52803431385439, 13.640891542971353",['95'],nan
819,1980819,Leninallee,bus,"52.526413499256655, 13.447596483801878",['30'],nan
820,1980820,Leninallee,bus,"52.528513273942636, 13.455602547861579","['48', '56']",nan
821,1980821,Leninallee,bus,"52.535446575049626, 13.517340973967386","['54', '53']",nan
822,1980822,Leninallee,s-bahn,"52.5295,13.4548","['KBS 141', 'KBS 140', 'KBS 142', 'KBS 143']",Q800507
823,1980823,Leninallee,strassenbahn,"52.525934, 13.446237","['29', '13', '4', '21', '3']",Q65553230
824,1980824,Leninallee,strassenbahn,"52.5342654901113, 13.499735220510763","['12', '20']",
825,1980825,Leninplatz,bus,"52.523238998562235, 13.433594583798834","['32', '40']",nan
826,1980826,Leninplatz,strassenbahn,"52.5232658,13.4326457","['11', '63', '18', '15']",Q65553105
827,1980827,Leonorenstrasse,bus,"52.444381199385, 13.33882940089604","['2', '32', '81', '17', '30']",nan
828,1980828,Leopoldplatz,u-bahn,"52.5465,13.3591","['9', '6']",Q1960809
829,1980829,Lepsiusstrasse,bus,"52.45883023513571, 13.315599065479873",['33'],nan
830,1980830,Lerchenstrasse,strassenbahn,"52.4551497,13.7346091",['S-Bhf. Rahnsdorf <> Woltersdorfer Schleuse'],Q66980682
831,1980831,Lessingstrasse,bus,"52.630124127827905, 13.324619353754857",['7'],nan
832,1980832,Letterhausweg,bus,"52.533846830742036, 13.282382973072956",['55'],nan
833,1980833,Lichtenberg,s-bahn,"52.5106,13.4964","['KBS 100', 'KBS 101']",Q634247
834,1980834,Lichtenberg,u-bahn,"52.510556,13.496389",['E'],Q3831986
835,1980835,Lichtenbergerstrasse,bus,"52.55201389869538, 13.465510273260444",['45'],nan
836,1980836,Lichtenbergerstrasse,strassenbahn,"52.55197635719565, 13.46542571350509","['29', '3', '28', '24', '72']",nan
837,1980837,Lichtenrade,s-bahn,"52.3876,13.3963",['KBS 152'],Q6543354
838,1980838,Lichtenrade Bahnhofstrasse,bus,"52.3867046346346, 13.398964037969304",['76E'],nan
839,1980839,Lichtenrade Nahariyastrasse,bus,"52.390905734162054, 13.420120614791225","['30', '79']",nan
840,1980840,"Lichtenrade, Motzenerstrasse Egestorffstrasse",bus,"52.397056194981474, 13.381951090295289",['7'],nan
841,1980841,Lichtenrader Damm,bus,"52.393805320139066, 13.40657978488946",['30'],nan
842,1980842,Lichtenrader Damm,bus,"52.41458831804119, 13.401103393220856",['52'],nan
843,1980843,Lichterfelde Celsiusstrasse,bus,"52.41098575666027, 13.313902903101019",['17'],nan
844,1980844,Lichterfelde Lindenstrasse,bus,"52.41743685100159, 13.30709848481492",['96'],nan
845,1980845,Lichterfelde Oberhofer Platz,bus,"52.42437116438735, 13.328537172318486",['53'],nan
846,1980846,Lichterfelde Ost,s-bahn,"52.43,13.3289",['KBS 153'],Q111311299
847,1980847,Lichterfelde Ringstrasse Ecke Weißwasserweg,bus,"52.43427707263818, 13.287482459511958",['84'],nan
848,1980848,Lichterfelde Süd,s-bahn,"52.41,13.3086",['KBS 153'],Q800482
849,1980849,"Lichterfelde, Augustaplatz",bus,"52.44282022035038, 13.307558371101395",['88'],nan
850,1980850,"Lichterfelde, Celsiusstrasse",bus,"52.41098575666027, 13.313902903101019",['86'],nan
851,1980851,"Lichterfelde, Lindenstrasse",bus,"52.41743685100159, 13.30709848481492",['1'],nan
852,1980852,Lichterfelde-Süd Holtheimer Weg,bus,"52.41087205086604, 13.308542569395431",['85'],nan
853,1980853,Liebenowzeile,bus,"52.44959401900869, 13.350314742873758",['33'],nan
854,1980854,Lietzenburgerstrasse,bus,"52.500036637804904, 13.324979685600955",['60'],nan
855,1980855,Limburgerstrasse/Rathaus Wedding,bus,"52.54764196087032, 13.356976014131277",['12'],nan
856,1980856,Lincolnstrasse,bus,"52.50195493156404, 13.501966501173017",['35'],nan
857,1980857,Lindauer Allee,bus,"52.57334802277765, 13.359040591457603","['61', '22']",nan
858,1980858,Lindauer Allee,bus,"52.574335407377994, 13.347700749322442","['64', '12E']",nan
859,1980859,Lindauer Allee,bus,"52.57549365102426, 13.332135425222242",['62'],nan
860,1980860,"Lindenberg, Dorf",bus,"52.6015597722132, 13.519994727338524",['41'],nan
861,1980861,Lindenbergerstrasse,bus,"52.57864776861949, 13.519735112537226",['39'],nan
862,1980862,Lindenhof,bus,"52.51435755445049, 13.494402668061875",['93'],nan
863,1980863,Lindenstrasse,bus,"52.451059713443286, 13.572037270188614","['27', '68']",nan
864,1980864,Lindenstrasse,bus,"52.50713873269906, 13.398181403107595","['75', '29', '41']",nan
865,1980865,Lindenstrasse,strassenbahn,"52.4505094,13.572684","['83', '84', '86']",Q66095701
866,1980866,Lindenthaler Allee,bus,"52.4309981351436, 13.229972774586468",['18'],nan
867,1980867,Lindhorstweg,bus,"52.44148583643127, 13.50065005792854",['66'],nan
868,1980868,Lipschitzallee,bus,"52.4277242476257, 13.468166434383097","['41', '52']",nan
869,1980869,Lipschitzallee,u-bahn,"52.424722222222,13.462777777778",['7'],Q571467
870,1980870,Lise-Meitner-Strasse,bus,"52.52885545235759, 13.306508738385604",['99'],nan
871,1980871,Lockenhuhnweg,bus,"52.40835025793381, 13.492393883386987",['57'],nan
872,1980872,Loewenhardtdamm,bus,"52.48165790097863, 13.374453287679744",['28'],nan
873,1980873,Loewensteinring,bus,"52.42954825047276, 13.465097915399532",['52'],nan
874,1980874,Londonerstrasse,bus,"52.558779724538674, 13.337294817182801",['64'],nan
875,1980875,Lortzingstrasse,bus,"52.543712007450516, 13.39685402984568",['61'],nan
876,1980876,Louise-Schroeder-Platz,bus,"52.55713317342601, 13.365513694540711",['89'],nan
877,1980877,Louise-Schroeder-Siedlung,bus,"52.53290899308701, 13.15236173756093",['80'],nan
878,1980878,Ludolfinger Platz,bus,"52.63246756454283, 13.288052861549561","['15', '12']",nan
879,1980879,Ludwigkirchstrasse,bus,"52.49792532728829, 13.324432232171842",['60'],nan
880,1980880,Luise-Schröder-Platz,bus,"52.55757019957571, 13.365470778195588",['16'],nan
881,1980881,Luisenplatz,bus,"52.52005408723936, 13.2995133852506","['87', '62', '54', '9', '21']",nan
882,1980882,Luzernerstrasse,bus,"52.42399460780493, 13.293333572320618",['53'],nan
883,1980883,Lynar-/Parkstrasse,bus,"52.548954300934696, 13.210220571621202",['56'],nan
884,1980884,Lynarstrasse,bus,"52.54849689008303, 13.200834920915101",['54'],nan
885,1980885,Lübars Alt-Lübars,bus,"52.62035855836396, 13.355625125789404",['20'],nan
886,1980886,Lübarserstrasse,bus,"52.60278454734362, 13.335690509524364","['15', '22']",nan
887,1980887,Lückstrasse,bus,"52.50243999211013, 13.486707346004659",['30'],nan
888,1980888,Lützowplatz,bus,"52.505029017314186, 13.351822867208506","['29', '24', '16', '9', '69']",nan
889,1980889,Lützowstrasse,bus,"52.5030789103706, 13.36561126569968","['75', '48']",nan
890,1980890,Machnowerstrasse,bus,"52.43081464649324, 13.259292898185025","['53', '3']",nan
891,1980891,Magdalenenstrasse,u-bahn,"52.5125,13.486388888889",['E'],Q473901
892,1980892,Magdeburger Platz,bus,"52.504010770107215, 13.360662892444887",['24'],nan
893,1980893,Magistratsweg,bus,"52.5331201414446, 13.158067208455051","['80', '97']",nan
894,1980894,Mahlsdorf,s-bahn,"52.5121,13.6106",['KBS 100'],Q800484
895,1980895,"Mahlsdorf, Greifswalderstrasse",bus,"52.53007096414031, 13.62684589503205",['95'],nan
896,1980896,Mahlsdorf-Süd,strassenbahn,"52.4741663,13.5991443","['83', '82']",Q66368466
897,1980897,"Malchow, Dorf",bus,"52.580462270708544, 13.482797576255583",['41'],nan
898,1980898,Malteserstrasse,bus,"52.43339327453558, 13.35301151743581",['32'],nan
899,1980899,Malteserstrasse/Hospital,bus,"52.42488773133225, 13.356586752297275",['30'],nan
900,1980900,Manfred-v.-Richthofen-Strasse,bus,"52.48435753080737, 13.38572588691716",['96'],nan
901,1980901,Mansteinstrasse,bus,"52.493366366199716, 13.367079581476846",['50'],nan
902,1980902,Marburgerstrasse,bus,"52.50375006225405, 13.33774519612834",['19'],nan
903,1980903,Marchandstrasse,bus,"52.423049326436605, 13.357354547531147",['32'],nan
904,1980904,Marchlewskistrasse,u-bahn,"52.516794444444,13.444991666667",['E'],Q551768
905,1980905,Mareschstrasse,bus,"52.47528951329248, 13.453013701204151",['95'],nan
906,1980906,Mariannenplatz,bus,"52.50228674193422, 13.42408622658593",['28'],nan
907,1980907,Mariendorf,s-bahn,"52.4478,13.3609",['KBS 152'],Q800497
908,1980908,Mariendorf Dardanellenweg,bus,"52.44494682100091, 13.409483829025348",['81'],nan
909,1980909,Mariendorf Rixdorferstrasse Ecke Dirschelweg,bus,"52.44494210008936, 13.400089453818719",['33'],nan
910,1980910,Marienfelde,s-bahn,"52.4242,13.3747",['KBS 152'],Q800485
911,1980911,Marienfelde Bahnstrasse,bus,"52.42357819874688, 13.374634848135637",['32'],nan
912,1980912,Marienfelde Stadtrandsiedlung,bus,"52.40262127667971, 13.353307994567768",['52'],nan
913,1980913,"Marienfelde, Waldsassenerstrasse",bus,"52.408212698521666, 13.350671796330989",['2'],nan
914,1980914,Marienfelder Allee,bus,"52.413790430379194, 13.362098895780415","['11', '32', '30']",nan
915,1980915,Marienstrasse,bus,"52.42960010456386, 13.321303543636025",['53'],nan
916,1980916,Marienstrasse/Königswarter Krankenhaus,bus,"52.42959333135837, 13.32131241051486","['11', '17']",nan
917,1980917,Markgrafendamm,bus,"52.49919969372071, 13.465742293248686",['34'],nan
918,1980918,Martin-Luther-Strasse,bus,"52.48902651655725, 13.345005241127383","['50', '16']",nan
919,1980919,Martin-Luther-Strasse,bus,"52.50109403484154, 13.346646078968321",['19'],nan
920,1980920,Marx-Engels-Platz,s-bahn,"52.5226,13.4022","['KBS 105', 'KBS 115', 'KBS 110', 'KBS 100']",Q689312
921,1980921,Marzahn,s-bahn,"52.5436,13.5411",['KBS 101'],Q800486
922,1980922,Marzahnerstrasse,bus,"52.53978688562053, 13.53943029431785",['53'],nan
923,1980923,Maximiliankorso Ecke Hainbuchenstrasse,bus,"52.634367345727696, 13.27497810423969",['12'],nan
924,1980924,Mecklenburgischestrasse,bus,"52.48021986858538, 13.31253880177764",['65'],nan
925,1980925,Mehringdamm,u-bahn,"52.493888888889,13.388333333333","['6', '7']",Q657905
926,1980926,Mellenseestrasse,bus,"52.49463878085626, 13.514607462577635","['53', '96']",nan
927,1980927,Mertensstrasse,bus,"52.565332528373894, 13.209365455782565","['55', '97', '56']",nan
928,1980928,Merzigerstrasse,bus,"52.54479309160927, 13.18407601169065",['5'],nan
929,1980929,Metzerstrasse,bus,"52.525082955601306, 13.197196032536064",['97'],nan
930,1980930,Mexikoplatz,bus,"52.4376577037972, 13.23239427584568",['3'],nan
931,1980931,Mierendorffplatz,u-bahn,"52.526388888889,13.305",['7'],Q571393
932,1980932,Miraustrasse,bus,"52.58400103750284, 13.309715526670885",['22E'],nan
933,1980933,Mitschurinweg,bus,"52.31985269747132, 13.57429849376093",['38'],nan
934,1980934,Mittelstrasse,strassenbahn,"52.5352913727537, 13.480491370241076","['11', '12']",nan
935,1980935,Moabit Wiebestrasse,bus,"52.52838180813244, 13.319464822401587","['24'], ['70']","nan, nan"
936,1980936,"Moabit, Waldstrasse",bus,"52.529241314571834, 13.330905788251384",['1'],nan
937,1980937,Mohrunger Allee,bus,"52.5079697690193, 13.249378786989148",['94'],nan
938,1980938,Mollstrasse,bus,"52.52521335639236, 13.419881054195569",['9'],nan
939,1980939,Mollstrasse,strassenbahn,"52.5255473,13.4202755","['24', '28']",Q65548984
940,1980940,Mollwitzstrasse,bus,"52.52216542353462, 13.28571067414756",['87'],nan
941,1980941,Moltkestrasse,bus,"52.44296111368691, 13.311039798309876",['88'],nan
942,1980942,Moltkestrasse,bus,"52.44678147636118, 13.306731187929488",['85'],nan
943,1980943,Moltkestrasse (Klinikum),bus,"52.44045422408179, 13.316249941995789",['84'],nan
944,1980944,Morgensternstrasse,bus,"52.42581380369205, 13.316789089697448",['86'],nan
945,1980945,Morgensternstrasse,bus,"52.42808292526009, 13.325467083745888","['11', '53', '96']",nan
946,1980946,Moritzplatz,u-bahn,"52.503611111111,13.410833333333",['8'],Q374225
947,1980947,Moritzstrasse,bus,"52.538616245338716, 13.20068787610921",['54'],nan
948,1980948,Motzenerstrasse,bus,"52.409230470648815, 13.376204615712014","['30', '52']",nan
949,1980949,Motzstrasse,bus,"52.49717707606062, 13.346075923573181",['85'],nan
950,1980950,Munsterdamm,bus,"52.45002365805301, 13.34670413295227","['2', '33', '81']",nan
951,1980951,Murtzaner Ring,bus,"52.53407950893293, 13.546877951607016",['95'],nan
952,1980952,Märkisches Museum,u-bahn,"52.511944444444,13.408888888889",['A'],Q657871
953,1980953,Märkisches Zentrum,bus,"52.59979022467802, 13.35569734166884",['22'],nan
954,1980954,Möckernbrücke,u-bahn,"52.499166666667,13.382777777778","['1', '7']",Q704716
955,1980955,"Müggelheim, Dorf",bus,"52.41218552288649, 13.662032155495215",['27'],nan
956,1980956,Müggelseedamm,strassenbahn,"52.4498638,13.661534",['25'],Q66361484
957,1980957,Müggelstrasse,strassenbahn,"52.51185349582829, 13.470738056873934",['29'],nan
958,1980958,Müggelstrasse,strassenbahn,"52.51209594177832, 13.471043903606413",['12'],nan
959,1980959,Müggelturm,bus,"52.4294010043802, 13.61606552866164",['27'],nan
960,1980960,Mühlenfeldstrasse,bus,"52.60780890226726, 13.292245094557122",['15'],nan
961,1980961,Mühlenstrasse,bus,"52.43423364925705, 13.350145722391002","['30', '32']",nan
962,1980962,Mühlenstrasse,bus,"52.438469118386884, 13.354193220407243",['81'],nan
963,1980963,Mühsamstrasse,bus,"52.520444538814324, 13.451781597134405",['30'],nan
964,1980964,Müllerstrasse,bus,"52.541177895830636, 13.368559196443492","['70', '99']",nan
965,1980965,Müllerstrasse/U-Bhf. Seestrasse,bus,"52.55045652881872, 13.351937688634111",['65'],nan
966,1980966,Münchenerstrasse,bus,"52.49432692206008, 13.341750609119389",['50'],nan
967,1980967,Nachtigalplatz,bus,"52.55708816298035, 13.333841766869467",['64'],nan
968,1980968,Nahariyastrasse,bus,"52.390905734162054, 13.420120614791225",['79'],nan
969,1980969,Nahmitzer Damm,bus,"52.409204303501305, 13.37619297008937",['7'],nan
970,1980970,Nassauischestrasse,bus,"52.4911618772095, 13.326528822264246",['50'],nan
971,1980971,Nauener Platz,u-bahn,"52.551666666667,13.3675",['9'],Q555986
972,1980972,Nauenerstrasse,bus,"52.5340443007014, 13.18167584141312","['80', '31']",nan
973,1980973,Naumburgerstrasse,bus,"52.46457491460513, 13.44827543765302",['41'],nan
974,1980974,Nettelbeckplatz,bus,"52.54464511696315, 13.370154535054418","['70', '12', '99']",nan
975,1980975,Neu-Lindenberg,bus,"52.600885625411856, 13.554794085696633",['41'],nan
976,1980976,Neu-Westend,u-bahn,"52.515555555556,13.261111111111",['1'],Q656431
977,1980977,"Neu-Westend, Brixplatz",bus,"52.51923525462403, 13.256876853047581",['4'],nan
978,1980978,Neuenburgerstrasse,bus,"52.49989127389534, 13.398680304039575","['95', '41']",nan
979,1980979,Neuenhagen (b Bln),s-bahn,"52.5208,13.7003",['KBS 100'],Q7001614
980,1980980,Neukölln,u-bahn,"52.469444,13.442222",['7'],Q21272767
981,1980981,Neukölln Schulenburgpark,bus,"52.46644666418163, 13.470473052819276",['65'],nan
982,1980982,"Neukölln, Teupitzerstrasse",bus,"52.48413462249893, 13.45609503467383",['4'],nan
983,1980983,Neuköllnerstrasse,bus,"52.424180027838894, 13.485292898394881",['57'],nan
984,1980984,Nibelungenstrasse,bus,"52.41885159941283, 13.180517108966463","['E', '18']",nan
985,1980985,Nikolassee,s-bahn,"52.4317,13.1933",['KBS 156'],Q637052
986,1980986,Nikolassee Alemannenstrasse,bus,"52.425958164293604, 13.190355934252684",['53'],nan
987,1980987,Nikolskoer Weg,bus,"52.41405938531216, 13.109270752484141",['6'],nan
988,1980988,Nollendorfplatz,u-bahn,"52.499166666667,13.353888888889","['1', '4']",Q571039
989,1980989,Nonnendammallee,bus,"52.53677367837448, 13.264841759353843",['10'],nan
990,1980990,Nordend,bus,"52.59006569360479, 13.401740566033476",['7'],nan
991,1980991,Nordend,strassenbahn,"52.5902104,13.4027524",['46'],Q65032696
992,1980992,Nordend-Arena,bus,"52.60126963639746, 13.402740653886099",['7'],nan
993,1980993,Nordendstrasse,strassenbahn,"52.588534,13.3882952",['22'],Q65428345
994,1980994,Normannenstrasse,bus,"52.41755553724523, 13.541493283222094",['23'],nan
995,1980995,Nunsdorfer Ring,bus,"52.40659423328678, 13.379435072743929",['7'],nan
996,1980996,Nunsdorfer Ring/Süd,bus,"52.40382469515478, 13.38272999714803",['30'],nan
997,1980997,Nöldnerplatz,s-bahn,"52.5038,13.4853","['KBS 100', 'KBS 101']",Q4892447
998,1980998,Oberfeldstrasse,bus,"52.50917456097708, 13.553299967800196","['8', '35', '112']",nan
999,1980999,Oberhofer Platz,bus,"52.42410259117963, 13.328170432694991",['17'],nan
1000,19801000,Oberseestrasse,strassenbahn,"52.546240879650725, 13.49656338595878",['63'],Q65555712
1001,19801001,Oberspree,bus,"52.45375171599733, 13.548485333062546",['65'],nan
1002,19801002,Oberspree,s-bahn,"52.4525,13.5382",['KBS 142'],Q15192700
1003,19801003,Oberwallstrasse,bus,"52.515247659191864, 13.39675532805726",['78'],nan
1004,19801004,Olbendorfer Weg,bus,"52.58240965268099, 13.31951967586939",['15'],nan
1005,19801005,Olbersstrasse/DRK-Krankenhaus,bus,"52.529064383201344, 13.302797016498532","['62', '21']",nan
1006,19801006,Olivaer Platz,bus,"52.50060275704949, 13.313110622018645","['1', '69']",nan
1007,19801007,Olivaer Platz/Leibnizstrasse,bus,"52.50063821299713, 13.313061951182165","['9', '19', '29']",nan
1008,19801008,Ollenhauerstrasse,bus,"52.56425628134952, 13.328025169551703",['61'],nan
1009,19801009,Ollenhauerstrasse,bus,"52.575570065034185, 13.332008964976731",['14'],nan
1010,19801010,Olympia-Stadion,u-bahn,"52.517222222222,13.25",['1'],Q656441
1011,19801011,Omnibus Betriebshof,bus,"52.52032432696463, 13.499405664504195",['30'],nan
1012,19801012,Omnibus-Betriebshof,strassenbahn,"52.5442346,13.4687215","['29', '20', '3']",Q65939077
1013,19801013,Onkel Toms Hütte,u-bahn,"52.450277777778,13.253333333333",['2'],Q389214
1014,19801014,Oranienburg,s-bahn,"52.7536,13.2496",['KBS 140'],Q2341669
1015,19801015,Oranienburger Tor,bus,"52.52716314203455, 13.38710905184874","['30', '57', '40']",nan
1016,19801016,Oranienburger Tor,strassenbahn,"52.5256031,13.3872745","['71', '22', '63', '70', '46', '24']",Q65095375
1017,19801017,Oranienburgerstrasse,bus,"52.52338942089036, 13.38774524573951",['57'],nan
1018,19801018,Oranienburgerstrasse,bus,"52.5938491078141, 13.333352969680737","['12', '12E', '62']",nan
1019,19801019,Oranienburgerstrasse,bus,"52.595460323418294, 13.332997608803177","['15', '21']",nan
1020,19801020,Oraniendamm,bus,"52.607835611203505, 13.323834478403686",['20'],nan
1021,19801021,Oranienplatz,bus,"52.50232370505019, 13.415510129463975","['41', '29']",nan
1022,19801022,Oranienstrasse,bus,"52.501310708954215, 13.419224612073883",['28'],nan
1023,19801023,Orianienburger Tor,strassenbahn,"52.5256031,13.3872745",['24'],Q65095375
1024,19801024,Orthopädische Klinik,bus,"52.53421919525423, 13.370479073506473",['57'],nan
1025,19801025,Ortsgrenze Gatow,bus,"52.4981601705565, 13.180014416479423",['35'],nan
1026,19801026,Osdorferstrasse,bus,"52.4211859294522, 13.310686635386801","['96', '86']",nan
1027,19801027,Oskar-Helene-Heim,u-bahn,"52.450277777778,13.269722222222",['2'],Q681336
1028,19801028,Osloerstrasse,bus,"52.55587669510938, 13.38424421097371",['70'],nan
1029,19801029,Osloerstrasse,u-bahn,"52.55694,13.37361","['9', '8']",Q662217
1030,19801030,Ostbahnhof,bus,"52.50976670730252, 13.43372198235041","['30', '32', '40']",nan
1031,19801031,Ostbahnhof,s-bahn,"52.51,13.4347","['KBS 105', 'KBS 115', 'KBS 100', 'KBS 143', 'KBS 110']",Q111325075
1032,19801032,Osteweg,bus,"52.42102198114528, 13.281135801011326","['85', '53']",nan
1033,19801033,Ostkreuz,s-bahn,"52.5031,13.4689","['KBS 141', 'KBS 105', 'KBS 100', 'KBS 142', 'KBS 101', 'KBS 140']",Q660045
1034,19801034,Ostpreußendamm,bus,"52.41788360280905, 13.305205972492185","['85', '96']",nan
1035,19801035,Ostpreußendamm,bus,"52.430787138364565, 13.317547579910906","['11', '53']",nan
1036,19801036,Ostseestrasse,bus,"52.54785805575692, 13.438529960954577","['42', '31']",nan
1037,19801037,Otto-Grotewohl-Strasse,bus,"52.51002480793293, 13.384108809043195",['32'],nan
1038,19801038,Otto-Grotewohl-Strasse,bus,"52.51397164862562, 13.38214081290675",['79'],nan
1039,19801039,Otto-Grotewohl-Strasse,bus,"52.51648825288664, 13.380775212497827",['9'],nan
1040,19801040,Otto-Suhr-Allee,bus,"52.51469791251031, 13.315136925389936",['1'],nan
1041,19801041,Ottostrasse,bus,"52.52678057504869, 13.335538710455209",['70'],nan
1042,19801042,Pablo-Neruda-Strasse,bus,"52.440854210657335, 13.58659422871734",['68'],nan
1043,19801043,Pacelli-/Thielallee,bus,"52.45819383818934, 13.287096949272522",['1'],nan
1044,19801044,Pankow,s-bahn,"52.5667,13.4111","['KBS 141', 'KBS 140', 'KBS 142', 'KBS 143']",Q653775
1045,19801045,Pankow (Vinetastrasse),u-bahn,"52.559166666667,13.413333333333",['A'],Q570906
1046,19801046,"Pankow, Kirche",bus,"52.57124680898358, 13.410670715665145","['33', '7']",nan
1047,19801047,"Pankow, Kirche",strassenbahn,"52.5706452,13.4103115","['49', '46', '22']",Q65055066
1048,19801048,"Pankow, Rathaus",bus,"52.56953908840178, 13.404186437171612",['45'],nan
1049,19801049,Pankow-Heinersdorf,s-bahn,"52.5780653,13.4295093","['KBS 141', 'KBS 140', 'KBS 142', 'KBS 143']",Q4892366
1050,19801050,Pankower Allee,bus,"52.56379714329489, 13.364221864217866","['16', '22', '8']",nan
1051,19801051,Pankower Allee,bus,"52.564684586950996, 13.37805057282637","['61', '14']",nan
1052,19801052,Pankstrasse,u-bahn,"52.55222,13.38167",['8'],Q571380
1053,19801053,Pannierstrasse,bus,"52.486324017927984, 13.429489128613437","['95', '41']",nan
1054,19801054,Pannwitzstrasse,bus,"52.58623663682049, 13.322775004650389",['15'],nan
1055,19801055,Papestrasse,s-bahn,"52.4756,13.3644","['KBS 153', 'KBS 152']",Q376589
1056,19801056,Paracelsus-Bad,bus,"52.57529009634176, 13.347849278010074",['61'],nan
1057,19801057,Paradestrasse,u-bahn,"52.478055555556,13.386111111111",['6'],Q557543
1058,19801058,Parchimer Allee,bus,"52.44548755226662, 13.455038476884289",['41'],nan
1059,19801059,Parchimer Allee,u-bahn,"52.444722222222,13.449444444444",['7'],Q571855
1060,19801060,Park-/Lynarstrasse,bus,"52.54896967927501, 13.210244461081333",['55'],nan
1061,19801061,Parkstrasse/Lynarstrasse,bus,"52.54896967927501, 13.210244461081333",['97'],nan
1062,19801062,Pasedagplatz,bus,"52.55967538566088, 13.46027955028295",['55'],nan
1063,19801063,Pasedagplatz,strassenbahn,"52.5594027,13.4609594","['24', '28', '72']",Q65954665
1064,19801064,Paul-Hertz-Siedlung,bus,"52.53949184159549, 13.298997911914373",['65'],nan
1065,19801065,Paul-Schmidt-Strasse,bus,"52.45281664031631, 13.37185629162746",['96'],nan
1066,19801066,Paulsternstrasse,bus,"52.53826033805228, 13.247699638567981",['99'],nan
1067,19801067,Paulsternstrasse,bus,"52.54415774195884, 13.247126131065503","['55', '13', '10']",nan
1068,19801068,Petershagen Nord,s-bahn,"52.5291,13.791",['KBS 100'],Q7178217
1069,19801069,Petzoldtweg,bus,"52.5375617119396, 13.187393956853002",['5'],nan
1070,19801070,Petzoldweg,bus,"52.53756027548261, 13.18741779040292",['63'],nan
1071,19801071,Pfaueninselchaussee,bus,"52.418854030922695, 13.153074716476008","['6', '18']",nan
1072,19801072,Pflegeheim,bus,"52.56399684261606, 13.161612636389473",['63'],nan
1073,19801073,Pichelsdorferstrasse,bus,"52.513090562156265, 13.196785879976623",['94'],nan
1074,19801074,Pichelsdorferstrasse,bus,"52.51311709441629, 13.196873174386077",['97'],nan
1075,19801075,Pichelsdorferstrasse,bus,"52.528000143289354, 13.195173769560155",['35'],nan
1076,19801076,Pichelswerder,bus,"52.51061581127144, 13.208766591094403",['94'],nan
1077,19801077,Pichelswerderstrasse,bus,"52.53192615135921, 13.213107816914025",['56'],nan
1078,19801078,Piesporterstrasse,bus,"52.560428325050296, 13.476578086985889",['55'],nan
1079,19801079,Pilatusweg,bus,"52.42974383666223, 13.392599289729345","['79', '76E', '7']",nan
1080,19801080,Pionierpark,strassenbahn,"52.45798013233545, 13.541980829050775","['26', '19', '21', '85', '25']",nan
1081,19801081,Pionierpark,strassenbahn,"52.46662288590602, 13.521257686609333",['82'],nan
1082,19801082,Pionierstrasse,bus,"52.551529603690966, 13.185506987271339",['63'],nan
1083,19801083,Planetenstrasse,bus,"52.46858018458293, 13.467275514449154",['95'],nan
1084,19801084,Platanenstrasse,strassenbahn,"52.583830874179725, 13.391018053427205",['22'],nan
1085,19801085,Platz der Luftbrücke,bus,"52.48500811314645, 13.385984513056924","['24', '19', '96', '4']",nan
1086,19801086,Platz der Luftbrücke,u-bahn,"52.485555555556,13.385833333333",['6'],Q553146
1087,19801087,Platz vor dem Neuen Tor,bus,"52.52921245715711, 13.378513556812177",['57'],nan
1088,19801088,Plauenerstrasse,bus,"52.539013561031304, 13.511392747727015",['48'],nan
1089,19801089,Plänterwald,s-bahn,"52.4786,13.4733","['KBS 141', 'KBS 115', 'KBS 142', 'KBS 110', 'KBS 140']",Q7205917
1090,19801090,Plötzensee/Dohnagestell,bus,"52.541971771342695, 13.335651488876369",['89'],nan
1091,19801091,Podbielskiallee,u-bahn,"52.464444444444,13.296388888889",['2'],Q571324
1092,19801092,Potsdamer Brücke,bus,"52.50611785444253, 13.36844897032016","['75', '29', '48']",nan
1093,19801093,Potsdamer Chaussee/Tierklinik FU,bus,"52.43233855640377, 13.235689353082527",['3'],nan
1094,19801094,Potsdamer-/Berlinerstrasse,bus,"52.43505815516274, 13.260435028293815",['3'],nan
1095,19801095,Potsdamerstrasse,bus,"52.40547679035753, 13.414589161285486",['79'],nan
1096,19801096,Potsdamerstrasse,bus,"52.43533397209459, 13.258897065769991","['18', '48']",nan
1097,19801097,Potsdamerstrasse,bus,"52.43572428304899, 13.256010235707599",['53'],nan
1098,19801098,Potsdamerstrasse,bus,"52.49437013806739, 13.360973415827122",['50'],nan
1099,19801099,Potsdamerstrasse,bus,"52.49786445649416, 13.362022544501414",['19'],nan
1100,19801100,Potsdamerstrasse,bus,"52.50309357193257, 13.365707675920627",['24'],nan
1101,19801101,Pottensteiner Weg,bus,"52.45047203338445, 13.118603558875344",['35E'],nan
1102,19801102,Prager Platz,bus,"52.49294694854429, 13.332964219632272",['50'],nan
1103,19801103,Prellerweg,bus,"52.459173921008315, 13.34872272991831",['25'],nan
1104,19801104,Prenzlauer Allee,s-bahn,"52.544775,13.426116","['KBS 141', 'KBS 140', 'KBS 142', 'KBS 143']",Q32661483
1105,19801105,Prenzlauer Allee,strassenbahn,"52.52702151127797, 13.415644211224935","['15', '63']",nan
1106,19801106,Prenzlauer Allee,strassenbahn,"52.539178850458995, 13.424228356113515","['13', '21', '4']",nan
1107,19801107,Prenzlauer Allee,strassenbahn,"52.55112114420164, 13.442654335995105",['3'],nan
1108,19801108,Prenzlauer Berg,bus,"52.528675446552235, 13.420247433917137",['30'],nan
1109,19801109,Prenzlauer Chaussee,bus,"52.572129197351266, 13.42884466195991",['52'],nan
1110,19801110,Prenzlauer Promenade,bus,"52.5516751737526, 13.430326005865055","['45', '55']",nan
1111,19801111,Prenzlauer Promenade,bus,"52.55642439286142, 13.429121028483438",['56'],nan
1112,19801112,Preußenallee,bus,"52.508660519056406, 13.259314884478115",['94'],nan
1113,19801113,Preysingstrasse,bus,"52.42458654829115, 13.356715225064972","['30', '32']",nan
1114,19801114,Priesterweg,bus,"52.45843974216717, 13.354954808307342",['25'],nan
1115,19801115,Priesterweg,s-bahn,"52.4601,13.3563","['KBS 153', 'KBS 152']",Q800508
1116,19801116,Prinzenallee,bus,"52.55587000478383, 13.384264014550926","['61', '89']",nan
1117,19801117,Prinzenstrasse,u-bahn,"52.498333333333,13.406111111111",['1'],Q689797
1118,19801118,Pulsstrasse,bus,"52.52424833087157, 13.285090170924843",['87'],nan
1119,19801119,Putlitzstrasse (Westhafen),u-bahn,"52.536795,13.342724",['9'],Q4019188
1120,19801120,Päwesiner Weg,bus,"52.52634766187213, 13.18182914820017",['13'],nan
1121,19801121,Päwesiner Weg,bus,"52.53384830430714, 13.177104293289899","['80', '31']",nan
1122,19801122,Quarzweg,bus,"52.41825982253402, 13.416965809477466",['52'],nan
1123,19801123,Quellweg,bus,"52.536697772409674, 13.267854074442013","['23', '55']",nan
1124,19801124,Quickbornerstrasse Märkisches Viertel,bus,"52.60613532879739, 13.364225445968884",['21'],nan
1125,19801125,Raabestrasse,bus,"52.40983567019471, 13.403812649877562","['76E', '79']",nan
1126,19801126,Rahnsdorf,s-bahn,"52.4516372,13.6899776",['KBS 105'],Q800489
1127,19801127,Rahnsdorf,strassenbahn,"52.443531694444445,13.685038",['25'],Q66361311
1128,19801128,Rahnsdorferstrasse,strassenbahn,"52.474697, 13.692271",['S-Bhf. Friedrichshagen <> Alt-Rüdersdorf'],Q66563750
1129,19801129,Rahnsdorferstrasse,strassenbahn,"52.498517, 13.613101",['83'],Q66364532
1130,19801130,Rallenweg,bus,"52.59630086275722, 13.219262001514577",['14E'],nan
1131,19801131,Ramlerstrasse,bus,"52.547125761071456, 13.389174502621508",['61'],nan
1132,19801132,Rathaus,strassenbahn,"52.4702746,13.7867307",['S-Bhf. Friedrichshagen <> Alt-Rüdersdorf'],Q66534836
1133,19801133,Rathaus Friedenau,bus,"52.47269171746919, 13.336612389535405","['85', '75']",nan
1134,19801134,Rathaus Lankwitz,bus,"52.438619154212184, 13.343972903473205","['32', '2', '81']",nan
1135,19801135,Rathaus Neukölln,u-bahn,"52.481666666667,13.434166666667",['7'],Q628770
1136,19801136,Rathaus Reinickendorf,bus,"52.591657836908254, 13.32633527572607","['15', '22E', '21']",nan
1137,19801137,Rathaus Schmargendorf,bus,"52.47740024699706, 13.287874347818141",['60'],nan
1138,19801138,Rathaus Schöneberg,bus,"52.48515473887597, 13.345086596743203",['85'],nan
1139,19801139,Rathaus Schöneberg,u-bahn,"52.483116666667,13.341930555556",['4'],Q570926
1140,19801140,Rathaus Spandau,bus,"52.53480744415333, 13.199505517192808","['99', '80', '13', '54', '97', '34', '63', '31', '5']",nan
1141,19801141,Rathaus Steglitz,u-bahn,"52.456794,13.320901",['9'],Q28945859
1142,19801142,Rathaus Tiergarten,bus,"52.52649085974541, 13.338358982634196","['24', '70']",nan
1143,19801143,Rathaus Wannsee,bus,"52.418440129670444, 13.148872492834737","['6', '18']",nan
1144,19801144,Rathaus Zehlendorf,bus,"52.433207520111885, 13.259531923613192","['60', '53', '10', '3', '1']",nan
1145,19801145,Rathausstrasse,bus,"52.44526622632454, 13.379485318859611",['33'],nan
1146,19801146,Rathenauplatz,bus,"52.49476692065044, 13.28558322563665","['65', '10', '69']",nan
1147,19801147,Rathenaustrasse,strassenbahn,"52.45839999273065, 13.526636078406641","['19'], ['26', '21', '85', '25', '82']","nan, nan"
1148,19801148,Rathenowerstrasse,bus,"52.52677141873735, 13.355284139566173","['24', '70']",nan
1149,19801149,Rathenowerstrasse,bus,"52.53249082535558, 13.350555257285679",['99'],nan
1150,19801150,Rauchstrasse,bus,"52.56158033427233, 13.208497165613881","['55', '97', '56']",nan
1151,19801151,Regattatribünen,strassenbahn,"52.4114287,13.5880881",['86'],Q66490561
1152,19801152,Reginhardstrasse,bus,"52.55973623829915, 13.369825086746086","['61', '16']",nan
1153,19801153,Rehberge,u-bahn,"52.5567,13.3412",['6'],Q253850
1154,19801154,Rehwiese,bus,"52.43414395778535, 13.200119848537689",['3'],nan
1155,19801155,Reichssportfeldstrasse,bus,"52.507517684394834, 13.242104839695287",['94'],nan
1156,19801156,Reichsstrasse,bus,"52.523889003718295, 13.249291006923162",['54'],nan
1157,19801157,Reichstag,bus,"52.517799188341854, 13.375996413386812",['69'],nan
1158,19801158,Reifenwerk,strassenbahn,"52.38053763512856, 13.64225580282144",['86'],nan
1159,19801159,Reimerweg,bus,"52.52173113162445, 13.155046653249078",['97'],nan
1160,19801160,Reinickendorf,s-bahn,"52.5779,13.3506",['KBS 153'],Q800496
1161,19801161,Reinickendorf Klemkestrasse/Sommerstrasse,bus,"52.57478477098419, 13.37354774742704",['16'],nan
1162,19801162,Reinickendorferstrasse,u-bahn,"52.539911111111,13.370377777778",['6'],Q559249
1163,19801163,Rennbahn Mariendorf,bus,"52.431525822228465, 13.391529971250717","['79', '76E', '7']",nan
1164,19801164,Rennbahnstrasse,bus,"52.557029825201695, 13.466976894786637",['41'],nan
1165,19801165,Residenzstrasse,bus,"52.56381283897653, 13.364253153053868","['61', '8']",nan
1166,19801166,Residenzstrasse,bus,"52.57050931699572, 13.360816126370876","['16', '14']",nan
1167,19801167,Reuchlinstrasse,bus,"52.5278079827492, 13.324842775070394",['24'],nan
1168,19801168,Reußstrasse,bus,"52.560137874398194, 13.208162628463588","['55', '56']",nan
1169,19801169,Rhinstrasse,bus,"52.39375667241862, 13.397943045761618",['76E'],nan
1170,19801170,Rhinstrasse,bus,"52.51102349907385, 13.519057618629697","['8', '35']",nan
1171,19801171,Rhinstrasse,bus,"52.52600815394641, 13.519512564550572",['54'],nan
1172,19801172,Rhinstrasse,strassenbahn,"52.525989, 13.518676",['18'],Q65683164
1173,19801173,Rhinstrasse,strassenbahn,"52.535732, 13.518187","['11', '12']",Q65621369
1174,19801174,Rhodeländerweg,bus,"52.40713328930192, 13.484808389563007",['57'],nan
1175,19801175,Richard-Sorge-Strasse,bus,"52.5252412904796, 13.443763889225046",['48'],nan
1176,19801176,Richard-Strauß-Strasse,bus,"52.479965234142696, 13.271554896480897",['19'],nan
1177,19801177,Richard-Wagner-Platz,u-bahn,"52.5175,13.306388888889",['7'],Q662201
1178,19801178,Richtershorn,strassenbahn,"52.40105,13.6248473",['86'],Q66481215
1179,19801179,Riedingerstrasse,bus,"52.38669123593835, 13.40074373073594",['76E'],nan
1180,19801180,Rittberg-Krankenhaus,bus,"52.42987951650218, 13.288961460110901",['85'],nan
1181,19801181,Ritterfelddamm/Alt-Kladow,bus,"52.45430591400899, 13.144340198276218",['35'],nan
1182,19801182,Ritterlandweg,bus,"52.560372075724004, 13.368987882993496","['8', '22']",nan
1183,19801183,Robert-Koch-Platz,bus,"52.527570508835595, 13.37877230286134","['30', '40']",nan
1184,19801184,Robert-Siewert-Strasse,bus,"52.49299343685124, 13.537803970993119",['94'],nan
1185,19801185,Robert-Uhrig-Strasse,bus,"52.51025895337027, 13.512145744696882",['8'],nan
1186,19801186,Rochowstrasse,bus,"52.499504196943626, 13.458048159576794",['34'],nan
1187,19801187,Roedernallee,bus,"52.574414130831826, 13.347741163511499","['12','64', '14']",nan
1188,19801188,Roedernallee,bus,"52.59394383098325, 13.33330878524459",['62'],nan
1189,19801189,Roedernallee/Paracelsus-Bad,bus,"52.57541300102986, 13.347797381139875",['22'],nan
1190,19801190,Rohrdamm,u-bahn,"52.537222222222,13.2625",['7'],Q570911
1191,19801191,Rohrweihstrasse,bus,"52.59040403175795, 13.224337522478312",['14E'],nan
1192,19801192,Rolandstrasse,bus,"52.58226868825605, 13.41681073833319",['50'],nan
1193,19801193,Rosa-Luxemburg-Platz,u-bahn,"52.528333333333,13.410277777778",['A'],Q658790
1194,19801194,Roseneck,bus,"52.47580089902253, 13.282411270445099","['60', '17']",nan
1195,19801195,"Rosenthal, Hauptstrasse",strassenbahn,"52.5970063,13.3763916",['22'],Q65364985
1196,19801196,Rosenthaler Platz,bus,"52.5296729549826, 13.401428926082492","['30', '78', '78E', '40']",nan
1197,19801197,Rosenthaler Platz,strassenbahn,"52.5301769,13.4016121","['11', '49']",Q65093945
1198,19801198,Rosenthalerstrasse,strassenbahn,"52.59633,13.432876",['49'],Q66192394
1199,19801199,Rubensstrasse,bus,"52.46719629887777, 13.344180031084372",['25'],nan
1200,19801200,Rudolstädterstrasse,bus,"52.48843691842731, 13.302136857136794","['50', '21']",nan
1201,19801201,Rudow,u-bahn,"52.415833333333,13.496111111111",['7'],Q660024
1202,19801202,Rudow Stadtgrenze,bus,"52.401396246491636, 13.513752704948178",['41'],nan
1203,19801203,Rudow Stubenrauchstrasse,bus,"52.42413109104233, 13.48548111318564",['52'],nan
1204,19801204,Rudower Chaussee,bus,"52.42943744244677, 13.52950856960954",['23'],nan
1205,19801205,Rudower Ring (U-Bhf. Zwickauer Damm),bus,"52.42316772174534, 13.484176739454373",['57'],nan
1206,19801206,Rudowerstrasse,bus,"52.43428237477314, 13.469124205215895",['52'],nan
1207,19801207,Ruhleben,u-bahn,"52.525555555556,13.241388888889",['1'],Q656401
1208,19801208,Ruhlebenerstrasse,bus,"52.5329192480849, 13.198407052546607","['97', '54']",nan
1209,19801209,Ruhlsdorferstrasse,strassenbahn,"52.47789524762533, 13.600755805107944",['83'],nan
1210,19801210,Rummelsburg,s-bahn,"52.501244,13.478545",['KBS 105'],Q15107132
1211,19801211,Ruppiner Chausee,bus,"52.59795279350285, 13.275072471006439",['14'],nan
1212,19801212,Röblingstrasse,bus,"52.44967530632424, 13.36684354366888",['96'],nan
1213,19801213,Röblingstrasse/Arnulfstrasse,bus,"52.456726901348866, 13.35936028961885",['25'],nan
1214,19801214,Röntgental,s-bahn,"52.6487,13.5136",['KBS 141'],Q801386
1215,19801215,Rüdesheimer Platz,u-bahn,"52.473333333333,13.314444444444",['2'],Q167147
1216,19801216,S-Bhf. Adlershof,bus,"52.43542122666862, 13.541382770529728",['23'],nan
1217,19801217,S-Bhf. Adlershof,strassenbahn,"52.435251,13.5408489",['84'],Q66363728
1218,19801218,S-Bhf. Altglienicke,bus,"52.40840519773821, 13.558816171743953",['23'],nan
1219,19801219,S-Bhf. Baumschulenweg,bus,"52.4674967534767, 13.489379882069517",['47'],nan
1220,19801220,S-Bhf. Biesdorf,bus,"52.513432593832405, 13.555387279249894","['92', '54']",nan
1221,19801221,S-Bhf. Buch,bus,"52.636831376314575, 13.49252085642661","['31', '51']",nan
1222,19801222,S-Bhf. Friedrichsfelde Ost,bus,"52.51386336175537, 13.519096048294683","['53', '43']",nan
1223,19801223,S-Bhf. Friedrichsfelde Ost,strassenbahn,"52.5132315,13.5190209","['19', '17']",Q65953648
1224,19801224,S-Bhf. Friedrichshagen,strassenbahn,"52.4576956,13.6266712","['S-Bhf. Friedrichshagen <> Alt-Rüdersdorf', '84', '25']",Q66499230
1225,19801225,S-Bhf. Greifswalderstrasse,strassenbahn,"52.5407234,13.4382904","['24', '28']",Q65548932
1226,19801226,S-Bhf. Grünau,bus,"52.41361515857581, 13.573796290663196","['36', '38']",nan
1227,19801227,S-Bhf. Grünau,strassenbahn,"52.413493,13.5746802",['86'],Q62470512
1228,19801228,S-Bhf. Grünbergallee,bus,"52.39982232817773, 13.540170966673278","['23', '36']",nan
1229,19801229,S-Bhf. Jannowitzbrücke,bus,"52.515549181612776, 13.418097971801808","['78', '32', '79', '78E']",nan
1230,19801230,S-Bhf. Kaulsdorf,bus,"52.512448306454054, 13.589582842781804","['95', '27', '112']",nan
1231,19801231,"S-Bhf. Kaulsdorf, Bausdorfstrasse",bus,"52.51324214348987, 13.589781792135955",['60'],nan
1232,19801232,S-Bhf. Köpenick,bus,"52.45882190200453, 13.579564677172508","['27', '68']",nan
1233,19801233,S-Bhf. Köpenick,strassenbahn,"52.4582153,13.5790435","['83', '86', '82']",Q66370784
1234,19801234,S-Bhf. Leninallee,bus,"52.528513273942636, 13.455602547861579","['54', '48']",nan
1235,19801235,S-Bhf. Leninallee,strassenbahn,"52.5285197,13.4557902","['11', '15', '63', '19', '18', '17']",Q65553332
1236,19801236,S-Bhf. Mahlsdorf,bus,"52.51234908870327, 13.61221793610957",['44'],nan
1237,19801237,S-Bhf. Mahlsdorf,strassenbahn,"52.51221826761895, 13.612190748726157",['83'],nan
1238,19801238,S-Bhf. Marzahn,bus,"52.542816145869935, 13.541649855943026","['95', '92', '43']",nan
1239,19801239,S-Bhf. Marzahn,strassenbahn,"52.5424883,13.5419279","['11', '12']",Q65600718
1240,19801240,S-Bhf. Nöldnerplatz,bus,"52.50326619516546, 13.484293730152238","['96', '43', '35']",nan
1241,19801241,S-Bhf. Oberspree,bus,"52.45293599866134, 13.537614958614363",['65'],nan
1242,19801242,S-Bhf. Ostkreuz,strassenbahn,"52.50243021718411, 13.469020052690205",['82'],nan
1243,19801243,S-Bhf. Pankow,bus,"52.56742037379333, 13.412250129587665","['45', '55', '33', '7']",nan
1244,19801244,S-Bhf. Pankow,strassenbahn,"52.5675692,13.4121641","['49', '46', '22']",Q65055075
1245,19801245,S-Bhf. Pankow-Heinersdorf,strassenbahn,"52.577507820515834, 13.427853061920917",['49'],nan
1246,19801246,S-Bhf. Plänterwald,bus,"52.47906709904058, 13.47438536554077","['65', '66', '67']",nan
1247,19801247,S-Bhf. Prenzlauer Allee,strassenbahn,"52.5448075,13.427408","['71', '20', '72']",Q65219791
1248,19801248,S-Bhf. Rahnsdorf,bus,"52.451628368326396, 13.691579101298974",['61'],nan
1249,19801249,S-Bhf. Rahnsdorf,strassenbahn,"52.451526,13.6929464",['S-Bhf. Rahnsdorf <> Woltersdorfer Schleuse'],Q66977001
1250,19801250,S-Bhf. Rummelsburg,bus,"52.50179539105723, 13.478028581044718",['30'],nan
1251,19801251,S-Bhf. Spindlersfeld,strassenbahn,"52.4457311,13.5624298",['84'],Q66363397
1252,19801252,S-Bhf. Springpfuhl,bus,"52.525730108939904, 13.536747791865222","['43', '54']",nan
1253,19801253,S-Bhf. Springpfuhl,strassenbahn,"52.5256909,13.53648",['18'],Q65681801
1254,19801254,S-Bhf. Storkowerstrasse,bus,"52.52442478945907, 13.464849379649715",['56'],nan
1255,19801255,S-Bhf. Treptower Park,bus,"52.49403640886682, 13.460762565516704","['47', '64', '65', '66', '67']",nan
1256,19801256,S-Bhf. Warschauerstrasse,bus,"52.50651090099817, 13.449517734168703",['34'],nan
1257,19801257,S-Bhf. Warschauerstrasse,strassenbahn,"52.5080429,13.4505973","['4', '3']",Q65706190
1258,19801258,S-Bhf. Wilhelmshagen,bus,"52.43886122089184, 13.721060252199655",['61'],nan
1259,19801259,Saalestrasse,bus,"52.47386853962002, 13.45579833268409","['95', '41']",nan
1260,19801260,Saatwinkler Damm,bus,"52.54802938567344, 13.300569461587116",['62'],nan
1261,19801261,Saatwinkler Damm Mäkeritzwiesen,bus,"52.54855943697922, 13.270397400956895",['23'],nan
1262,19801262,Sachsendamm,bus,"52.47539129247018, 13.359825039600706",['84'],nan
1263,19801263,Sadowastrasse,bus,"52.482675472271694, 13.584833068425244",['8'],nan
1264,19801264,Sakrower Landstrasse,bus,"52.449278308605926, 13.12996617074555",['35E'],nan
1265,19801265,Samariterstrasse,bus,"52.52016041786831, 13.466940699807608",['30'],nan
1266,19801266,Samariterstrasse,u-bahn,"52.514722222222,13.464444444444",['E'],Q552891
1267,19801267,Sandheideweg,bus,"52.5123413211593, 13.182459615917342","['34', '35']",nan
1268,19801268,Sandstrasse,bus,"52.518563100142906, 13.169964674221779",['97'],nan
1269,19801269,Savignyplatz,bus,"52.505852905503716, 13.32187246900547",['94'],nan
1270,19801270,Savignyplatz,s-bahn,"52.5051746,13.3190659",['KBS 156'],Q554382
1271,19801271,Schaltwerk,bus,"52.53775067762068, 13.252920363905849",['55'],nan
1272,19801272,Scharfestrasse,bus,"52.43828828643976, 13.262213345971533",['18'],nan
1273,19801273,Scharnhorststrasse,bus,"52.530048717863, 13.374421833191816",['57'],nan
1274,19801274,Scharnweberstrasse,u-bahn,"52.566944444444,13.312777777778",['6'],Q557586
1275,19801275,Scheringstrasse,bus,"52.54224615001172, 13.382878503443685",['12'],nan
1276,19801276,Schichauweg,bus,"52.39854961112146, 13.389289725983366","['30', '7']",nan
1277,19801277,Schildow,bus,"52.6364725302849, 13.374512017906921",['7'],nan
1278,19801278,Schildowerstrasse,bus,"52.6176831026759, 13.315798977922347",['12E'],nan
1279,19801279,Schillerstrasse,strassenbahn,"52.4769451,13.7093142",['S-Bhf. Friedrichshagen <> Alt-Rüdersdorf'],Q66552995
1280,19801280,Schillingstrasse,u-bahn,"52.520277777778,13.421666666667",['E'],Q552899
1281,19801281,Schlesisches Tor,u-bahn,"52.500833333333,13.441666666667",['1'],Q602282
1282,19801282,Schlesischestrasse Ecke Heckmannufer,bus,"52.49754552939811, 13.44838500299095",['28'],nan
1283,19801283,Schloß Bellevue,bus,"52.51679066883996, 13.354261133973138","['24', '69']",nan
1284,19801284,Schloßbrücke,bus,"52.52195875177292, 13.300119182683678",['62'],nan
1285,19801285,Schloßplatz,bus,"52.444440717970195, 13.575132622824544","['27'], [ '68']","nan, nan"
1286,19801286,Schloßstrasse,u-bahn,"52.46083,13.32444",['9'],Q554474
1287,19801287,Schloßstrasse/Wrangelstrasse,bus,"52.45479859967026, 13.318908801873068",['85'],nan
1288,19801288,Schlüterstrasse,bus,"52.50609789260962, 13.317525850369835",['94'],nan
1289,19801289,Scholzplatz,bus,"52.50678815703117, 13.22840316297602",['94'],nan
1290,19801290,Schorfheidestrasse,bus,"52.5915185112632, 13.346110544760768",['21'],nan
1291,19801291,Schreiberring,bus,"52.480838310087485, 13.37928624318748",['96'],nan
1292,19801292,Schulenburg-Park,bus,"52.466486149886556, 13.470396332300556",['95'],nan
1293,19801293,Schulstrasse,bus,"52.54642643480478, 13.359232857179148",['61'],nan
1294,19801294,Schulzendorf (b Tegel),s-bahn,"52.6128,13.2462",['KBS 153'],Q800487
1295,19801295,Schulzendorfer Weg,bus,"52.59901996179592, 13.260318585104402",['20'],nan
1296,19801296,Schulzenstrasse,bus,"52.5392529538661, 13.178250341773861",['63'],nan
1297,19801297,Schumannstrasse,bus,"52.52350700053633, 13.379478600060418",['78'],nan
1298,19801298,Schwanter Weg,bus,"52.558138150844556, 13.182270913730692",['63'],nan
1299,19801299,Schwarzelfenweg,bus,"52.56730253884034, 13.465344446026576",['45'],nan
1300,19801300,Schweizerhaus,bus,"52.46116412714743, 13.134423222918468",['34'],nan
1301,19801301,Schäferberg,bus,"52.41562661861071, 13.12630868100336",['6'],nan
1302,19801302,Schäferstrasse,bus,"52.55177095081314, 13.209472608896423","['55', '97', '56']",nan
1303,19801303,Schöneberg Mansteinstrasse,bus,"52.493366366199716, 13.367079581476846",['50'],nan
1304,19801304,Schönefelder Chaussee,bus,"52.409778884134546, 13.526974904149686",['23'],nan
1305,19801305,"Schöneiche, Dorfaue",bus,"52.47886105131975, 13.70053232372426",['61'],nan
1306,19801306,Schöneweide,s-bahn,"52.455,13.509444444444","['KBS 141', 'KBS 115', 'KBS 142', 'KBS 110', 'KBS 140']",Q111323931
1307,19801307,Schönfließ,s-bahn,"52.6648,13.3397",['KBS 140'],Q801423
1308,19801308,Schönhauser Allee,s-bahn,"52.549329,13.413706","['KBS 141', 'KBS 140', 'KBS 142', 'KBS 143']",Q111264493
1309,19801309,Schönhauser Allee,strassenbahn,"52.549362, 13.413573",['3'],Q65088013
1310,19801310,Schönhauser Allee,strassenbahn,"52.553771, 13.41389",['46'],Q65076842
1311,19801311,Schönhauser Allee,u-bahn,"52.549328888889,13.413706111111",['A'],Q47014936
1312,19801312,Schönholz,s-bahn,"52.5714,13.3814","['KBS 153', 'KBS 152']",Q800490
1313,19801313,Schönleinstrasse,bus,"52.49003634551687, 13.419686895363094",['95'],nan
1314,19801314,Schützallee,bus,"52.4422164542798, 13.265465277148525","['18', '3']",nan
1315,19801315,Sedanstrasse,bus,"52.45143021733514, 13.335289250392284",['86'],nan
1316,19801316,Seeburgerstrasse,bus,"52.526347644869524, 13.181851254649866",['13'],nan
1317,19801317,Seeburgerstrasse,bus,"52.529147066786386, 13.195581718361606",['34'],nan
1318,19801318,Seehofstrasse,bus,"52.43283190806482, 13.264994537854385",['48'],nan
1319,19801319,Seekorso,bus,"52.46787180468717, 13.126497616325192",['34'],nan
1320,19801320,Seelenbinderstrasse,strassenbahn,"52.4554632,13.5769303",['25'],Q66324934
1321,19801321,Seestrasse,bus,"52.55049580648446, 13.351890902404168",['64'],nan
1322,19801322,Seestrasse,u-bahn,"52.55056,13.35194",['6'],Q554391
1323,19801323,Seestrasse/Friedhöfe,bus,"52.54365902910142, 13.33904904591887",['89'],nan
1324,19801324,Seidelbastweg,bus,"52.43168778336494, 13.495277868475402",['52'],nan
1325,19801325,Seidelbastweg/Stubenrauchstrasse,bus,"52.431701489153845, 13.495287084749902",['57'],nan
1326,19801326,Seidelstrasse,u-bahn,"52.571111111111,13.302777777778",['6'],Q557582
1327,19801327,Selerweg,bus,"52.45453465621795, 13.338862038845688",['2'],nan
1328,19801328,Senefelderplatz,u-bahn,"52.53242,13.412743",['A'],Q32661454
1329,19801329,Senftenberger Ring Märkisches Zentrum,bus,"52.59979022467802, 13.35569734166884",['64'],nan
1330,19801330,Senftenberger Ring-Ost,bus,"52.604729158368016, 13.36171654974895",['22'],nan
1331,19801331,Senioren-Zentrum,bus,"52.60513404639763, 13.35577014027072",['22'],nan
1332,19801332,Seydlitzstrasse,bus,"52.431969560197636, 13.338153135906188",['96'],nan
1333,19801333,Sickingen-/Siemensstrasse,bus,"52.53294810668865, 13.32873707693025",['23'],nan
1334,19801334,Sickingenstrasse,bus,"52.53300351856751, 13.328433177106923",['89'],nan
1335,19801335,Siedlung Haselhorst,bus,"52.54190384370071, 13.235930867444068",['55'],nan
1336,19801336,Siegfriedstrasse,bus,"52.52637569944569, 13.499782666552276",['30'],nan
1337,19801337,Siegfriedstrasse,strassenbahn,"52.52637,13.499036","['19', '18', '17']",Q65684891
1338,19801338,Siemensdamm,u-bahn,"52.536666666667,13.273055555556",['7'],Q663264
1339,19801339,Siemensstrasse,bus,"52.44244114357029, 13.332070210084323",['86'],nan
1340,19801340,Siemensstrasse,bus,"52.446947284872806, 13.34242667222804","['30', '32']",nan
1341,19801341,Skarbinastrasse,bus,"52.393155927101944, 13.41978378646985",['79'],nan
1342,19801342,Sodenerstrasse,bus,"52.475879136240415, 13.304558432093165",['60'],nan
1343,19801343,Soldinerstrasse,bus,"52.5586951130653, 13.386217859786587","['61', '70']",nan
1344,19801344,Soltauerstrasse,bus,"52.58075934018224, 13.302893814848328",['22E'],nan
1345,19801345,Sonnenallee,bus,"52.460833106151426, 13.481268612494336",['47'],nan
1346,19801346,Sonnenallee,bus,"52.47390641754349, 13.45582209753393",['65'],nan
1347,19801347,Sonnenallee,bus,"52.481708985743545, 13.440136223973962",['4'],nan
1348,19801348,Sonnenallee,bus,"52.48777166939619, 13.425497440985696","['75', '41', '95']",nan
1349,19801349,Sonnenallee Ecke Peter-Anders-Strasse,bus,"52.4634218836755, 13.474897765570992",['95'],nan
1350,19801350,Sophie-Charlotte-Platz,u-bahn,"52.510833333333,13.296666666667",['1'],Q657879
1351,19801351,Sophie-Charlotte-Strasse,bus,"52.44597915575293, 13.267817468250367",['18'],nan
1352,19801352,Sophie-Charlotten-Strasse,bus,"52.51887464614109, 13.286651633593438","['87', '54']",nan
1353,19801353,Spandau Freudstrasse,bus,"52.55455996843636, 13.149457896629317",['99'],nan
1354,19801354,Spandau Hakenfelde,bus,"52.58761803115145, 13.202711479788642","['56'], ['55']","nan, nan"
1355,19801355,Spandau Johannesstift,bus,"52.5676212367215, 13.191821084054606",['54'],nan
1356,19801356,Spandau Seegefelder Weg,bus,"52.54629010550862, 13.143898499972583",['63'],nan
1357,19801357,Spandau Waldkrankenhaus,bus,"52.56214542863615, 13.158340085815741",['63'],nan
1358,19801358,Spandau Weinmeisterhornweg,bus,"52.51101308460907, 13.171633998371306",['13'],nan
1359,19801359,"Spandau, Markt",bus,"52.537581553341596, 13.203797305616401","['80', '97', '34', '5', '31', '56']",nan
1360,19801360,"Spandau, Nervenklinik",bus,"52.56217026461621, 13.158338427085043",['5'],nan
1361,19801361,"Spandau, Wasserwerk",bus,"52.55592684238338, 13.16783600781684",['34'],nan
1362,19801362,Spandauer Damm,bus,"52.5102243832269, 13.285222060308415",['65'],nan
1363,19801363,Spandauer Damm,bus,"52.51844641083345, 13.28025693409403",['10'],nan
1364,19801364,Spandauer-Damm-Brücke,bus,"52.51856995876081, 13.283165952022499",['54'],nan
1365,19801365,Spandauerstrasse,bus,"52.518382611917914, 13.407227879668751",['9'],nan
1366,19801366,Spandauerstrasse,bus,"52.535940922541684, 13.156793426342295",['31'],nan
1367,19801367,Spanische Allee,bus,"52.42962440562551, 13.2239509421476","['18', '3']",nan
1368,19801368,Spekteweg,bus,"52.54158887646953, 13.18330851248049",['5'],nan
1369,19801369,Sperberstrasse,bus,"52.58734669318774, 13.226065231064382",['14E'],nan
1370,19801370,Sperenbergerstrasse,bus,"52.401077585711825, 13.38245128618306",['7'],nan
1371,19801371,Spichernstrasse (Bundesallee),u-bahn,"52.496388888889,13.330555555556","['9', '2']",Q667046
1372,19801372,Spindlersfeld,s-bahn,"52.4472,13.5613",['KBS 142'],Q4892371
1373,19801373,Spittelmarkt,bus,"52.5113056030484, 13.401437968143412",['32'],nan
1374,19801374,Spittelmarkt,u-bahn,"52.511111111111,13.403611111111",['A'],Q569489
1375,19801375,Sportzentrum Schöneberg,bus,"52.47743195582781, 13.356204732513977",['65'],nan
1376,19801376,Spreewaldplatz,bus,"52.49746662927152, 13.43173832995115",['75'],nan
1377,19801377,Springbornstrasse,bus,"52.438521804678935, 13.492933457124149",['66'],nan
1378,19801378,"Springbornstrasse""",bus,"52.43768872734399, 13.495204924990077",['62'],nan
1379,19801379,Springpfuhl,s-bahn,"52.5272,13.5364",['KBS 101'],Q320263
1380,19801380,Staaken Brunsbütteler Damm,bus,"52.535063506943985, 13.137897494686394",['80'],nan
1381,19801381,Staaken Heidebergplan,bus,"52.541074133887626, 13.147338727333166",['31'],nan
1382,19801382,Staakenerstrasse,bus,"52.536487084911975, 13.190823566060091","['63', '5']",nan
1383,19801383,Stadion Buschallee,strassenbahn,"52.5566718,13.4869834",['70'],Q65504715
1384,19801384,Stadion Lichterfelde,bus,"52.43867922703144, 13.325050443019501",['86'],nan
1385,19801385,Stadion der Weltjugend,strassenbahn,"52.534334157679154, 13.37834584846041","['11', '63', '18', '24']",nan
1386,19801386,Stadtberg,bus,"52.53441142039244, 13.541360189116462","['92', '54']",nan
1387,19801387,Stadtbezirksgericht,bus,"52.56642481951921, 13.415233988154364",['52'],nan
1388,19801388,Stadtmitte,u-bahn,"52.5122,13.3894",['A'],Q660066
1389,19801389,Stadtpark/Cautiusstrasse,bus,"52.56203611213877, 13.197024428132439",['54'],nan
1390,19801390,Stadtrandsiedlung,bus,"52.62230045046412, 13.491454504367697","['42', '31']",nan
1391,19801391,Stadtrandstrasse,bus,"52.553426999619965, 13.153585430700852",['99'],nan
1392,19801392,Stargardtstrasse,bus,"52.56693957726306, 13.362684522542672",['8'],nan
1393,19801393,Stegerwaldstrasse,bus,"52.42073935358918, 13.369265336797783","['11', '32']",nan
1394,19801394,Steglitzer Damm,bus,"52.44673678811399, 13.360562199949813",['96'],nan
1395,19801395,Steglitzer Damm,bus,"52.45106777324894, 13.337963226887936","['2', '75', '81']",nan
1396,19801396,Steglitzer Damm Ecke Munsterdamm,bus,"52.45000037204289, 13.346702091676368",['75'],nan
1397,19801397,Steglitzer Kreuz,bus,"52.460422091533594, 13.328134375906602",['33'],nan
1398,19801398,Steinplatz,bus,"52.50922881774401, 13.325931792420363","['23', '62']",nan
1399,19801399,Steinstrasse,bus,"52.396084981018134, 13.397716246480913","['30', '76E']",nan
1400,19801400,Steinstücken,bus,"52.38903904735438, 13.129868489828286",['18'],nan
1401,19801401,Stephanstrasse,bus,"52.53450248391817, 13.354561176728058",['70'],nan
1402,19801402,Sterndamm,bus,"52.44658674940087, 13.506534865142585","['47', '66']",nan
1403,19801403,Sterndamm,strassenbahn,"52.4539861,13.5095828","['26', '25']",Q65950192
1404,19801404,Stindestrasse,bus,"52.4481390275755, 13.3401193662823","['30', '32']",nan
1405,19801405,Storkowerstrasse,bus,"52.53719525158826, 13.449494779730072","['57', '56']",nan
1406,19801406,Storkowerstrasse,s-bahn,"52.5238,13.4644","['KBS 141', 'KBS 140', 'KBS 142', 'KBS 143']",Q800512
1407,19801407,Strandbad Heiligensee,bus,"52.59969201239688, 13.21329199720467",['14E'],nan
1408,19801408,Strassenbahn-Betriebshof,strassenbahn,"52.4399134,13.5817824",['83'],Q66370900
1409,19801409,Strausberg,s-bahn,"52.531933,13.836933",['KBS 100'],Q7622326
1410,19801410,Strausberg Nord,s-bahn,"52.5902,13.9084",['KBS 100'],Q7622324
1411,19801411,Strausberg Stadt,s-bahn,"52.5766,13.8878",['KBS 100'],Q7622325
1412,19801412,Strausberger Platz,u-bahn,"52.518055555556,13.430833333333",['E'],Q570999
1413,19801413,Straße 26,bus,"52.59703583586274, 13.467277026410347","['42', '31']",nan
1414,19801414,Straße 393,bus,"52.54346134229288, 13.156333109553433",['63'],nan
1415,19801415,Straße der Befreiung,bus,"52.50971424641386, 13.51893463931542",['53'],nan
1416,19801416,Straße nach Saatwinkel,bus,"52.562001332583385, 13.254645985136678",['13'],nan
1417,19801417,Straße nach Wartenberg,bus,"52.56868257933861, 13.520646670971487",['41'],nan
1418,19801418,Straße zur Badewiese,bus,"52.47632651600677, 13.1767659312613",['35'],nan
1419,19801419,Straßenbahn-Betriebshof,strassenbahn,"52.520641, 13.499445","['15','20']",Q66014798
1420,19801420,Stresowplatz,bus,"52.53362877636616, 13.206781830760963","['80', '56', '31', '5']",nan
1421,19801421,Stubenrauchstrasse,bus,"52.46892999289107, 13.328379104826453","['2', '81']",nan
1422,19801422,Stößenseebrücke,bus,"52.5089006270181, 13.217490577232331",['94'],nan
1423,19801423,Suarezstrasse/Amtsgericht,bus,"52.50688774706674, 13.295046872347983",['94'],nan
1424,19801424,Suermondtstrasse,strassenbahn,"52.54900466638566, 13.501739100576485",['63'],
1425,19801425,Suermondtstrasse,strassenbahn,"52.549051692659646, 13.501598848581892",['70'],nan
1426,19801426,Summterstrasse,bus,"52.47786081005491, 13.613221000132798",['8'],nan
1427,19801427,Sundgauerstrasse,bus,"52.43833740344266, 13.271376218754437",['48'],nan
1428,19801428,Sven-Hedin-Strasse,bus,"52.44044491814346, 13.244750958691851",['53'],nan
1429,19801429,Sächsischestrasse,bus,"52.49969205201753, 13.319017677981881",['69'],nan
1430,19801430,Säntisstrasse,bus,"52.41320161792562, 13.378457433742751",['7'],nan
1431,19801431,Säntisstrasse/Tauernallee,bus,"52.4233048593354, 13.396163151610148","['76E', '79']",nan
1432,19801432,Südende,s-bahn,"52.4481,13.3536",['KBS 153'],Q800511
1433,19801433,Südendstrasse,bus,"52.45590326647349, 13.332602045391685",['33'],nan
1434,19801434,Südstern,u-bahn,"52.489444444444,13.407777777778",['7'],Q656081
1435,19801435,Taunusstrasse,bus,"52.394658788888904, 13.417372886712938",['79'],nan
1436,19801436,Tegel,s-bahn,"52.5886,13.2894",['KBS 153'],Q800493
1437,19801437,Tegel,u-bahn,"52.58944,13.28389",['6'],Q656090
1438,19801438,Tegeler Weg/DRK-Krankenhaus,bus,"52.528992265224346, 13.296547817787753",['99'],nan
1439,19801439,Tegelort,bus,"52.5705390073051, 13.231220862666484",['20'],nan
1440,19801440,Teichstrasse,bus,"52.57435884050963, 13.34777330742025",['8'],nan
1441,19801441,Teilestrasse,bus,"52.459532250973275, 13.416011945127432",['25'],nan
1442,19801442,Teltower Damm,bus,"52.43504474561002, 13.2604425311939","['53', '10', '48']",nan
1443,19801443,Teltowerstrasse,bus,"52.52691807826059, 13.215807069988056","['80', '35', '54', '5', '31']",nan
1444,19801444,Tempelhof,u-bahn,"52.47075,13.385361111111",['6'],Q3983109
1445,19801445,Teplitzerstrasse,bus,"52.47742172086305, 13.280614366373369","['19', '29', '17']",nan
1446,19801446,Tessenowstrasse,bus,"52.581468218804446, 13.333934323213498",['14'],nan
1447,19801447,Tessenowstrasse,bus,"52.58312467969267, 13.34369397778962","['64', '22']",nan
1448,19801448,Theodor-Heuss-Platz,u-bahn,"52.509722222222,13.273055555556",['1'],Q657857
1449,19801449,Thielplatz,u-bahn,"52.451111111111,13.282222222222",['2'],Q571331
1450,19801450,Thuner Platz,bus,"52.42375896990032, 13.296184869051308","['85', '53']",nan
1451,19801451,Thälmannpark,strassenbahn,"52.47892424481545, 13.700128620727503",['S-Bhf. Friedrichshagen <> Alt-Rüdersdorf'],nan
1452,19801452,Thälmannplatz,strassenbahn,"52.4506321,13.7524501",['S-Bhf. Rahnsdorf <> Woltersdorfer Schleuse'],Q66977540
1453,19801453,Thälmannplatz,u-bahn,"52.51167,13.38472",['A'],Q658391
1454,19801454,Thälmannstrasse,bus,"52.534521264143414, 13.631328653858786",['44'],nan
1455,19801455,Tiefwerderweg,bus,"52.52622579438607, 13.207404522142175","['80', '31', '5']",nan
1456,19801456,Tiergarten,s-bahn,"52.5144,13.3365",['KBS 156'],Q572112
1457,19801457,Tiergartenstrasse,bus,"52.50960312444174, 13.351320889801638","['24', '69']",nan
1458,19801458,Tiergartenstrasse Philharmonie,bus,"52.51102178046428, 13.370519630861303",['48'],nan
1459,19801459,Tierpark,u-bahn,"52.4964,13.5233",['E'],Q570954
1460,19801460,Titlisweg,bus,"52.426161091698916, 13.394604025902328","['79', '76E', '7']",nan
1461,19801461,Togostrasse,bus,"52.548727226874426, 13.348697623450558",['89'],nan
1462,19801462,Torellplatz,strassenbahn,"52.4740761,13.7714228",['S-Bhf. Friedrichshagen <> Alt-Rüdersdorf'],Q66542827
1463,19801463,Torgauerstrasse,bus,"52.4795227196386, 13.360986924063544",['84'],nan
1464,19801464,Transvaalstrasse,bus,"52.55037720062858, 13.339088323376581",['64'],nan
1465,19801465,"Treptow, Eichenstrasse",bus,"52.49476666624515, 13.45313221364275",['47'],nan
1466,19801466,"Treptow, Rathaus",bus,"52.48358899866382, 13.480324760498638","['47', '64']",nan
1467,19801467,Treptower Park,s-bahn,"52.4938,13.4618","['KBS 141', 'KBS 115', 'KBS 142', 'KBS 110', 'KBS 140']",Q559274
1468,19801468,Treskowstrasse,bus,"52.511046206606444, 13.609443046363756",['44'],nan
1469,19801469,Treuenbrietzenerstrasse,bus,"52.59697943891828, 13.360514604920896",['62'],nan
1470,19801470,Triftstrasse,bus,"52.545286786567914, 13.208067563624326","['55', '97', '56']",nan
1471,19801471,Triftstrasse,bus,"52.5868287104656, 13.31626060378331",['22E'],nan
1472,19801472,Turmstrasse,bus,"52.52639995421508, 13.35171729538701","['1', '16', '70']",nan
1473,19801473,Turmstrasse,u-bahn,"52.52585,13.341352777778",['9'],Q571400
1474,19801474,Töpchiner Weg,bus,"52.399168263086516, 13.40989608834032",['79'],nan
1475,19801475,Türkenstrasse,bus,"52.55323092639771, 13.347123821003894",['12E'],nan
1476,19801476,U-Bhf. / S-Bhf Frankfurter Allee,strassenbahn,"52.5138037,13.4773772",['12'],Q65948557
1477,19801477,U-Bhf. Adenauerplatz,bus,"52.500003587932994, 13.307029882440569","['9', '19', '29', '69']",nan
1478,19801478,U-Bhf. Afrikanischestrasse,bus,"52.56057579527375, 13.334211042952221",['64'],nan
1479,19801479,U-Bhf. Alt-Mariendorf,bus,"52.440202628447636, 13.387296995844753","['79', '11', '81', '7', '76E']",nan
1480,19801480,U-Bhf. Alt-Tempelhof,bus,"52.46605569958676, 13.385580223225174",['65'],nan
1481,19801481,U-Bhf. Amrumerstrasse,bus,"52.542160623402594, 13.349499736078657","['16', '64']",nan
1482,19801482,U-Bhf. Berlinerstrasse,bus,"52.48735794384736, 13.331009160858803",['4'],nan
1483,19801483,U-Bhf. Blissestrasse,bus,"52.486416682006514, 13.320424476676541","['1', '60', '86', '4']",nan
1484,19801484,U-Bhf. Borsigwerke,bus,"52.58274564980193, 13.289777166884834",['13'],nan
1485,19801485,U-Bhf. Breitenbachplatz,bus,"52.46728214655765, 13.309329229574995","['1', '33']",nan
1486,19801486,U-Bhf. Bundesplatz,bus,"52.477862484073285, 13.328532721522553","['16', '86']",nan
1487,19801487,U-Bhf. Dahlem-Dorf,bus,"52.45807069736877, 13.289706947871178",['1'],nan
1488,19801488,U-Bhf. Dimitroffstrasse,strassenbahn,"52.5401928,13.4113979","['13', '22', '4', '21', '49', '70', '46']",Q65088313
1489,19801489,U-Bhf. Ernst-Reuter-Platz,bus,"52.51164603099566, 13.322290858670174","['62', '54']",nan
1490,19801490,U-Bhf. Ernst-Reuther-Platz,bus,"52.51150267804278, 13.322633697709716",['23'],nan
1491,19801491,U-Bhf. Fehrbelliner Platz,bus,"52.490390927187676, 13.31417745809863","['1', '50', '4']",nan
1492,19801492,U-Bhf. Friedrich-Wilhelm-Platz,bus,"52.47130766098046, 13.328385018588687","['2', '81', '86', '17', '25']",nan
1493,19801493,U-Bhf. Friedrichsfelde,bus,"52.50624112361932, 13.512853060220209","['35', '112', '54', '53', '43']",nan
1494,19801494,U-Bhf. Gesundbrunnen,bus,"52.54861944950301, 13.387947488953557","['61', '99']",nan
1495,19801495,U-Bhf. Gneisenaustrasse,bus,"52.491226587637556, 13.396327911797728",['24'],nan
1496,19801496,U-Bhf. Gneisenaustrasse/Zossenerstrasse,bus,"52.491588352868234, 13.394450821620072",['28'],nan
1497,19801497,U-Bhf. Grenzallee,bus,"52.46369510254238, 13.444231731166557",['41'],nan
1498,19801498,U-Bhf. Görlitzer Bhf.,bus,"52.499261603467374, 13.427938041332432",['75'],nan
1499,19801499,U-Bhf. Güntzelstrasse,bus,"52.49083931327762, 13.33088532083388",['50'],nan
1500,19801500,U-Bhf. Hallesches Tor,bus,"52.497910015148264, 13.391307667735301","['24', '41', '95']",nan
1501,19801501,U-Bhf. Hansaplatz,bus,"52.51815899892448, 13.341596502400384","['23', '16']",nan
1502,19801502,U-Bhf. Heidelberger Platz,bus,"52.48006162214815, 13.312159920359697",['60'],nan
1503,19801503,U-Bhf. Hohenzollernplatz,bus,"52.49379659973151, 13.323970282884028",['60'],nan
1504,19801504,U-Bhf. Holzhauserstrasse,bus,"52.57629487461772, 13.29476274492589","['22E', '13']",nan
1505,19801505,U-Bhf. Innsbrucker Platz,bus,"52.47854726935916, 13.343828571364293","['85', '16', '75', '48']",nan
1506,19801506,U-Bhf. Jakob-Kaiser-Platz,bus,"52.5366288023428, 13.293515323121461","['9', '23', '62', '21']",nan
1507,19801507,U-Bhf. Johannisthaler Ch.,bus,"52.4294376574813, 13.453342288959018",['52'],nan
1508,19801508,U-Bhf. Kaiserdamm,bus,"52.50999451351762, 13.28180313022396",['10'],nan
1509,19801509,U-Bhf. Karl-Marx-Strasse,bus,"52.476103832656094, 13.439462912520211",['4'],nan
1510,19801510,U-Bhf. Kleistpark,bus,"52.490870570920535, 13.360584287813918","['84', '75', '48']",nan
1511,19801511,U-Bhf. Kochstrasse/Friedrichstrasse,bus,"52.506473260691784, 13.390526623502058",['75'],nan
1512,19801512,U-Bhf. Konstanzerstrasse,bus,"52.49433736599178, 13.309351310646537",['1'],nan
1513,19801513,U-Bhf. Kottbusser Damm,bus,"52.49276489731471, 13.422245830499508",['41'],nan
1514,19801514,U-Bhf. Kottbusser Tor,bus,"52.499122758255055, 13.4182411702772","['41', '28']",nan
1515,19801515,U-Bhf. Krumme Lanke,bus,"52.44308074990891, 13.24046555211665","['53', '3']",nan
1516,19801516,U-Bhf. Kurfürstendamm,bus,"52.503774788766066, 13.33108911416442","['9', '19', '29', '69']",nan
1517,19801517,U-Bhf. Kurfürstenstrasse,bus,"52.49972761554077, 13.362749156897042","['84', '75', '48']",nan
1518,19801518,U-Bhf. Kurt-Schumacher-Platz,bus,"52.56338157214657, 13.32719915637487","['8', '62', '21']",nan
1519,19801519,U-Bhf. Leopoldplatz,bus,"52.54638728410018, 13.359182634014466","['12', '12E', '64']",nan
1520,19801520,U-Bhf. Magdalenenstrasse,bus,"52.512459802712385, 13.48733613628432","['30', '112']",nan
1521,19801521,U-Bhf. Marchlewskistrasse,bus,"52.51694156475367, 13.44263127423712","['34', '112']",nan
1522,19801522,U-Bhf. Mehringdamm,bus,"52.49515666726518, 13.389395498893041","['28', '19']",nan
1523,19801523,"U-Bhf. Mierendorffplatz""",bus,"52.525772786049906, 13.30604190365007",['89'],nan
1524,19801524,U-Bhf. Moritz-Platz,bus,"52.50364551269473, 13.410714750030955",['29'],nan
1525,19801525,U-Bhf. Moritzplatz,bus,"52.50366899509004, 13.41055755394872","['41', '75']",nan
1526,19801526,U-Bhf. Märkisches Museum,bus,"52.51269614729782, 13.411230303832852","['78'], ['79']","nan, nan"
1527,19801527,U-Bhf. Neu-Westend,bus,"52.51625397204876, 13.260832878941526",['4'],nan
1528,19801528,U-Bhf. Neukölln,bus,"52.46951739972892, 13.44165342826323",['65'],nan
1529,19801529,U-Bhf. Nollendorfplatz,bus,"52.49948296769738, 13.354123408432695","['16', '19']",nan
1530,19801530,U-Bhf. Onkel Toms Hütte,bus,"52.4507378741821, 13.253556704842808",['3'],nan
1531,19801531,U-Bhf. Oskar-Helene-Heim,bus,"52.450931264455825, 13.27065104602788","['11', '1', '60', '18']",nan
1532,19801532,U-Bhf. Osloerstrasse,bus,"52.55674549347816, 13.373720730785353","['89', '61', '16', '22', '14', '8']",nan
1533,19801533,U-Bhf. Pankow,bus,"52.56721533989539, 13.412199219637507","['55', '52', '50', '7', '33']",nan
1534,19801534,U-Bhf. Pankow,strassenbahn,"52.5596168,13.413232","['49', '46', '22']",Q65075426
1535,19801535,U-Bhf. Pankstrasse,bus,"52.55235444346452, 13.381505547044023","['61', '70', '99']",nan
1536,19801536,U-Bhf. Parchimer Allee,bus,"52.44566869961195, 13.44991915431808",['25'],nan
1537,19801537,U-Bhf. Platz der Luftbrücke,bus,"52.485530310741844, 13.386064080140601",['19'],nan
1538,19801538,U-Bhf. Prinzenstrasse/Gitschinerstrasse,bus,"52.49839229998216, 13.406007368523973",['28'],nan
1539,19801539,U-Bhf. Rathaus Steglitz,bus,"52.45573329628039, 13.321273988935921","['32', '88', '86', '85', '17', '48', '30']",nan
1540,19801540,U-Bhf. Richard-Wagner-Platz,bus,"52.51745457872731, 13.306577542724405","['87', '62', '54']",nan
1541,19801541,U-Bhf. Rohrdamm,bus,"52.53703278361051, 13.261339673843889","['23', '55', '10', '99']",nan
1542,19801542,U-Bhf. Rosa-Luxemburg-Platz,bus,"52.52863959971529, 13.410137756293498","['30', '40', '112']",nan
1543,19801543,U-Bhf. Rosa-Luxemburg-Platz,strassenbahn,"52.5286105,13.4104123","['11', '24', '15', '71', '20', '63', '28', '18', '72']",Q65690179
1544,19801544,U-Bhf. Rudow,bus,"52.416213329739314, 13.49532377011464","['41', '57']",nan
1545,19801545,U-Bhf. Ruhleben,bus,"52.52596833151868, 13.241478578696297","['80', '35', '54', '5', '31', '56']",nan
1546,19801546,U-Bhf. Rüdesheimer Platz,bus,"52.4720831087791, 13.314909778144818",['17'],nan
1547,19801547,U-Bhf. Scharnweberstrasse,bus,"52.56723085204371, 13.311435188438125","['61', '21']",nan
1548,19801548,U-Bhf. Schlesisches Tor,bus,"52.50108419874335, 13.441971259873345",['28'],nan
1549,19801549,U-Bhf. Schloßstrasse,bus,"52.46150696581942, 13.325033972730989","['86', '17', '48', '85', '33']",nan
1550,19801550,U-Bhf. Seestrasse,bus,"52.55034070697526, 13.35226808382855","['16', '12', '12E']",nan
1551,19801551,U-Bhf. Seestrasse/Müllerstrasse,bus,"52.5505075999816, 13.351976880647314",['89'],nan
1552,19801552,U-Bhf. Siemensdamm,bus,"52.53611103819574, 13.273983136736893",['55'],nan
1553,19801553,U-Bhf. Südstern,bus,"52.48911192041882, 13.407868588860385",['28'],nan
1554,19801554,U-Bhf. Tegel,bus,"52.589503132547385, 13.283630715732999","['13', '14']",nan
1555,19801555,U-Bhf. Tempelhof,bus,"52.4698750992553, 13.38558705982547",['28'],nan
1556,19801556,U-Bhf. Theodor-Heuss-Platz,bus,"52.50993781856294, 13.272721616652856","['94', '4']",nan
1557,19801557,U-Bhf. Thielplatz,bus,"52.45104520805668, 13.281736418792137",['10'],nan
1558,19801558,U-Bhf. Tierpark,bus,"52.497052283755544, 13.523844554479213","['53', '94', '96']",nan
1559,19801559,U-Bhf. Tierpark,strassenbahn,"52.4967571,13.5240205","['19', '17']",Q65952907
1560,19801560,U-Bhf. Turmstrasse,bus,"52.52632424312701, 13.341455452869354","['24', '70']",nan
1561,19801561,U-Bhf. Uhlandstr,bus,"52.50266739474818, 13.32600692857198",['29'],nan
1562,19801562,U-Bhf. Uhlandstrasse,bus,"52.50265361682102, 13.325826367165941","['9', '19']",nan
1563,19801563,U-Bhf. Ullsteinstrasse,bus,"52.45276305061907, 13.384476319893118",['25'],nan
1564,19801564,U-Bhf. Walther-Schreiber-Platz,bus,"52.46514662302568, 13.328471151123626","['2', '81', '86', '17', '48', '85']",nan
1565,19801565,U-Bhf. Westphalweg,bus,"52.4456019528536, 13.38577421076825",['33'],nan
1566,19801566,U-Bhf. Wilmersdorferstrasse,bus,"52.506721827024215, 13.306656576816529",['94'],nan
1567,19801567,U-Bhf. Wittenbergplatz,bus,"52.5021124880022, 13.343008123993497","['19', '29']",nan
1568,19801568,U-Bhf. Yorckstrasse,bus,"52.49242124762778, 13.372193355800784",['19'],nan
1569,19801569,U-Bhf. Zoologischer Garten,bus,"52.50655562209984, 13.331571936951352",['9'],nan
1570,19801570,U-Bhf. Zwickauer Damm,bus,"52.42316772174534, 13.484176739454373",['57'],nan
1571,19801571,U-Bhf. und S-Bhf. Frankfurter Allee,strassenbahn,"52.5138037,13.4773772",['29'],Q65948557
1572,19801572,Uckermarkstrasse,bus,"52.52145144349922, 13.596724604247981",['60'],nan
1573,19801573,Uhlandstrasse,bus,"52.491571072753835, 13.323282796881372",['50'],nan
1574,19801574,Uhlandstrasse,bus,"52.502546499590494, 13.325243276211499",[ '69'],nan
1575,19801575,Uhlandstrasse,bus,"52.50564070721389, 13.325771612497123","['60', '94']",nan
1576,19801576,Uhlandstrasse,u-bahn,"52.5025,13.325555555556",['3'],Q568224
1577,19801577,Ullsteinstrasse,u-bahn,"52.453775,13.384302777778",['6'],Q637870
1578,19801578,Uranusweg,bus,"52.56672979418403, 13.317113460331663",['61'],nan
1579,19801579,Urbanstrasse,bus,"52.49197792621568, 13.41266622804356",['28'],nan
1580,19801580,VEB Berlin-Chemie,bus,"52.43374828113537, 13.556312033894333",['23'],nan
1581,19801581,VEB Berlin-Chemie,strassenbahn,"52.42497560376408, 13.574846834399601",['86'],nan
1582,19801582,VEB Chemiehandel,strassenbahn,"52.49294832547379, 13.490882014435401","['13', '21']",nan
1583,19801583,VEB Kombinat Auto Trans,bus,"52.442947642563354, 13.519478957220752","['62', '67']",nan
1584,19801584,VEB Kühlbetrieb,strassenbahn,"52.43234955047839, 13.5713259913008",['86'],nan
1585,19801585,VEB Yachtwerft,strassenbahn,"52.434329403493905, 13.571443963074454","['85', '83']",nan
1586,19801586,Veltheimstrasse,bus,"52.62759786573184, 13.311367189403114",['12E'],nan
1587,19801587,Verwaltungsgebäude/Luftfracht,bus,"52.549474329146136, 13.2958149065511","['8', '9']",nan
1588,19801588,Veteranenstrasse,strassenbahn,"52.5324542,13.3974236","['11', '18']",Q65691740
1589,19801589,Viersenerstrasse,bus,"52.54020417705652, 13.17462661157195",['63'],nan
1590,19801590,Viktoria-Luise-Platz,u-bahn,"52.496161111111,13.342702777778",['4'],Q178685
1591,19801591,Voltastrasse,bus,"52.54009360944326, 13.384910258603504",['12'],nan
1592,19801592,Voltastrasse,u-bahn,"52.542093,13.393022",['8'],Q663308
1593,19801593,Von-Luck-Strasse/Waldfriedhof,bus,"52.4262240706232, 13.209821442748183",['18'],nan
1594,19801594,Waidmannslust,s-bahn,"52.6064,13.321",['KBS 152'],Q800492
1595,19801595,Waidmannslust Titiseestrasse,bus,"52.607542589578465, 13.332434343087694",['22'],nan
1596,19801596,Waldemarplatz,bus,"52.43775537029681, 13.220189780766606",['53'],nan
1597,19801597,"Waldesruh, Mahlsdorfer Allee",bus,"52.48493120102871, 13.629069441163518",['8'],nan
1598,19801598,Waldkrankenhaus,bus,"52.56214542863615, 13.158340085815741",['5'],nan
1599,19801599,Waldsassenerstrasse,bus,"52.4143173471343, 13.350270451685088",['2'],nan
1600,19801600,Waldschulallee,bus,"52.497158989372906, 13.270676981637067",['69'],nan
1601,19801601,Waldschänke,bus,"52.443318139967566, 13.68593963431219",['61'],nan
1602,19801602,Waldstrasse,strassenbahn,"52.4676099,13.6816293",['S-Bhf. Friedrichshagen <> Alt-Rüdersdorf'],Q66564213
1603,19801603,Waldstrasse/Beusselstrasse,bus,"52.527338860167596, 13.329619664250114","['24', '70']",nan
1604,19801604,Waltersdorf,bus,"52.36492901110609, 13.555712408051676",['38'],nan
1605,19801605,Waltersdorferstrasse,bus,"52.39008715591465, 13.57105538440934",['38'],nan
1606,19801606,Walther-Schreiber-Platz,u-bahn,"52.465,13.328333333333",['9'],Q638584
1607,19801607,Wannsee,s-bahn,"52.4214,13.1792",['KBS 156'],Q111325896
1608,19801608,Wannsee Kronprinzessinenweg,bus,"52.42152492609861, 13.178387058453414",['E'],nan
1609,19801609,"Wannsee, Heckeshorn",bus,"52.42864825809188, 13.160148959421024",['3'],nan
1610,19801610,"Wannsee, Kronprinzessinnenweg",bus,"52.4411639332932, 13.200183380526358",['6'],nan
1611,19801611,Wannseebadweg,bus,"52.43351551299246, 13.188784240790504",['3'],nan
1612,19801612,Warschauerstrasse,bus,"52.51249332448314, 13.452519593078852",['30'],nan
1613,19801613,Warschauerstrasse,s-bahn,"52.506416666667,13.450955555556","['KBS 105', 'KBS 100', 'KBS 101']",Q664036
1614,19801614,Warschauerstrasse (< Ostkreuz),s-bahn,"52.506416666667,13.450955555556","['KBS 115', 'KBS 110']",Q664036
1615,19801615,Warschauerstrasse (> Ostkreuz),s-bahn,"52.506416666667,13.450955555556",['KBS 143'],Q664036
1616,19801616,Wartenberg,bus,"52.58393195902164, 13.53076033685478",['39'],nan
1617,19801617,Wartenbergerstrasse,strassenbahn,"52.54997792803947, 13.508638273578374",['63'],nan
1618,19801618,Wasserwerk,strassenbahn,"52.4560563,13.6419956",['84'],Q66362601
1619,19801619,Wasserwerkstrasse,bus,"52.551200141985255, 13.165357254138527",['99'],nan
1620,19801620,Wedding,u-bahn,"52.5425,13.366111",['6'],Q4018733
1621,19801621,Wedding Seestrasse Ecke Müllerstrasse,bus,"52.55042543340308, 13.352060584573605",['65'],nan
1622,19801622,"Wedding, Bernauerstrasse",bus,"52.533431938489365, 13.387538792702415",['12'],nan
1623,19801623,"Wedding, Gartenplatz",bus,"52.538426352037945, 13.38427004139461",['99'],nan
1624,19801624,Weimarischestrasse,bus,"52.48174499330689, 13.324245601196424",['86'],nan
1625,19801625,Weinmeisterhornweg,bus,"52.51105433396469, 13.171566023241633","['34', '35']",nan
1626,19801626,Weitlingstrasse,bus,"52.500986592433065, 13.492951866603294","['30', '43', '96']",nan
1627,19801627,Weißenburgerstrasse,bus,"52.52295613288177, 13.197695661299617","['97', '34']",nan
1628,19801628,"Weißensee, Kniprodeallee",strassenbahn,"52.553706457055796, 13.480205618933208",['29'],nan
1629,19801629,Wenckebachstrasse,bus,"52.45642065391037, 13.38687461346832",['25'],nan
1630,19801630,Wendenschloß,strassenbahn,"52.4169658,13.5885926","['85', '83']",Q66363928
1631,19801631,Wendenschloßstrasse,bus,"52.442655291594335, 13.582139410088702",['68'],nan
1632,19801632,Wendenschloßstrasse,strassenbahn,"52.4429928,13.5812285","['85', '26', '19']",Q66095671
1633,19801633,Wendeschloßstrasse,strassenbahn,"52.4429928,13.5812285",['21'],Q66095671
1634,19801634,Werderstrasse,bus,"52.5674943907109, 13.210668052842317",['55'],nan
1635,19801635,Werderstrasse,bus,"52.56749721320509, 13.21066051385252",['97'],nan
1636,19801636,Werner-Voß-Damm,bus,"52.474803817354264, 13.373351427024476",['28'],nan
1637,19801637,Wernerbad,bus,"52.51776756999088, 13.607950781560175",['60'],nan
1638,19801638,Wesendorferstrasse,bus,"52.60240669023612, 13.360601977170118",['22'],nan
1639,19801639,Westerwaldstrasse Ecke Friedhof,bus,"52.54879742789418, 13.178111847328505",['5'],nan
1640,19801640,Westfälischestrasse,bus,"52.4914143974269, 13.312764727230915",['21'],nan
1641,19801641,Westkreuz,s-bahn,"52.5011,13.2839",['KBS 156'],Q678125
1642,19801642,Westpfahlweg,u-bahn,"52.446,13.386",['6'],Q554481
1643,19801643,Wiebestrasse,bus,"52.52836192631238, 13.319427597032998",['89'],nan
1644,19801644,Wiebestrasse,bus,"52.53119965708394, 13.319036797969872",['99'],nan
1645,19801645,Wiesbadenerstrasse,bus,"52.47166634857041, 13.319555192801733",['16'],nan
1646,19801646,Wiesenstrasse,bus,"52.54763571080132, 13.373871074090278",['70'],nan
1647,19801647,Wigandstalerstrasse,bus,"52.557841348022755, 13.444316939868218",['56'],nan
1648,19801648,Wildau,s-bahn,"52.32,13.634",['KBS 110'],Q8000974
1649,19801649,Wildenbruchstrasse,bus,"52.48168061196596, 13.440207216297969","['95', '41']",nan
1650,19801650,Wilhelm-Pieck-Strasse,strassenbahn,"52.52707063581861, 13.415631215243033","['71', '20', '72']",nan
1651,19801651,Wilhelm-von-Siemens-Strasse,bus,"52.429792720125704, 13.37594470957137",['11'],nan
1652,19801652,Wilhelminenhofstrasse,strassenbahn,"52.4619496,13.5139049","['26', '21', '17', '85', '25', '82']",Q65951882
1653,19801653,"Wilhelmplatz, Stölpchensee",bus,"52.41236829356413, 13.14172328787501",['18'],nan
1654,19801654,Wilhelmshagen,s-bahn,"52.4386,13.7222",['KBS 105'],Q800494
1655,19801655,Wilhelmshavenerstrasse,bus,"52.53419885556468, 13.341348025133906",['99'],nan
1656,19801656,Wilhelmsruh,s-bahn,"52.5814,13.3631",['KBS 152'],Q800495
1657,19801657,"Wilhelmsruh, Fontanestrasse",bus,"52.58985938767378, 13.361193570257216",['55'],nan
1658,19801658,"Wilhelmsruh, Schillerstrasse",bus,"52.58796525493634, 13.368781651322008",['45'],nan
1659,19801659,Wilhelmsruher Damm,bus,"52.59551552660595, 13.332999015865068","['15', '21']",nan
1660,19801660,Wilhelmsruher Damm,bus,"52.596205801718874, 13.34762199133628","['64', '22']",nan
1661,19801661,Wilhelmsruher Damm Märkisches Viertel,bus,"52.59729260630689, 13.366979940127635",['62'],nan
1662,19801662,Wilhelmsruher Damm/Dannenwalder Weg,bus,"52.59583314681562, 13.339335420597973",['21'],nan
1663,19801663,Wilhelmstrasse,bus,"52.51664808739734, 13.179091220360934","['97', '94']",nan
1664,19801664,Wilhelmstrasse,bus,"52.52023948410688, 13.187229515073357",['35'],nan
1665,19801665,Wilmersdorferstrasse,bus,"52.518132000433354, 13.304456282901954","['87', '62', '54']",nan
1666,19801666,Wilmersdorferstrasse,u-bahn,"52.506666666667,13.306666666667",['7'],Q570961
1667,19801667,Wilmsstrasse,bus,"52.4952693941617, 13.404256096296391",['28'],nan
1668,19801668,Wilsnackerstrasse,bus,"52.5264137617067, 13.35112240014536","['24', '70']",nan
1669,19801669,Winfriedstrasse,bus,"52.437562011852606, 13.269450173477841","['1', '3']",nan
1670,19801670,Winterfeldtplatz,bus,"52.4971288467199, 13.354505584700892",['50'],nan
1671,19801671,Wisbyerstrasse,strassenbahn,"52.55123112277014, 13.430148661628472","['70', '71', '20', '72']",nan
1672,19801672,Wismarerstrasse,bus,"52.41787922670112, 13.305204731626855",['96'],nan
1673,19801673,Wismarerstrasse,bus,"52.421950393867085, 13.29851729732983",['1'],nan
1674,19801674,Wittenau (Kremmener Bahn),s-bahn,"52.597013,13.334329",['KBS 153'],Q111264319
1675,19801675,Wittenau (Nordbahn),s-bahn,"52.597013,13.334329",['KBS 152'],Q111264319
1676,19801676,"Wittenau, Kirche",bus,"52.591905899244395, 13.326448092780083",['22E'],nan
1677,19801677,Wittenauerstrasse Märkisches Viertel,bus,"52.60819120392723, 13.347678200120097",['15'],nan
1678,19801678,Wittenbergplatz,bus,"52.50188939146253, 13.342697883756577","['85', '60']",nan
1679,19801679,Wittenbergplatz,u-bahn,"52.501944444444,13.343055555556","['1', '2', '3']",Q692727
1680,19801680,Wittestrasse,bus,"52.57907921385382, 13.299700250397306",['22E'],nan
1681,19801681,Wittstockerstrasse,bus,"52.531115594519704, 13.32853820383408","['23', '89']",nan
1682,19801682,Wolfmarsteig,bus,"52.41268952057738, 13.536602630335091",['23'],nan
1683,19801683,Wollankstrasse,s-bahn,"52.5651525,13.3923627","['KBS 153', 'KBS 152']",Q800515
1684,19801684,Wollankstrasse Ecke Kattegatstrasse,bus,"52.56387621569074, 13.392068310651014",['70'],nan
1685,19801685,Woltersdorfer Schleuse,strassenbahn,"52.4433344,13.7640061",['S-Bhf. Rahnsdorf <> Woltersdorfer Schleuse'],Q66977223
1686,19801686,Wongrowitzer Steig,strassenbahn,"52.4669377,13.5853227","['83', '82']",Q66370743
1687,19801687,Wrangelstrasse,bus,"52.45479114434816, 13.318948641992378",['48'],nan
1688,19801688,Wröhmännerpark,bus,"52.54211748904623, 13.205924363736663","['55', '54', '97', '34', '56']",nan
1689,19801689,Wuhlheide,s-bahn,"52.4689,13.5533",['KBS 105'],Q800514
1690,19801690,Wutzkyallee,u-bahn,"52.423333333333,13.475",['7'],Q571841
1691,19801691,Yorckstrasse,s-bahn,"52.491777777778,13.372141666667","['KBS 153', 'KBS 152']",Q21776729
1692,19801692,Yorckstrasse,u-bahn,"52.493056,13.370833",['7'],Q12011022
1693,19801693,Yorckstrasse/Rathaus Kreuzberg,bus,"52.49337476342669, 13.385163988079599",['28'],nan
1694,19801694,Zabel-Krüger-Damm,bus,"52.60786185548941, 13.323797129027561","['22', '12', '12E', '20']",nan
1695,19801695,Zechlinerstrasse,strassenbahn,"52.5339085,13.4869072","['11', '12']",Q65640302
1696,19801696,Zehlendorf Fischerhüttenstrasse Ecke Potsdamerstrasse,bus,"52.43576863248419, 13.256081644088367",['48'],nan
1697,19801697,"Zehlendorf-Süd, Sachtlebenstrasse Ecke Lupsteiner Weg",bus,"52.409524977970385, 13.251589761003336",['10'],nan
1698,19801698,Zeltinger Platz,bus,"52.63352687203223, 13.290367140035308","['15', '12', '12E']",nan
1699,19801699,Zentrale Baustelleneinrichtung,bus,"52.54079974556296, 13.569813432190266",['95'],nan
1700,19801700,Zentralfriedhof,bus,"52.5114796297305, 13.49681086445652",['93'],nan
1701,19801701,Zentralschule,bus,"52.43465069286089, 13.703692212644038",['61'],nan
1702,19801702,Zepernick (b Bernau),s-bahn,"52.6598,13.5342",['KBS 141'],Q801657
1703,19801703,"Zepernick, Kirche",bus,"52.65490229314837, 13.542260763377884",['51'],nan
1704,19801704,Zepernickerstrasse,bus,"52.6443665848066, 13.523488908135207",['51'],nan
1705,19801705,Zeppelinstrasse,bus,"52.538451336742675, 13.182353276958082","['63', '99', '5']",nan
1706,19801706,Zeppelinstrasse,bus,"52.54751662504669, 13.184596008811816",['34'],nan
1707,19801707,Zeuthen,s-bahn,"52.3486,13.6274","['KBS 141', 'KBS 110']",Q8069824
1708,19801708,Ziegrastrasse,bus,"52.472749919337474, 13.45812135865549",['95'],nan
1709,19801709,Ziekowstrasse,bus,"52.59058818991588, 13.292099427845228","['20', '14']",nan
1710,19801710,Zimmermannstrasse,bus,"52.486610959320956, 13.5603667983302",['35'],nan
1711,19801711,Zitadellenweg,bus,"52.537802386366685, 13.217246174628356",['55'],nan
1712,19801712,Zittauerstrasse,bus,"52.41331826449753, 13.488242487557203",['57'],nan
1713,19801713,"Zoo, Hardenbergplatz",bus,"52.507121394467354, 13.33326398937747","['23', '94', '62', '54']",nan
1714,19801714,Zoologischer Garten,s-bahn,"52.507222222222,13.3325",['KBS 156'],Q111326238
1715,19801715,Zoologischer Garten,u-bahn,"52.5058669,13.3330236","['9', '1']",Q4024764
1716,19801716,Zur Haveldüne,bus,"52.503143283950536, 13.179718395041126",['35'],nan
1717,19801717,Zur Zitadelle,bus,"52.53857973555156, 13.212956865853485",['55'],nan
1718,19801718,Zweibrückerstrasse,bus,"52.54677409100436, 13.188764018875105",['63'],nan
1719,19801719,Zweiwinkelweg,bus,"52.532774381217585, 13.148393051743144",['80'],nan
1720,19801720,Zwickauer Damm,bus,"52.42412841468055, 13.48547693484881",['41'],nan
1721,19801721,Zwickauer Damm,u-bahn,"52.423333333333,13.483888888889",['7'],Q572096
1722,19801722,Zwieselerstrasse,bus,"52.49612228648307, 13.540160888423404",['94'],nan
1723,19801723,zum Dorf Gatow,bus,"52.48199565682041, 13.166766484288239",['34E'],nan
