,stop_id,stop_name,type,location,in_lines,identifier
0,19670,4. Ring,bus,"52.42250630689789, 13.2869490566549",['A53'],nan
1,19671,Aalemannufer Ecke Nieder-Neuendorfer Allee,bus,"52.57329463126187, 13.21256579715856",['A97'],nan
2,19672,Adalbertstrasse,bus,"52.50548699996121, 13.42221404498021",['A18'],nan
3,19673,Adamstrasse Ecke Pichelsdorferstrasse,bus,"52.52107038475246, 13.197796510648292","['A34', 'A97']",nan
4,19674,Adamstrasse Ecke Wilhelmstrasse,bus,"52.5210974258045, 13.187990320264987",['A35'],nan
5,19675,Adenauerdamm (Messedamm),u-bahn,"52.51,13.2822",['1'],Q656409
6,19676,Adlershof,s-bahn,"52.434722222222,13.541388888889","['KBS 103', 'KBS 103a', 'KBS 106a', 'KBS 105']",Q323551
7,19677,Afrikanische Str. (Friedrich-Ebert-Siedlung),u-bahn,"52.560027777778,13.334633333333",['6'],Q559239
8,19678,Afrikanischestrasse Ecke Seestrasse,bus,"52.54623694310499, 13.343930832086308",['A89'],nan
9,19679,"Ahrensfeld, Kirche",bus,"52.57532170199278, 13.576515606968998",['A46'],nan
10,196710,Akademie der Wissenschaften,bus,"52.6361286884856, 13.501898618531815",['51B'],nan
11,196711,Alboinstrasse Ecke Prellerweg,bus,"52.45573169907433, 13.369923338330747",['A68'],nan
12,196712,Alexanderplatz,bus,"52.5219449,13.4143847",['A18'],Q65548996
13,196713,Alexanderplatz,s-bahn,"52.521388888889,13.411944444444","['KBS 103', 'KBS 102', 'KBS 101', 'KBS 103a']",Q111324700
14,196714,Alexanderplatz,u-bahn,"52.5214,13.4119","['A', 'E']",Q17173458
15,196715,"Alexanderplatz, Memhardstrasse",strassenbahn,"52.5233439,13.4110773",['69'],Q65227406
16,196716,Alexandrinenstrasse Ecke Neuenburgerstrasse,bus,"52.49949226647086, 13.400403454687233",['A24'],nan
17,196717,Almutstrasse Ecke Berliner Strasse,bus,"52.61486318631112, 13.31700949454557",['A12'],nan
18,196718,Alsenstrasse Ecke Bismarckstrasse,bus,"52.46375478831606, 13.331491421282983",['A81'],nan
19,196719,Alsenstrasse Ecke Feuerbachstrasse,bus,"52.46363778457808, 13.331097884872523",['A2'],nan
20,196720,"Alt-Biesdorf, Oberfeldstrasse",bus,"52.50918606891929, 13.553347058493491","['O37', 'A8', 'A8E']",",+nan"
21,196721,Alt-Buckow Ecke Buckower Damm,bus,"52.42365120067525, 13.436635949176258",['A91'],nan
22,196722,Alt-Friedrichsfelde Ecke Am Tierpark,strassenbahn,"52.50914093654053, 13.518129930582422","['69', '69E']",nan
23,196723,"Alt-Friedrichsfelde, Am Tierpark",bus,"52.5097025850849, 13.518832511815527","['A43', 'A8', 'O37', 'A8E']",nan
24,196724,Alt-Gatow Ecke Groß-Glienicker Weg,bus,"52.48312745096272, 13.182671167963997",['A34E'],nan
25,196725,Alt-Heiligensee,bus,"52.60616921042186, 13.210646859320935",['A14E'],nan
26,196726,Alt-Heiligensee Ecke Sandhauserstrasse,bus,"52.601746367041294, 13.21022269051491","['A14', 'A13']",nan
27,196727,Alt-Karow,bus,"52.60931228539711, 13.481265848599735",['A42'],nan
28,196728,Alt-Kladow Ecke Kladower Damm,bus,"52.453456955410275, 13.143930501157236","['A35E', 'A34', 'A35']",nan
29,196729,"Alt-Lankwitz, Dorfaue",bus,"52.43908382575332, 13.354417745001864",['A81'],nan
30,196730,Alt-Lichtenrade Ecke Goethestrasse,bus,"52.404390044430414, 13.406152459156118",['A82'],nan
31,196731,"Alt-Lichtenrade, Dorfaue",bus,"52.38972622915368, 13.409672538724415",['A82'],nan
32,196732,Alt-Mariendorf,u-bahn,"52.4391,13.3877",['6'],Q262168
33,196733,Alt-Mariendorf Ecke Mariendorfer Damm,bus,"52.4401947729646, 13.38731752606722","['A81', 'A76']","nan, nan"
34,196734,Alt-Marienfelde Ecke Marienfelderallee,bus,"52.41357787421618, 13.363330517921128",['A52'],nan
35,196735,Alt-Marienfelde Ecke Merienfelderallee,bus,"52.413416097126756, 13.363329246822346",['A11'],nan
36,196736,"Alt-Marzahn, Kirche",bus,"52.542423454435976, 13.564061751343658",['O37'],nan
37,196737,Alt-Moabit Ecke Gotzkowskystrasse,bus,"52.52377875537158, 13.329735095213607","['A90', 'A86']","nan, nan"
38,196738,Alt-Moabit Ecke Paulstrasse,bus,"52.52363146089112, 13.356876202729861",['A24'],nan
39,196739,Alt-Reinickendorf Ecke Rödern Allee,bus,"52.57586051212987, 13.347765981901512",['A72'],nan
40,196740,Alt-Schmöckwitz,strassenbahn,"52.3752767,13.649549",['86'],Q66459540
41,196741,Alt-Tempelhof,u-bahn,"52.465952777778,13.385897222222",['6'],Q559212
42,196742,Alt-Tempelhof Ecke Tempelhofer Damm,bus,"52.465964306830664, 13.38558297633417",['A68'],", ,+nan"
43,196743,Alt-Wittenau Ecke Eichborndamm,bus,"52.59187977745068, 13.32645957736823","['A21E', 'A21', 'A15']",nan
44,196744,Alt-Wittenau Ecke Oranienburgerstrasse,bus,"52.58969312574067, 13.334180930412149",['A62'],nan
45,196745,Altenheim Hottengrund,bus,"52.44892366863784, 13.114237745947817",['A35E'],nan
46,196746,Altglienicke,s-bahn,"52.4073,13.5588","['KBS 103a', 'KBS 106a']",Q4736651
47,196747,"Altglienicke, Kirche",bus,"52.421845729296805, 13.539407702079252",['A23'],nan
48,196748,"Altglienicke, Kirche",strassenbahn,"52.421845729296805, 13.539407702079252",['84'],nan
49,196749,"Altglienicke, Schönefelder Chaussee",bus,"52.41855858218425, 13.537270832952125",['A23'],nan
50,196750,Am Falkenberg,strassenbahn,"52.41079970042163, 13.570452931545786",['84'],nan
51,196751,Am Grossen Wannsee,bus,"52.420496581432594, 13.167192967572669","['A18', 'A51']",nan
52,196752,Am Großen Wannsee Ecke Königstrasse,bus,"52.420496581432594, 13.167192967572669","['A3', 'S4']",nan
53,196753,Am Karlsbad,bus,"52.505510534075455, 13.36801582264215",['A75'],nan
54,196754,Am Kupfergraben,strassenbahn,"52.5194208,13.3953839","['71', '46', '70']",Q65055027
55,196755,Am Nordhafen Ecke Tegelerstrasse,bus,"52.53843836936191, 13.362733894464787",['A90'],nan
56,196756,Am Ostbahnhof,strassenbahn,"52.509822387863856, 13.433731668419947","['74', '64']",nan
57,196757,Am Pilz,bus,"52.64251497264632, 13.300908054411988",['A15'],nan
58,196758,Am Rosenhag,bus,"52.52474356253909, 13.621775828105108","['A44', 'A44E']",nan
59,196759,Am Steinberg,bus,"52.55648144940878, 13.429306764151775","['A42', 'A45']",nan
60,196760,Am Treptower Park Ecke Elsenstrasse,strassenbahn,"52.4917648672198, 13.457703881892664",['87'],nan
61,196761,Am Vierrutenberg Ecke Zabel-Krüger-Damm,bus,"52.61351518095798, 13.343830308232075",['A20'],nan
62,196762,Amrumer Str. (Rudolf-Virchow-Krankenhaus),u-bahn,"52.5425,13.350277777778",['9'],Q557577
63,196763,Amtsgericht,bus,"52.50682617853116, 13.297391449613752","['S4', 'A10', 'A94']",nan
64,196764,Amtsgericht Charlottenburg,bus,"52.50571853839105, 13.295347400894903",['A21'],nan
65,196765,Anhalter Bahnhof,s-bahn,"52.503055555556,13.381944444444","['KBS 100c', 'KBS 100e', 'KBS 100d']",Q111324573
66,196766,Antonplatz,strassenbahn,"52.5484803,13.4517416","['72', '70', '73', '74', '3']",Q65548849
67,196767,Argentinische Allee Ecke Fischerhüttenstrasse,bus,"52.44271134249338, 13.24015363503932",['A53'],nan
68,196768,Arkonaplatz,bus,"52.53753415367688, 13.401767623579223",['A16'],nan
69,196769,Arnimallee,bus,"52.45789378609326, 13.299570204130864",['A68'],nan
70,196770,Arnimstrasse Ecke Wartenbergerstrasse,bus,"52.55810653253893, 13.515860697561052",['A39'],nan
71,196771,Aroser Allee Ecke Lindauer Allee,bus,"52.57376073698464, 13.351849623815717",['A61'],nan
72,196772,Aroser Allee Ecke Lindauerallee,bus,"52.57375413056441, 13.35199910931917",['A14'],nan
73,196773,Aroserallee Ecke Lindauerstrasse,bus,"52.573749285365245, 13.352042648195372",['A12'],nan
74,196774,Askanierring Ecke Falkenhagener Strasse,bus,"52.54891706140618, 13.193495587303872",['A34'],nan
75,196775,Askanischer Platz,bus,"52.50447897041404, 13.382295467838158","['A29', 'A24', 'A75']",nan
76,196776,Attilaplatz,bus,"52.45590179888225, 13.376512495751076","['A68', 'A96', 'A25']",nan
77,196777,Attilastrasse Ecke Röblingstrasse,bus,"52.449663028361556, 13.36685930870775",['A76'],nan
78,196778,Augsburger Str.,u-bahn,"52.500556,13.336389",['2'],Q667035
79,196779,"Augsburger Strasse, Nürnbergerstrasse",bus,"52.49970883880637, 13.335701419592034",['A60'],nan
80,196780,Auguste-Viktoria-Allee Ecke Ollenhauerstrasse,bus,"52.56923715909806, 13.32990334068821",['A62'],nan
81,196781,Bachwitzerstrasse,bus,"52.46917849053893, 13.573556288694116",['A27'],nan
82,196782,Badeweg,bus,"52.432234568429315, 13.186697604364635",['A3'],nan
83,196783,Badstrasse Ecke Pankstrasse,bus,"52.55228517646218, 13.381466318985984",['A70'],nan
84,196784,Bahnhof Friedrichstr. (Stadtbahn),u-bahn,"52.520111111111,13.388305555556",['6'],Q3753274
85,196785,Bahnhof Lichtenberg,u-bahn,"52.510556,13.496389",['E'],Q3831986
86,196786,Bahnhof Wedding,u-bahn,"52.5425,13.366111",['6'],Q4018733
87,196787,Bahnhofstrasse Ecke Lindenstrasse,bus,"52.45096281111, 13.572146868709519",['A27'],nan
88,196788,Bahnhofstrasse Ecke Lindenstrasse,strassenbahn,"52.4505094,13.572684","['84', '87']",Q66095701
89,196789,Baumschulenstrasse Ecke Köpenicker Landstrasse,strassenbahn,"52.46911904990173, 13.491364972283247","['95', '92']",nan
90,196790,Baumschulenstrasse Ecke Südostallee,bus,"52.46095841731415, 13.481191835004426",['A47'],nan
91,196791,Baumschulenweg,s-bahn,"52.4675,13.489722","['KBS 105', 'KBS 103', 'KBS 106a', 'KBS 103a', 'KBS 106']",Q324336
92,196792,Bautzener Strasse Ecke Yorckstrasse,bus,"52.49265331044414, 13.370954942054576",['A19'],nan
93,196793,Bayerischer Platz,u-bahn,"52.488333333333,13.340277777778",['4'],Q668574
94,196794,Bayerischestrasse Ecke Wittelsbacherstrasse,bus,"52.38562264698316, 13.425045729828712",['A82'],nan
95,196795,Beeskowdamm Ecke Goerz Allee,bus,"52.40988367033843, 13.273529095833517",['A1'],nan
96,196796,Behring-Krankenhaus,bus,"52.42410894567823, 13.251764544509987",['A10'],nan
97,196797,Bellevue,s-bahn,"52.52,13.348055555556","['KBS 100g', 'KBS 100h']",Q374018
98,196798,Belßstrasse Ecke Malteserstrasse,bus,"52.42913175860308, 13.354643221492394",['A83'],nan
99,196799,Belßstrasse Ecke Prezsingstrasse,bus,"52.42719439887323, 13.365896909537325",['A83'],nan
100,1967100,Benschallee Ecke Potsdamer Chaussee,bus,"52.429638035873005, 13.22393270091056",['A3'],nan
101,1967101,Benzolwerk,strassenbahn,"52.426414690299055, 13.546444409734137",['84'],nan
102,1967102,Bergfelde (b Bln),s-bahn,"52.6702,13.3203",['KBS 104'],Q4891640
103,1967103,Bergiusstrasse Ecke Haberstrasse,bus,"52.46212669746215, 13.460655911149994",['A77'],nan
104,1967104,Bergstrasse Ecke Bismarckstrasse,bus,"52.45863817204511, 13.33931462421719","['A2', 'A81']",",+nan"
105,1967105,Bergstrasse Ecke Thorwaldstrasse,bus,"52.45911303271541, 13.348433992418155",['A83'],nan
106,1967106,Berkaer Strasse,bus,"52.48209270683341, 13.281182952838728",['A29'],nan
107,1967107,Berliner Strasse Ecke Bundesallee,bus,"52.48735367071187, 13.33100210517226","['A2', 'A25']",nan
108,1967108,Berliner Strasse Ecke Joachimstalerstrasse,bus,"52.487347586247154, 13.330990285702837",['A81'],nan
109,1967109,Berliner Strasse Ecke Suermondtstrasse,strassenbahn,"52.54900402056681, 13.501740363652805",['70'],nan
110,1967110,Berlinerstrasse Ecke Uhlandstrasse,bus,"52.48647342676964, 13.322501516518328",['A60'],nan
111,1967111,Berlinerstrasse Ecke Unter den Eichen,bus,"52.441846111591126, 13.282724569565573",['A10'],nan
112,1967112,Berlinickeplatz,bus,"52.46607292094852, 13.378516406213421","['A73', 'A96']",nan
113,1967113,Berlinickestrasse Ecke Albrechtstrasse,bus,"52.45613384482348, 13.323889347619627",['A33'],nan
114,1967114,Bernau (b Bln),s-bahn,"52.6763,13.5931",['KBS 106'],Q479789
115,1967115,Bernauer Strasse,bus,"52.576296962865115, 13.294692406253237",['A13'],nan
116,1967116,Bernauer Strasse Ecke Brunnenstrasse,bus,"52.53829556916397, 13.396023771544826",['A71'],nan
117,1967117,Bernauerstrasse Ecke Brunnenstrasse,bus,"52.53825328973879, 13.395985620128378",['A61'],nan
118,1967118,Bersarinplatz,strassenbahn,"52.519215,13.4525257","['13', '4']",Q65706258
119,1967119,Betriebsbahnhof Rummelsburg,s-bahn,"52.4939,13.4978",['KBS 102'],Q829009
120,1967120,Betriebsbahnhof Schöneweide,s-bahn,"52.44676,13.52391","['KBS 103', 'KBS 103a', 'KBS 106a', 'KBS 105']",Q4526101
121,1967121,Beusselstr.,s-bahn,"52.534444444444,13.329166666667","['KBS 100a', 'KBS 100']",Q323219
122,1967122,Beusselstrasse Ecke Huttenstrasse,bus,"52.52738721932152, 13.32862287455893",['A70'],nan
123,1967123,Bhf. Frankfurter Allee,strassenbahn,"52.5138037,13.4773772",['3'],Q65948557
124,1967124,Bhf. Friedrichstrasse,bus,"52.5205606637086, 13.388231915342985","['A18', 'A57', 'A59']",nan
125,1967125,Bhf. Friedrichstrasse,strassenbahn,"52.5192805,13.3884107","['71', '46', '70']",Q65095382
126,1967126,Bhf. Gesundbrunnen,bus,"52.548738600413905, 13.387745851632966","['A71', 'A61']",nan
127,1967127,Bhf. Hermsdorf,bus,"52.61953939324446, 13.30416069232153",['A15'],nan
128,1967128,Bhf. Hohenzollerndamm,bus,"52.48832716566947, 13.301436926268025",['A21'],nan
129,1967129,"Bhf. Kaulsdorf, Bausdorfstrasse",bus,"52.513154384485595, 13.590937789889518",['A49'],nan
130,1967130,Bhf. Lichtenberg,bus,"52.5112875601879, 13.499591119128855","['O37', 'O30']",nan
131,1967131,Bhf. Lichtenberg,strassenbahn,"52.5123603,13.4977547","['69', '69E']",Q66013733
132,1967132,Bhf. Lindenthaler Allee,bus,"52.43102570943782, 13.229881678326638",['A3'],nan
133,1967133,Bhf. Schönefeld,bus,"52.38192403313463, 13.511545079208773",['A36'],nan
134,1967134,Bhf. Schöneweide,bus,"52.45374952013775, 13.510200397684477","['A48', 'A47', 'A26']",nan
135,1967135,Bhf. Schöneweide,strassenbahn,"52.45640818289644, 13.509916574756422","['87', '95', '92', '69', '69E', '85']",nan
136,1967136,Bhf. Tempelhof,bus,"52.47084694496318, 13.385638120230526",['A68'],nan
137,1967137,Bhf. Wannsee,bus,"52.42151302311533, 13.17810256503659","['A3', 'A6', 'A51', 'S4']",nan
138,1967138,Bhf. Wollankstrasse,bus,"52.56453849178735, 13.393420272477442",['A70'],nan
139,1967139,Bhf. Zoo,bus,"52.506232782829265, 13.332362081097921",['A73'],nan
140,1967140,"Bhf. Zoo, Hardenbergplatz",bus,"52.506961767508, 13.333080958799588","['A85', 'A81', 'A94', 'S1', 'A90']",nan
141,1967141,"Bhf. Zoo, Jebensstrasse",bus,"52.50784698878806, 13.332089989862661",['A25'],nan
142,1967142,Biesdorf,s-bahn,"52.5131,13.5554",['KBS 101'],Q4892357
143,1967143,"Biesdorf, Köpenickerstrasse",bus,"52.486590045773035, 13.5603645828476","['A8', 'A8E']",nan
144,1967144,Birkbuschstrasse Ecke Siemensstrasse,bus,"52.4424390398498, 13.332082171164004",['A86'],nan
145,1967145,Birkenstr.,u-bahn,"52.532222222222,13.341388888889",['9'],Q555998
146,1967146,Birkenstrasse Ecke Perlebergerstrasse,bus,"52.530805568196136, 13.34719740444367",['A16'],nan
147,1967147,Birkenwerder,s-bahn,"52.6885,13.2888",['KBS 104'],Q2343634
148,1967148,Bismarckplatz,bus,"52.492064537089135, 13.28493897027407",['A29'],nan
149,1967149,Bismarckstrasse Ecke Bergstrasse,bus,"52.45863794281251, 13.339298022918376","['A68', 'A75']",nan
150,1967150,Bismarckstrasse Ecke Feuerbachstrasse,bus,"52.46451202484802, 13.338933433636415",['A76'],nan
151,1967151,Bismarckstrasse Ecke Steglitzer Damm,bus,"52.45103871422625, 13.337949524239141",['A81'],"nan, nan"
152,1967152,Björnsonstrasse,strassenbahn,"52.5544232,13.4030585",['3'],Q65920495
153,1967153,Blankenburg,s-bahn,"52.5915,13.4435","['KBS 104', 'KBS 105', 'KBS 106']",Q800469
154,1967154,"Blankenburg, Bahnhofstrasse",bus,"52.591380472079955, 13.453512267562314",['A42'],nan
155,1967155,"Blankenfelde, Hauptstrasse",bus,"52.63002534735451, 13.38262328371393","['A7', 'A7E']",nan
156,1967156,Blaschkoallee,u-bahn,"52.451944444444,13.449444444444",['7'],Q666911
157,1967157,Blaschkoallee Ecke Buschkrugallee,bus,"52.45253617529973, 13.452185710736664",['A67'],nan
158,1967158,Blissestrasse Ecke Mecklenburgische Strasse,bus,"52.4837144745883, 13.320301749435618",['A60'],nan
159,1967159,Blohmstrasse Ecke Illigstrasse,bus,"52.389006433128735, 13.385624567347648","['A82', 'A76']",nan
160,1967160,Blumenstrasse,strassenbahn,"52.44907887643158, 13.760106955990562",['S-Bhf. Rahnsdorf <> Woltersdorfer Schleuse (VEB Woltersdorf)'],nan
161,1967161,Boddinstr.,u-bahn,"52.48,13.425277777778",['8'],Q819495
162,1967162,Boelckestrasse Ecke Manteuffelstrasse,bus,"52.46864305363662, 13.37789068899136",['A28'],nan
163,1967163,"Bohnsdorf, Kirche",bus,"52.39948771402893, 13.555574431978044",['A36'],nan
164,1967164,"Bohnsdorf, Waldstrasse",bus,"52.389397192754984, 13.570666562153916",['AD/38'],nan
165,1967165,Bonhoeffer Nervenklinik,bus,"52.57804915259495, 13.332858932266909",['A14'],nan
166,1967166,Bonhoeffer-Heim,bus,"52.57940412664757, 13.33327468081513",['A62'],nan
167,1967167,Borgsdorf,s-bahn,"52.7155,13.2764",['KBS 104'],Q4093486
168,1967168,Bornholmer Strasse,strassenbahn,"52.5537705,13.4138898",['49'],nan
169,1967169,Bornholmerstrasse Ecke Schönhauser Allee,strassenbahn,"52.5537705,13.4138898","""['22', '46']""",Q65076842
170,1967170,"Bornholmerstrasse, Sektorengrenze",bus,"52.5549426407197, 13.395363798814545",['A89'],nan
171,1967171,Borsigwerke,u-bahn,"52.5819,13.2907",['6'],Q525185
172,1967172,Borussenstrasse Ecke Kronprizessinnen Weg,bus,"52.42987973140939, 13.185060134093185",['A3'],nan
173,1967173,Boschpolerstrasse,bus,"52.5281225944603, 13.548869333486577",['O37'],nan
174,1967174,Botanischer Garten,bus,"52.458598799471524, 13.303436055459807","['A1', 'A68']",nan
175,1967175,Botanischer Garten,s-bahn,"52.44806,13.30722",['KBS 100e'],Q800498
176,1967176,Boxhagenerstrasse Ecke Holteistrasse,bus,"52.508613193309614, 13.466277189422302",['O30'],nan
177,1967177,Brandenburgischestrasse Ecke Blissestrasse,bus,"52.48649713854125, 13.320383969408674",['A89'],nan
178,1967178,Breite Strasse Ecke Albrechtstrasse,bus,"52.45435057367761, 13.328307509759025",['A68'],nan
179,1967179,Breitenbachplatz,bus,"52.467219717443385, 13.309473490660878","['A1', 'A32', 'A16']",nan
180,1967180,Breitenbachplatz,u-bahn,"52.466388888889,13.308055555556",['2'],Q571339
181,1967181,Breitenbachstrasse Ecke Eichborndamm,bus,"52.57783789535704, 13.314837431368987","['A21', 'A15']",nan
182,1967182,Breitscheidplatz,bus,"52.504438063129996, 13.33564615707506","['A29', 'A60', 'A19']",nan
183,1967183,Bristolstrasse Ecke Barfusstrasse,bus,"52.55830888506821, 13.35117447644734",['A12'],nan
184,1967184,Britz-Süd,u-bahn,"52.437777777778,13.448055555556",['7'],Q571845
185,1967185,Britzer Damm Ecke Gradestrasse,bus,"52.45262467877224, 13.438590226068557",['A73'],nan
186,1967186,Britzer Damm Ecke Tempelhofer Weg,bus,"52.44894113315902, 13.436220481040927",['A25'],"nan+nan, nan"
187,1967187,Britzerstrasse Ecke Schnellerstrasse,strassenbahn,"52.4540779482888, 13.519339810644082",['92'],nan
188,1967188,Brixplatz,bus,"52.51907944117457, 13.25699370576959",['A4'],nan
189,1967189,Brunnenplatz,bus,"52.54967231813887, 13.377205988834362",['A99'],nan
190,1967190,Brunnenstrasse,strassenbahn,"52.5324542,13.3974236","['46', '70']",Q65691740
191,1967191,Brunnenstrasse Ecke Lortzingstrasse,bus,"52.542546240732094, 13.392728124104385",['A99'],nan
192,1967192,Brückenstrasse,strassenbahn,"52.4586564,13.5121185",['85'],Q65951869
193,1967193,Buch,s-bahn,"52.6359,13.4917",['KBS 106'],Q4892359
194,1967194,"Buch, Kiesgruben",bus,"52.641758052786535, 13.515964627443202",['A42'],nan
195,1967195,"Buchholz, Hauptstrasse",strassenbahn,"52.619072064369824, 13.393383358408967",['49'],nan
196,1967196,Buckower Ch.,s-bahn,"52.4103,13.3829",['KBS 100c'],Q800499
197,1967197,Buckower Chaussee Ecke Lichtenrader Damm,bus,"52.41457113222887, 13.401203951196644",['A76'],nan
198,1967198,Buckower Damm Ecke Alt-Buchow,bus,"52.423661044192706, 13.436628244110853",['A52'],nan
199,1967199,Buckower Damm Ecke Alt-Buckow,bus,"52.42364382786418, 13.436660506458884",['A78'],nan
200,1967200,Buckower Damm Ecke Britzer Damm,bus,"52.444174114112364, 13.43362519576455",['A98'],nan
201,1967201,Buckower Friedhof,bus,"52.42151537347778, 13.43036950960343",['A52'],nan
202,1967202,Bundes Allee Ecke Lietzenburgerstrasse,bus,"52.50049288481701, 13.330833764347265",['A60'],nan
203,1967203,Bundesallee Ecke Badenische Strasse,bus,"52.48613795045858, 13.33110029774997",['A4'],nan
204,1967204,Bundesallee Ecke Berliner Strasse,bus,"52.487321004799746, 13.331012834110986","['A85', 'A89', 'A74']",nan
205,1967205,Bundesallee Ecke Rheinstrasse,bus,"52.46493423553767, 13.328438507021911","['A48', 'A84']",nan
206,1967206,Bundesallee Ecke Trautenaustrasse,bus,"52.49316625279048, 13.330879553185573",['A50'],nan
207,1967207,Bundesplatz,bus,"52.478678991134835, 13.32860278411238","['A2', 'A25', 'A86', 'A85', 'A81', 'A16', 'A65']",nan
208,1967208,Buschallee,strassenbahn,"52.5537598,13.4691966","['72', '74', '73']",Q65546661
209,1967209,Buschallee Ecke Klement-Gottwald-Allee,bus,"52.55387173520125, 13.467543412166556",['A46'],nan
210,1967210,Buschallee Ecke Klement-Gottwald-Allee,strassenbahn,"52.5537598,13.4691966",['70'],Q65546661
211,1967211,Buschkrug Alle Ecke Blaschko-Allee,bus,"52.452543995347135, 13.452160354904555",['A73'],nan
212,1967212,"Bölschestrasse, Brauerei",strassenbahn,"52.44699265840037, 13.624251999339991","['84', '87']",nan
213,1967213,Bühler Weg Ecke Marienfelder Chaussee,bus,"52.4172962327419, 13.412931562438606",['A52'],nan
214,1967214,Bülowstr.,u-bahn,"52.497552777778,13.363419444444",['2'],Q374881
215,1967215,Bülowstrasse Ecke Potsdamer Strasse,bus,"52.49785436286328, 13.362010881893301",['A19'],"nan, nan"
216,1967216,Bürgerwäldchen,strassenbahn,"52.4893741,13.6064139",['83'],Q66364551
217,1967217,Bürknersfelde,bus,"52.538889807153126, 13.534159376784622","['A43', 'O37']",nan
218,1967218,Carl-Schurz-Strasse Ecke Am Juliusturm,bus,"52.539564379064075, 13.205586144912843",['A55'],nan
219,1967219,Carl-Schurz-Strasse Ecke Neuendorfer Strasse,bus,"52.54010263102275, 13.203987462586664",['A13'],nan
220,1967220,Carl-Schurz-Strasse Ecke Seegefelder Strasse,bus,"52.535117236377395, 13.199792702923848",['A99'],nan
221,1967221,Cauerstrasse Ecke Otto-Suhr-Allee,bus,"52.514698471098995, 13.315230316194386","['A55', 'A54', 'S1']",nan
222,1967222,Cauerstrasse Ecke Wilmersdorferstrasse,bus,"52.514688043406586, 13.31517213109502",['A86'],nan
223,1967223,Charlottenburg,s-bahn,"52.504722222222,13.303333333333","['KBS 100g', 'KBS 100k', 'KBS 100h']",Q111326217
224,1967224,Charlottenstrasse Ecke Französische Straße,bus,"52.51487005089368, 13.391123259408321",['A18'],nan
225,1967225,Chausseehaus,bus,"52.430090871325774, 13.614694292071622",['A27'],nan
226,1967226,Chausseestrasse,strassenbahn,"52.53061984499073, 13.383042789757935","['82', '70']",nan
227,1967227,Chemische Fabrik,strassenbahn,"52.42696432509712, 13.573540465650169",['86'],nan
228,1967228,Chemnitzer Strasse Ecke Alt-Kaulsdorf,bus,"52.505156423214295, 13.58155740370254",['A27'],nan
229,1967229,Clayallee Ecke Berliner Strasse,bus,"52.435061281531794, 13.260469051198768",['A66'],nan
230,1967230,Clayallee Ecke Königin-Luise-Strasse,bus,"52.46044681153186, 13.274898269312029","['A1', 'A68']",nan
231,1967231,Colomierstrasse,bus,"52.42928675585897, 13.164090298875724",['A51'],nan
232,1967232,Columbiadamm Ecke Friesenstrasse,bus,"52.483967865507275, 13.39436897076973",['A24'],nan
233,1967233,Corrensplatz,bus,"52.446014012041694, 13.284264679815902",['A11'],nan
234,1967234,Cyclopstrasse,bus,"52.60208376924525, 13.32483857919441",['A12'],nan
235,1967235,Cyclopstrasse Ecke Oranienburger Strasse,bus,"52.59742743850453, 13.33252389138792",['A15'],nan
236,1967236,Cyclopstrasse Ecke Waidmannsluster Damm,bus,"52.607017376341744, 13.319760309798667",['A20'],nan
237,1967237,DRK-Krankenhaus,bus,"52.518781388043045, 13.276192594126243",['A21'],nan
238,1967238,Dahlem-Dorf,u-bahn,"52.456944444444,13.289444444444",['2'],Q668585
239,1967239,Dahlemer Weg Ecke Berlinerstrasse,bus,"52.44190080868025, 13.282765635681413",['A48'],nan
240,1967240,Dahlemer Weg Ecke Seehofstrasse,bus,"52.42635119855681, 13.276835963403045",['A53'],nan
241,1967241,Daimlerstrasse Ecke Großbeerenstrasse,bus,"52.42629029622166, 13.374388470163575",['A11'],nan
242,1967242,Dammweg Ecke Sonnenallee,bus,"52.470259476139645, 13.46464808061061",['A67'],nan
243,1967243,Daumstrasse,bus,"52.540609965802126, 13.232264733228831",['A13'],nan
244,1967244,Degnerstrasse,strassenbahn,"52.54488036635163, 13.493949954029993","['63', '64']",nan
245,1967245,Detmolder Strasse Ecke Blissestrasse,bus,"52.47876002753526, 13.320303638716377",['A1'],nan
246,1967246,Deutsche Oper (Bismarckstr.),u-bahn,"52.511944444444,13.310555555556","['1', '5']",Q869501
247,1967247,Deutsche Staatsoper,bus,"52.51738792599121, 13.39467182238642","['A57', 'A9']",nan
248,1967248,Deutschlandhalle,bus,"52.49962817740136, 13.26898769147191",['A69'],nan
249,1967249,Diepensee,bus,"52.300569220227956, 13.588920019126693",['AD/38'],nan
250,1967250,Dimitroffstr.,u-bahn,"52.541666666667,13.412222222222",['A'],Q571382
251,1967251,Dimitroffstrasse Ecke Landsberger Allee,strassenbahn,"52.5264303512303, 13.447596791543624","['63', '64', '69', '69E']",nan
252,1967252,Dimitroffstrasse vor Cotheniusstrasse,bus,"52.52774513816488, 13.446205246642096","['O37', 'A54']",nan
253,1967253,Dingelstädterstrasse Ecke Landsberger Chaussee,bus,"52.535876725188466, 13.521913733051441",['O37'],nan
254,1967254,Dirschelweg Ecke Rixdorferstrasse,bus,"52.44494236616937, 13.400130144681569",['A33'],nan
255,1967255,Dohlengrund,bus,"52.49817919031105, 13.56339788185001","['A8', 'A8E']",nan
256,1967256,Dominicusstrasse Ecke Hauptstrasse,bus,"52.48180071652041, 13.348377997983935","['A84', 'A75']",nan
257,1967257,Dominikus-Krankenhaus,bus,"52.626196524368744, 13.294495665499268",['A15'],nan
258,1967258,Donnersmarckplatz,bus,"52.62982465046043, 13.28047497184123","['A12', 'A15']",nan
259,1967259,"Doppel-Süd, Berlepschstrasse",bus,"52.42115284920077, 13.226688767210124",['A66'],nan
260,1967260,Dorfaue,strassenbahn,"52.478869891771325, 13.700379205739726","['S-Bhf. Friedrichshagen <> Rüdersdorf, Karl-Marx-Platz (VEB Schöneiche-Rüdersdorf)']",nan
261,1967261,Drakestrasse Ecke Ringstrasse,bus,"52.43979507204022, 13.300191166543234",['A85'],nan
262,1967262,Drakestrasse Ecke Unter den Eichen,bus,"52.44573233334527, 13.293697221399606",['A48'],nan
263,1967263,Drontheimer Strasse Ecke Osloer Strasse,bus,"52.55646891407764, 13.377008238722954",['A89'],nan
264,1967264,Dudenstrasse Ecke Katsbachstrasse,bus,"52.48502833238191, 13.376557682735372",['A28'],nan
265,1967265,Dönhoffplatz,strassenbahn,"52.509950568117645, 13.398144081918815","['74', '64']",nan
266,1967266,Düppel-Kleinmachnow,s-bahn,"52.421388888889,13.226666666667",['KBS 100f'],Q44763529
267,1967267,Ebersstrasse Ecke Dominicusstrasse,bus,"52.48014768414275, 13.352146382023703",['A73'],nan
268,1967268,Ebersstrasse Ecke Hauptstrasse,bus,"52.47846766815311, 13.344150314712941",['A84'],nan
269,1967269,Eberswalderstrasse Ecke Oderberger Strasse,strassenbahn,"52.54061076763243, 13.404559930731686",['4'],",+nan"
270,1967270,Ebertystrasse Ecke Leninallee,bus,"52.52722237261361, 13.450799684654514",['O30'],nan
271,1967271,Edelweißstrasse,bus,"52.58637603770021, 13.367525194816494",['A58'],nan
272,1967272,Edisonstrasse,strassenbahn,"52.4619496,13.5139049","['95', '85']",Q65951882
273,1967273,Efeuweg Ecke Rudowerstrasse,bus,"52.42964561846981, 13.477987920622757",['A52'],nan
274,1967274,Egelingzeile,bus,"52.46361812486443, 13.369990724217713",['A74'],nan
275,1967275,Ehrenmal,bus,"52.57958419912971, 13.375974716701414",['A58'],nan
276,1967276,Eichbornstr.,s-bahn,"52.5776,13.3169",['KBS 100c'],Q800500
277,1967277,Eichenauer Weg Ecke Waßmannsdorfer Chaussee,bus,"52.41260921019956, 13.495104515339074",['A93'],nan
278,1967278,Eichendamm,strassenbahn,"52.45567448233044, 13.730971293129528",['S-Bhf. Rahnsdorf <> Woltersdorfer Schleuse (VEB Woltersdorf)'],nan
279,1967279,Eichkamp,s-bahn,"52.4987,13.2702",['KBS 100g'],Q800504
280,1967280,"Eichkamp, Dauerwaldweg",bus,"52.48939301356019, 13.260627757415762",['A69'],nan
281,1967281,Eichwalde,s-bahn,"52.3715,13.6152","['KBS 103', 'KBS 105']",Q19274479
282,1967282,Eisenacherstrasse Ecke Rixdorferstrasse,bus,"52.446751756007316, 13.401953294390218",['A77'],nan
283,1967283,Elisabethstrasse,bus,"52.53409533705918, 13.55949915809485",['O37'],nan
284,1967284,Elsenstrasse Ecke Am Treptower Park,strassenbahn,"52.49175632207382, 13.457757874335021",['95'],nan
285,1967285,Elsterplatz,bus,"52.47977982878401, 13.285507613099716","['S3', 'A10']",nan
286,1967286,Elsässer Strasse,bus,"52.63337294510061, 13.345103420124245",['A7'],nan
287,1967287,Emmentaler Strasse Ecke Aroserallee,bus,"52.56751501366963, 13.351181437925797",['A12'],nan
288,1967288,Englerallee,bus,"52.46177802552459, 13.304473295414123",['A16'],nan
289,1967289,Erkner,s-bahn,"52.4296,13.7513",['KBS 102'],Q14434071
290,1967290,Erkstrasse Ecke Sonnenallee,bus,"52.481673740100334, 13.440111510727606","['A95', 'A67']",nan
291,1967291,Ernst-Reuter-Platz,bus,"52.511591823135106, 13.322571528312595","['A86', 'A55', 'S1', 'A90', 'A54']",nan
292,1967292,Ernst-Reuter-Platz,u-bahn,"52.511944444444,13.322222222222",['1'],Q658361
293,1967293,Ernststrasse Ecke Conradstrasse,bus,"52.58313229442085, 13.300014110893347",['A15'],nan
294,1967294,Eythstrasse,bus,"52.45972284347706, 13.366428299506616",['A74'],nan
295,1967295,Fahlenbergstrasse Ecke Fürstenwalder Allee,bus,"52.431470149043314, 13.718708856639706",['A22'],nan
296,1967296,Falkenberger Chaussee Ecke Wartenbergerstrasse,bus,"52.56529727326355, 13.512555070093129",['A39'],nan
297,1967297,Falkenbergerstrasse Ecke Wartenberger Strasse,strassenbahn,"52.55036672097044, 13.509915032138812",['63'],nan
298,1967298,Falkenhöhe,bus,"52.400507029940435, 13.538229483128243",['A23'],nan
299,1967299,Falkenplatz,bus,"52.58490937545724, 13.227619925618022","['A14E', 'A20']",nan
300,1967300,Falkenseer Chaussee,bus,"52.54750354783305, 13.184668062763297",['A5'],nan
301,1967301,Falkenseer Platz,bus,"52.54045617500718, 13.203419756102146",['A97'],nan
302,1967302,Fasanenstrasse,strassenbahn,"52.45303125634222, 13.744280675634114",['S-Bhf. Rahnsdorf <> Woltersdorfer Schleuse (VEB Woltersdorf)'],nan
303,1967303,Fehrbelliner Platz,bus,"52.49040638965375, 13.314204217177087","['S3', 'A86', 'A74']",nan
304,1967304,Fehrbelliner Platz,u-bahn,"52.490277777778,13.314444444444",['2'],Q663245
305,1967305,Feldtmannstrasse,bus,"52.56401588379611, 13.46980857664685",['A46'],nan
306,1967306,Fennstrasse Ecke Tegeler Strasse,bus,"52.537921114358255, 13.361618236551074",['A16'],nan
307,1967307,Feuerbachstr.,s-bahn,"52.463611111111,13.332777777778",['KBS 100e'],Q800501
308,1967308,"Fichtenau, Post",bus,"52.46613931662864, 13.69970161365516",['A22'],nan
309,1967309,Fichtestrasse Ecke Schopenhauerstrasse,bus,"52.47979924975105, 13.617292306977053",['A8'],nan
310,1967310,Finisterwegstrasse Ecke Eichhorster Weg,bus,"52.600017149962646, 13.341231608668739",['A21E'],nan
311,1967311,Florastrasse Ecke Mühlenstrasse,bus,"52.56537665983281, 13.406540628376627","['A7', 'A7E']",nan
312,1967312,Flughafen,bus,"52.470965141866394, 13.385641462324475","['A24', 'A19']",nan
313,1967313,"Flughafen, Dudenstrasse",bus,"52.48503275411409, 13.385962279255633",['A96'],nan
314,1967314,Fontanestrasse,bus,"52.58985938767378, 13.361193570257216",['A58'],nan
315,1967315,Forckenbeckstrasse Ecke Hohenzollern Damm,bus,"52.48220863581305, 13.290056603491559",['A50'],nan
316,1967316,Frankfurter Allee,s-bahn,"52.514166666667,13.474722222222","['KBS 104', 'KBS 105', 'KBS 106a', 'KBS 106']",Q111250033
317,1967317,Frankfurter Allee,u-bahn,"52.513638888889,13.475694444444",['E'],Q3752007
318,1967318,Frankfurter Tor,strassenbahn,"52.5153903,13.4540172","['13', '4']",Q65706246+nan
319,1967319,Frankfurter Tor,u-bahn,"52.515833333333,13.454166666667",['E'],Q568627
320,1967320,Französische Strasse,bus,"52.51479530644954, 13.389211606710221",['A59'],nan
321,1967321,Fredersdorf (b Bln),s-bahn,"52.5265,13.7625",['KBS 101'],Q15197387
322,1967322,Freie Scholle,bus,"52.599851537868666, 13.301736158422598",['A20'],nan
323,1967323,Freiheitsweg,bus,"52.589234484667436, 13.241140559071075",['A20'],nan
324,1967324,Friedenau,s-bahn,"52.47,13.341",['KBS 100e'],Q800471
325,1967325,Friedenstrasse,bus,"52.417223782342035, 13.138950169993388",['A6'],nan
326,1967326,Friedhof Rudow,bus,"52.42113122136662, 13.503199151482875",['A52'],nan
327,1967327,Friedrich-Junge-Strasse,bus,"52.49382897072681, 13.471572865851856",['82P'],nan
328,1967328,Friedrich-Wilhelm-Platz,bus,"52.47128806242274, 13.328362126543809","['A85', 'A2', 'A81', 'A17']",nan
329,1967329,Friedrichsfelde,u-bahn,"52.506111111111,13.512777777778",['E'],Q429781
330,1967330,Friedrichsfelde Ost,s-bahn,"52.5141,13.5198",['KBS 101'],Q800473
331,1967331,"Friedrichsfelde, Kirche",bus,"52.50577533937467, 13.51929256964204",['A43/R'],nan
332,1967332,Friedrichshagen,s-bahn,"52.4574,13.6233",['KBS 102'],Q800474
333,1967333,"Friedrichshagen, Wasserwerk",strassenbahn,"52.4560563,13.6419956",['84'],Q66362601
334,1967334,Friedrichstr.,s-bahn,"52.52027777777778,13.386944444444444","['KBS 100e', 'KBS 103', 'KBS 102', 'KBS 100d', 'KBS 103a', 'KBS 101', 'KBS 100g', 'KBS 100c', 'KBS 100h']",Q111219456
335,1967335,Friedrichstrasse,strassenbahn,"52.52636080908775, 13.387195555518279",['73'],nan
336,1967336,Friedrichstrasse Ecke Leipzigerstrasse,strassenbahn,"52.5103602362092, 13.38989950699694",['74'],nan
337,1967337,Friedrichstrasse Ecke Oranienburgerstrasse,strassenbahn,"52.52631681862265, 13.387235637634488",['63'],nan
338,1967338,Friedrichstrasse Ecke Unter den Linden,bus,"52.51718498081941, 13.388821428784585",['A9'],nan
339,1967339,Friesenstrasse Ecke Columbiadamm,bus,"52.483955843943605, 13.394382269747895",['A4'],nan
340,1967340,Frohnau,s-bahn,"52.6325,13.2902",['KBS 100e'],Q800472
341,1967341,"Frohnau, Invalidensiedlung",bus,"52.65584641928224, 13.29035792910375",['A15'],nan
342,1967342,Fulhamer Allee Ecke Britzer Damm,bus,"52.448878464010086, 13.436183255895306",['A98'],nan
343,1967343,Funk- und Fernmeldeanlage,bus,"52.53373620475704, 13.45293949300804",['A54'],nan
344,1967344,Fürstenbrunner Weg Ecke Spandauer Damm,bus,"52.518396624484495, 13.280157372712454",['S1'],nan
345,1967345,Fürstenbrücker Weg Ecke Spandauer Damm,bus,"52.5183878692519, 13.280136079939087",['A54'],nan
346,1967346,Gabelung,bus,"52.59988612656876, 13.25204128545515",['A13'],nan
347,1967347,Galenusstrasse,strassenbahn,"52.5818183,13.4287678",['49'],Q66195410
348,1967348,Gardeschützweg Ecke Drakestrasse,bus,"52.442684572040875, 13.296960881807697",['A11'],nan
349,1967349,Gartenfeld,bus,"52.54719055045343, 13.247793329242997",['A72'],nan
350,1967350,Gartenfeld,s-bahn,"52.54695,13.24882",['KBS 100b'],Q96080469
351,1967351,Gartenfelderstrasse Ecke Nonnendamm Allee,bus,"52.53935038939542, 13.232299966570043",['A99'],nan
352,1967352,"Gartenplatz, Feldstrasse",bus,"52.538565896675905, 13.384005277447793",['A61'],nan
353,1967353,Gartenstadtweg,bus,"52.412313913821045, 13.56660267841369",['A36'],nan
354,1967354,Gartenstrasse,bus,"52.393046080600556, 13.525019920565521",['A36'],nan
355,1967355,Gartenstrasse Ecke Bernauer Strasse,bus,"52.53347451941179, 13.387474124225042",['A12'],nan
356,1967356,Gartenstrasse Ecke Grenzstrasse,bus,"52.54185206233087, 13.37811062641435",['A90'],nan
357,1967357,"Gatow, Kirche",bus,"52.48684680676539, 13.18215147844503","['A34', 'A35']",nan
358,1967358,Gatowerstrasse Ecke Heerstrasse,bus,"52.515507342099255, 13.184724533784886","['A97', 'A94']",nan
359,1967359,Geflügelsteig Ecke Waßmannsdorfer Chaussee,bus,"52.40508365805597, 13.490662511011623",['A93'],nan
360,1967360,Gehringstrasse Ecke Gustav-Adolf-Strasse,bus,"52.56275859809491, 13.459295673933369",['A56'],nan
361,1967361,"Gemendefriedhof, Sandhauserstrasse",bus,"52.59818221881567, 13.215760951164746",['A14E'],nan
362,1967362,Genslerstrasse Ecke Landsberger Chaussee,bus,"52.53424371338384, 13.497144364141604",['O37'],nan
363,1967363,Georgenstrasse,bus,"52.59393880946394, 13.461615249578552",['A42'],nan
364,1967364,Gerichtstrasse Ecke Reinickdorferstrasse,bus,"52.544655572455056, 13.37015484428947",['A70'],nan
365,1967365,Gerlindeweg Ecke Friederikestrasse,bus,"52.57564385703113, 13.228964845529648",['A20'],nan
366,1967366,Germaniastrasse Ecke Gottlieb-Dunkel-Strasse,bus,"52.46053987437175, 13.418058888486561",['A77'],nan
367,1967367,Gesundbrunnen,s-bahn,"52.548611111111,13.389444444444","['KBS 100e', 'KBS 100', 'KBS 100d', 'KBS 100a', 'KBS 100c']",Q111239092
368,1967368,Gesundbrunnen,u-bahn,"52.548611,13.389444",['8'],Q3761416
369,1967369,Gleisdreieck,u-bahn,"52.49952,13.37409","['1', '2']",Q678372
370,1967370,"Glienicke, Kirche",bus,"52.63062737184449, 13.312861916755343",['A7'],nan
371,1967371,Glienicker Brücke,bus,"52.413474089031965, 13.091235881924467",['A6'],nan
372,1967372,Gneisenaustr.,u-bahn,"52.491388888889,13.395555555556",['7'],Q668618
373,1967373,Gneisenaustrasse Ecke Zossener Strasse,bus,"52.49150139774128, 13.394363809880979",['A24'],nan
374,1967374,Goebelplatz,bus,"52.53812718171093, 13.27991414794248","['A88', 'A65']",nan
375,1967375,Goeben-/Pallasstrasse,bus,"52.49428616497335, 13.361054367554111",['A48'],nan
376,1967376,Goebenstrasse Ecke Bülowstrasse,bus,"52.49368573285283, 13.365626511428971",['A50'],nan
377,1967377,Goethestrasse,strassenbahn,"52.455545765090996, 13.726377148130858",['S-Bhf. Rahnsdorf <> Woltersdorfer Schleuse (VEB Woltersdorf)'],nan
378,1967378,Goethestrasse Ecke Lichtenrader Damm,bus,"52.40441062653864, 13.406187362835603",['A76'],nan
379,1967379,Gorkistrasse Ecke Ziekowstrasse,bus,"52.59056318133497, 13.291987805164116",['A15'],nan
380,1967380,Gotenstrasse Ecke Torgauerstrasse,bus,"52.47978046569568, 13.360192355820017",['A84'],nan
381,1967381,Gottlieb-Dunkel-Strasse Ecke Germaniastrasse,bus,"52.46056887553805, 13.417975404195007",['A25'],nan
382,1967382,Gottlieb-Dunkel-Strasse Ecke Tempelhofer Weg,bus,"52.460486783559624, 13.417983924217406",['A73'],nan
383,1967383,Gotzkowskybrücke,bus,"52.52381238362036, 13.329729120795239",['A25'],nan
384,1967384,Gotzkowskystrasse Ecke Turmstrasse,bus,"52.52721970192428, 13.330570000205638",['A24'],nan
385,1967385,Gradestrasse Ecke Britzer Damm,bus,"52.45263961788979, 13.438591133769236",['A91'],nan
386,1967386,Gradestrasse Ecke Tempelhofer Weg,bus,"52.45251671233648, 13.433095008561997",['A41'],nan
387,1967387,Grazer Platz,bus,"52.467636991817486, 13.347565807885369","['A25', 'A83']",nan
388,1967388,Greifswalder Str.,s-bahn,"52.539722222222,13.439444444444","['KBS 104', 'KBS 105', 'KBS 106a', 'KBS 106']",Q439246
389,1967389,Greifswalder Strasse,bus,"52.53002871375482, 13.62681794411932",['A44'],nan
390,1967390,Greifswalder Strasse,strassenbahn,"52.5364975,13.4334045","['13', '4']",Q65548960
391,1967391,Greifswalderstrasse Ecke Dimitroffstrasse,bus,"52.5362177572407, 13.433017500945247",['O30'],nan
392,1967392,Greifswalderstrasse Ecke Dimitroffstrasse,strassenbahn,"52.5362177572407, 13.433017500945247","['74', '73']",nan
393,1967393,Grenzallee,u-bahn,"52.463333333333,13.443888888889",['7'],Q571836
394,1967394,Grenzstrasse Ecke Gerichtstrasse,bus,"52.54184212950556, 13.378109860859437",['A12'],nan
395,1967395,Grottkauer Strasse,bus,"52.52796238368814, 13.600805280630896",['A49'],nan
396,1967396,Groß-Ziethen Chaussee Ecke Geflügelsteig,bus,"52.410449978823245, 13.479461090562964",['A93'],nan
397,1967397,Großbeerenstrasse Ecke Rathausstrasse,bus,"52.43922302452444, 13.381635581140028",['A76'],nan
398,1967398,Großer Stern,bus,"52.514524715463295, 13.349933192922938","['A69', 'A16']",nan
399,1967399,Großglienicker Weg Ecke Alt-Gatow,bus,"52.483142310313184, 13.182647371223625",['A34'],nan
400,1967400,Großgörschenstr.,s-bahn,"52.4922745,13.3678588",['KBS 100e'],Q21776726
401,1967401,Grunewald,s-bahn,"52.4892,13.2614",['KBS 100h'],Q457266
402,1967402,"Grunewald, Fontanestrasse",bus,"52.48728923056679, 13.263800173256355",['A17'],nan
403,1967403,Grunewaldstrasse Ecke Martin-Luther-Strasse,bus,"52.489052179432406, 13.345015381967391","['A73', 'A85']",nan
404,1967404,Grünau,s-bahn,"52.4122,13.5746","['KBS 103', 'KBS 105']",Q111307258
405,1967405,Grünbergallee,s-bahn,"52.3992,13.5416","['KBS 103a', 'KBS 106a']",Q5612896
406,1967406,Grünberger Strasse,strassenbahn,"52.5122359,13.452609",['4'],Q65706239
407,1967407,Grüner Weg Ecke Buschkrug Allee,bus,"52.442742512360894, 13.45624531425605","['A25', 'A41']",nan
408,1967408,Grüner Weg Ecke Rudowerstrasse,bus,"52.4425522506782, 13.456415556255154",['A98'],nan
409,1967409,Gustav-Adolf-Strasse (Spitze),bus,"52.55176158018091, 13.43041791967386",['A56'],nan
410,1967410,Gutschmidtstrasse Ecke Buckower Damm,bus,"52.44037172323985, 13.434787185803776",['A91'],nan
411,1967411,Gutshof,bus,"52.47510904064348, 13.120710540203262",['A34'],nan
412,1967412,Görlitzer Bahnhof (Oranienstr.),u-bahn,"52.4992,13.428",['1'],Q597759
413,1967413,Göttingerstrasse Ecke Thorwaldstrasse,bus,"52.46150160290846, 13.344891217129746",['A76'],nan
414,1967414,Güteraußenring,bus,"52.599887239389226, 13.469297130431492",['A42'],nan
415,1967415,Hackescher Markt,strassenbahn,"52.522700593509725, 13.4016058636435214","['63', '72', '73', '49', '69', '71']",Q65094590+nan
416,1967416,Hafenplatz,bus,"52.50392083524772, 13.375479875476426",['A24'],nan
417,1967417,Hagenplatz,bus,"52.483382973651, 13.265818700272884","['A19', 'A17']",nan
418,1967418,Hainbuchenstrasse Ecke Kastanienallee,bus,"52.63439314334195, 13.27475571542677",['A12'],nan
419,1967419,Hakenfelde,bus,"52.56835274068237, 13.211131344773793","['A55', 'A56']",nan
420,1967420,Halensee,s-bahn,"52.4961,13.2906","['KBS 100k', 'KBS 100']",Q800476
421,1967421,Halker Zeile Ecke Goethestrasse,bus,"52.403335589722886, 13.398635859179036",['A82'],nan
422,1967422,Hallesches Tor,u-bahn,"52.497777777778,13.391111111111","['1', '6']",Q658302
423,1967423,Hamburger Platz,bus,"52.555394187589414, 13.438973139463632","['A45', 'A56']",nan
424,1967424,Handjeryplatz,bus,"52.45147898949029, 13.335310144661493",['A33'],nan
425,1967425,Hans-Beimler-Strasse,strassenbahn,"52.5255473,13.4202755","['63', '82']",Q65548984
426,1967426,"Hans-Loch-Strasse, Schule",bus,"52.50035514453336, 13.495736526544988",['A43'],nan
427,1967427,Hansaplatz,bus,"52.5179343319099, 13.342038193257153","['A25', 'A16']",nan
428,1967428,Hansaplatz,u-bahn,"52.517777777778,13.342222222222",['9'],Q287552
429,1967429,Hardenbergplatz,bus,"52.50706777810132, 13.333173024250815","['A2', 'S3', 'A62', 'S4']",nan
430,1967430,"Haselhorst, Kirche",bus,"52.5468281751583, 13.237065889883622",['A10'],nan
431,1967431,Hatzfeldtallee,bus,"52.59133642369986, 13.286579893431492",['A20'],nan
432,1967432,Hauptstrasse (Schöneberg),bus,"52.48187232227649, 13.348270377910302",['A74'],nan
433,1967433,Hauptstrasse Ecke Dominicusstrasse,bus,"52.48178377611229, 13.348418210727631","['A73', 'A4']",",+nan"
434,1967434,Hauptstrasse Ecke Edelweißstrasse,bus,"52.586379262142074, 13.36752938856218",['A45'],nan
435,1967435,Hausvogteiplatz,u-bahn,"52.513055555556,13.396666666667",['A'],Q656523
436,1967436,Havelblick,bus,"52.60198867886582, 13.210115307087476",['A14E'],nan
437,1967437,Havensteinstrasse Ecke Gallwitzstrasse,bus,"52.43195312312966, 13.3463631737626",['A2'],nan
438,1967438,Heckerdamm Ecke Kurt-Schumacher-Damm,bus,"52.53965198850567, 13.294861918704688","['A62', 'A21']",nan
439,1967439,Heckmannufer,bus,"52.49706082077895, 13.44923941809119",['A28'],nan
440,1967440,Heerstr.,s-bahn,"52.5086,13.2586",['KBS 100g'],Q800502
441,1967441,Heerstrasse Ecke Gatower Strasse,bus,"52.51550447615084, 13.18456806294143",['A34'],nan
442,1967442,Heerstrasse Ecke Gatowerstrasse,bus,"52.51550760464865, 13.184621162825296",['A35'],nan
443,1967443,Heerstrasse Ecke Wilhelmstrasse,bus,"52.51662457723462, 13.179022303033726",['A13'],nan
444,1967444,Hegelschule,strassenbahn,"52.4505094,13.572684",['82'],nan
445,1967445,Heidebergplan,bus,"52.541074133887626, 13.147338727333166",['A31'],nan
446,1967446,Heidelberger Platz,u-bahn,"52.479808333333,13.313236111111",['2'],Q21777872
447,1967447,Heidestrasse Ecke Fennstrasse,bus,"52.537317719730325, 13.360293228836",['A83'],nan
448,1967448,Heiligensee,s-bahn,"52.6247,13.2292",['KBS 100c'],Q800475
449,1967449,Heiligenseestrasse Ecke Konradshöherstrasse,bus,"52.59988428638746, 13.252027577947842",['A20'],nan
450,1967450,Heiligenseestrasse Ecke Ruppiner Chaussee,bus,"52.597949130907885, 13.275081276624867",['A14'],nan
451,1967451,"Heinersdorf, Kirche",bus,"52.56826376476754, 13.440601903603064",['A42'],nan
452,1967452,"Heinersdorf, Kirche",strassenbahn,"52.5686908,13.4389053",['71'],Q65096107
453,1967453,Heinrich-Duncker-Strasse Ecke Ehrlichstrasse,strassenbahn,"52.4789566,13.5234316",['82'],Q65951921
454,1967454,Heinrich-Mann-Platz,bus,"52.57297246262195, 13.392146133350426","['A58', 'A45']",nan
455,1967455,Heinrich-Seidel-Strasse Ecke Steglitzer Damm,bus,"52.450217757778894, 13.345089010113751",['A33'],nan
456,1967456,Hennigsdorf (b Bln),s-bahn,"52.638,13.2057",['KBS 104d'],Q800909
457,1967457,Hennigsdorf Nord,s-bahn,"52.66,13.2033",['KBS 104d'],Q685717
458,1967458,Henriettenplatz,bus,"52.49701780222877, 13.290339505649852","['A19', 'A69', 'A29', 'A10', 'A4']",nan
459,1967459,Hermannplatz,bus,"52.48778872855567, 13.425393480017616","['A95', 'A91', 'A75', 'A67']",nan
460,1967460,Hermannplatz,u-bahn,"52.48629,13.42455","['7', '8']",Q658929
461,1967461,Hermannstr.,s-bahn,"52.4675,13.431111111111","['KBS 100k', 'KBS 100']",Q111263802
462,1967462,Hermannstrasse Ecke Marienfelderweg,bus,"52.46471384570865, 13.43287129557611",['A77'],nan
463,1967463,Hermannstrasse Ecke Silbersteinstrasse,bus,"52.46644333425963, 13.43195484694859",['A65'],nan
464,1967464,Hermsdorf,s-bahn,"52.6178,13.3069",['KBS 100e'],Q263189
465,1967465,Hermsdorfer Damm Ecke Berlinerstrasse,bus,"52.62242631668916, 13.312891819525612",['A12'],nan
466,1967466,Hermsdorfer Damm Ecke Karolinenstrasse,bus,"52.596782782505926, 13.276626902280602",['A15'],nan
467,1967467,Hertzbergplatz,bus,"52.477487105395774, 13.448598156816837",['A67'],nan
468,1967468,Herzbergstrasse,bus,"52.52658888540259, 13.490778333520318",['O30'],nan
469,1967469,Herzbergstrasse,strassenbahn,"52.52637,13.499036","['69', '69E']",Q65684891
470,1967470,"Hessenwinkel, Lutherstrasse",bus,"52.430136769038455, 13.730987779637607",['A22'],nan
471,1967471,Hildburghauser Strasse,bus,"52.416650746748985, 13.338144038711128",['A11'],nan
472,1967472,Hildegardstrasse,bus,"52.48185906011362, 13.320391438761659",['A86'],nan
473,1967473,Hindenburgdamm Ecke Schloßstrasse,bus,"52.45348906650797, 13.315603621183495","['A48', 'A86']",nan
474,1967474,Hindenburgdamm Ecke Schloßstrasse,bus,"52.45482739529113, 13.319015180210053",['A85'],nan
475,1967475,Hirschgarten,s-bahn,"52.4579,13.6032",['KBS 102'],Q4892435
476,1967476,Hirschgarten,strassenbahn,"52.4518533,13.6006245","['84', '87']",Q66360740
477,1967477,Hochgerichtstrasse,bus,"52.53838037062423, 13.183009198076522",['A99'],nan
478,1967478,Hochgerichtstrasse Ecke Seegefelder Strasse,bus,"52.53843535472048, 13.182393702550534",['A63'],nan
479,1967479,Hochmeisterplatz,bus,"52.49468637986547, 13.301254684721862",['A4'],nan
480,1967480,Hochschule für Ökonomie,strassenbahn,"52.4927681,13.5266059","['69', '69E']",Q65952866
481,1967481,Hohen Neuendorf (b Bln),s-bahn,"52.6684,13.287",['KBS 104'],Q4500489
482,1967482,"Hohenschönhausen, Falkenberger Strasse",bus,"52.550229554941964, 13.509585042301534",['A39'],nan
483,1967483,"Hohenschönhausen, Falkenberger Strasse",strassenbahn,"52.5508672,13.5094994","['70', '64']",Q65555882
484,1967484,"Hohenschönhausen, Gartenstadt",strassenbahn,"52.5508672,13.5094994",['63'],Q65555882
485,1967485,Hohenschönhauser Strasse,strassenbahn,"52.5359329,13.4729468",['3'],Q65553684
486,1967486,Hohenschöpping,s-bahn,"52.67,13.1945",['KBS 104d'],Q19274489
487,1967487,Hohenzollern Damm Ecke Uhlandstrasse,bus,"52.49366945632458, 13.323583672017973",['A60'],nan
488,1967488,Hohenzollerndamm,s-bahn,"52.4885,13.3004","['KBS 100k', 'KBS 100']",Q800503
489,1967489,Hohenzollerndamm Ecke Stadtautobahn,bus,"52.48792295982247, 13.300561105734886",['A65'],nan
490,1967490,Hohenzollernplatz,u-bahn,"52.493888888889,13.325",['2'],Q571570
491,1967491,Hohenzollernring Ecke Neundorfer Allee,bus,"52.55568592197242, 13.207536855131076","['A55', 'A56']",nan
492,1967492,Hohenzollernring Ecke Neundorferstrasse,bus,"52.55571754174146, 13.207546522672192",['A97'],nan
493,1967493,Hohenzollernring Ecke Schönwalderstrasse,bus,"52.55533190780674, 13.198609053537405","['A54', 'S1']",nan
494,1967494,Holteistrasse Ecke Boxhagenerstrasse,strassenbahn,"52.5088235,13.465969","['13', '3']","Q65675805, Q65675805"
495,1967495,Holtheimer Weg,bus,"52.40993443198323, 13.3033907179267",['A85'],nan
496,1967496,Holzhauser Str.,u-bahn,"52.575833333333,13.296111111111",['6'],Q557566
497,1967497,Holzhauser Strasse Ecke Eichborndamm,bus,"52.587492803887756, 13.323896704888602",['A15'],nan
498,1967498,Hoppegarten (Mark),s-bahn,"52.5183,13.6734",['KBS 101'],Q15197357
499,1967499,Hottengrund,bus,"52.44597765000425, 13.126251393745859",['A35'],nan
500,1967500,Hultschiner Damm,bus,"52.47711373957008, 13.600598140620137",['A8'],nan
501,1967501,Humannplatz,strassenbahn,"52.5493627,13.4213646",['70'],Q65962652
502,1967502,Humboldthain,s-bahn,"52.5451,13.3796","['KBS 100c', 'KBS 100e', 'KBS 100d']",Q481276
503,1967503,Hussitenstrasse Ecke Usedomer Damm,bus,"52.538872491086096, 13.385943336200908",['A90'],nan
504,1967504,Huttenstrasse Ecke Beusselstrasse,bus,"52.52740013259484, 13.32867332200994",['A89'],nan
505,1967505,Händelplatz,bus,"52.449992542295014, 13.315419307645962",['A85'],nan
506,1967506,"Hönow, Dorfstrasse",bus,"52.54884927869554, 13.63648687804691",['A44'],nan
507,1967507,"Hönow, Nord",bus,"52.55708326027787, 13.633254033658826",['A44'],nan
508,1967508,Hönower Wiesenweg,strassenbahn,"52.484276289226976, 13.505820970561828",['82'],nan
509,1967509,Hönower Wiesenweg Ecke Blockdammweg,strassenbahn,"52.48430451205336, 13.505804756687008",['13'],nan
510,1967510,Hönowerstrasse Ecke Greifswalderstrasse,bus,"52.53002741612947, 13.626824800415514",['A44E'],nan
511,1967511,Ihnestrasse,bus,"52.44831039409289, 13.276355065531465",['A11'],nan
512,1967512,Illigstrasse Ecke Schichauweg,bus,"52.397661817639346, 13.38515347906895",['A82'],nan
513,1967513,Imbrosweg Ecke Dardanellenweg,bus,"52.44483855102966, 13.410828366543775",['A81'],nan
514,1967514,Imbrosweg Ecke Goldenes Horn,bus,"52.442111970185884, 13.404515856251276",['A81'],nan
515,1967515,Imbuschweg Ecke Johannisthaler Chaussee,bus,"52.4309894577685, 13.457399467566068",['A52'],nan
516,1967516,Industriebahn,bus,"52.618604307482244, 13.390395775797886",['A7'],nan
517,1967517,Industriebahn,strassenbahn,"52.618604307482244, 13.390395775797886",['49'],nan
518,1967518,Innsbrucker Platz,bus,"52.478545508234895, 13.34405868604117","['A48', 'A84', 'A83', 'A16', 'A65', 'A75']",nan
519,1967519,Innsbrucker Platz,s-bahn,"52.4786,13.3439","['KBS 100k', 'KBS 100']",Q111263876
520,1967520,Innsbrucker Platz (Hauptstr.),u-bahn,"52.4786,13.3439",['4'],Q10275871
521,1967521,Invalidenstrasse,bus,"52.53056312073795, 13.383072771001865",['A59'],nan
522,1967522,Invalidenstrasse Ecke Chausseestrasse,strassenbahn,"52.5304158,13.3827302","['63', '73']",Q65552697
523,1967523,Invalidenstrasse Ecke Heidestrasse,bus,"52.52694789242212, 13.370873328754248",['A86'],nan
524,1967524,Jachtwerft,strassenbahn,"52.434329403493905, 13.571443963074454",['86'],nan
525,1967525,Jakob-Kaiser-Platz,bus,"52.536739701449115, 13.293604878938678","['A72', 'A55', 'A99', 'A65']",nan
526,1967526,Jannowitzbrücke,s-bahn,"52.514822222222,13.41795","['KBS 103', 'KBS 102', 'KBS 101', 'KBS 103a']",Q27955427
527,1967527,Joachim-Friedrich-Strasse Ecke Kurfürsten Damm,bus,"52.497990910880795, 13.296176084656011",['A69'],nan
528,1967528,Joachim-Friedrich-Strasse Ecke Kurfürstendamm,bus,"52.49797143420066, 13.296225635820692",['A29'],nan
529,1967529,Joachimstaler Strasse Ecke Kurfürstendamm,bus,"52.503848526250394, 13.331282191682005","['A29', 'A69', 'A19']",nan
530,1967530,Joachimstrasse,bus,"52.40316589631168, 13.57664158970399",['AD/38'],nan
531,1967531,Johannesstift,bus,"52.56762012914222, 13.191856156464777",['A54'],nan
532,1967532,"Johannisthal, Haeckelstrasse",strassenbahn,"52.4402944,13.5052638","['69', '69E', '85']",Q66225573
533,1967533,Johannisthaler Chaussee,bus,"52.45136033294721, 13.488299619950027",['A47'],nan
534,1967534,Johannisthaler Chaussee Ecke Rudowerstrasse,bus,"52.43431775171152, 13.469043329262897",['A67'],nan
535,1967535,John-Foster-Dulles-Allee Ecke Spreeweg,bus,"52.51710164054661, 13.354604473465576",['A24'],nan
536,1967536,Jungfernheide,s-bahn,"52.53035,13.299433333333","['KBS 100a', 'KBS 100b', 'KBS 100']",Q110977325
537,1967537,Jungfernheideweg Ecke Siemensdamm,bus,"52.53661127251181, 13.271872275182485",['A88'],nan
538,1967538,Jägerstrasse,bus,"52.48596831477271, 13.574167191759361","['A27', 'A8', 'A8E']",nan
539,1967539,Kadettenweg Ecke Finckenstein Allee,bus,"52.432455613369925, 13.299200637706466",['A84'],nan
540,1967540,Kaiser-Friedrich-Strasse Ecke Stuttgarter Platz,bus,"52.50549250268741, 13.303019481069155",['A74'],nan
541,1967541,Kaiser-Wilhelm-Platz,bus,"52.486329247981715, 13.35655627172785","['A48', 'A83', 'A4', 'A84', 'A75']",nan
542,1967542,Kaisereiche,bus,"52.46896806014468, 13.332614886077709","['A48', 'A25', 'A75']",nan
543,1967543,Kaiserin-Augusta-Str.,u-bahn,"52.460152777778,13.384577777778",['6'],Q559226
544,1967544,Kaiserin-Augusta-Strasse Ecke Tempelhofer Damm,bus,"52.45934920938466, 13.384516351201325",['A68'],nan
545,1967545,Kaiserstrasse Ecke Gersdorferstrasse,bus,"52.44510413279406, 13.374006056841784",['A33'],nan
546,1967546,Kantstrasse,bus,"52.50678794910284, 13.302320269833038",['A21'],nan
547,1967547,Kantstrasse Ecke Joachimstalerstrasse,bus,"52.50530899513898, 13.331610330727901",['S3'],nan
548,1967548,Kantstrasse Ecke Wilmersdorferstrasse,bus,"52.50670639024441, 13.306680353058255","['A86', 'A89']",nan
549,1967549,Kanzowstrasse,bus,"52.54489808872205, 13.427484729000682",['A56'],nan
550,1967550,Karl-Marx-Str.,u-bahn,"52.476111111111,13.439166666667",['7'],Q519494
551,1967551,Karl-Marx-Strasse Ecke Grenzallee,bus,"52.46300527471114, 13.444919696974685",['A67'],nan
552,1967552,Karl-Marx-Strasse Ecke Saalestrasse,bus,"52.46972817032199, 13.441591003771892",['A65'],nan
553,1967553,Karlshorst,s-bahn,"52.4808,13.5258",['KBS 102'],Q111327045
554,1967554,Karlshorsterstrasse,strassenbahn,"52.502006751448626, 13.475382393075797",['82'],nan
555,1967555,Karolinenhof Mitte,strassenbahn,"52.39176095915858, 13.634654256792825",['86'],nan
556,1967556,Karolinenstrasse Ecke Hermsdorferdamm,bus,"52.59678679258494, 13.276661373436578",['A20'],nan
557,1967557,Karolinenstrasse Ecke Ruppinerchaussee,bus,"52.59795384371539, 13.275067000854381",['A13'],nan
558,1967558,Karow,s-bahn,"52.615,13.4692",['KBS 106'],Q111324168
559,1967559,"Karower Strasse, Alt-Buch",bus,"52.635310738168464, 13.499118561530608",['A42'],nan
560,1967560,Karowerstrasse,bus,"52.63349334589059, 13.498857770767476",['51B'],nan
561,1967561,Kaserne Südtor,bus,"52.55685969560147, 13.3084342409763",['A21'],nan
562,1967562,Katzbachstrasse Ecke Yorckstrasse,bus,"52.4916027871128, 13.376642792979641",['A19'],nan
563,1967563,Kaulsdorf,s-bahn,"52.5121,13.5904",['KBS 101'],Q800478
564,1967564,Keithstrasse Ecke Schillstrasse,bus,"52.503144465306555, 13.349983960068721",['A69'],nan
565,1967565,Kettinger Strasse Ecke Alt-Marienfelde,bus,"52.41325553402322, 13.395474358936553",['A52'],nan
566,1967566,Kienberg,bus,"52.3517661544751, 13.549307007329256",['AD/38'],nan
567,1967567,Kienitzer Strasse Ecke Hermannstrasse,bus,"52.47611119841835, 13.426764451412787",['A4'],nan
568,1967568,Kinderheim,bus,"52.4898153097415, 13.481404230737937",['82P'],nan
569,1967569,Kirchhainer Damm Ecke Wittelsbacherstrasse,bus,"52.38290970523653, 13.413163485858885",['A82'],nan
570,1967570,Kisselnallee Ecke Pionierstrasse,bus,"52.556501057441956, 13.188670871494672",['A63'],nan
571,1967571,Kladow,Fähre,"52.45151498638808, 13.147961938847912",['Wannsee<>Kladow (Betrieb durch Stern und Kreisschiffahrt)'],nan
572,1967572,"Kladow, Dorfplatz",bus,"52.45233907314091, 13.138587215447123",['A35E'],nan
573,1967573,Klausenerplatz,bus,"52.51924427298945, 13.291948741419509","['A87', 'A74']",nan
574,1967574,Klaustalerstrasse Ecke Damerowstrasse,strassenbahn,"52.573414933248586, 13.422102981815893",['49'],nan
575,1967575,Klement-Gottwald-Allee Ecke Rennbahnstrasse,bus,"52.55694652931542, 13.466966083751453",['A45'],",+nan"
576,1967576,Klingsorstrasse Ecke Hindenburgdamm,bus,"52.44314117204108, 13.31567234934763",['A84'],nan
577,1967577,Klingsorstrasse Ecke Hindenburgstrasse,bus,"52.44311237741356, 13.315693339322433",['A86'],nan
578,1967578,Klinkeplatz,bus,"52.555551464661846, 13.198549783852652",['S1'],nan
579,1967579,Klosterstr.,u-bahn,"52.516111111111,13.412222222222",['A'],Q657893
580,1967580,Knesebeckstrasse Ecke Seehofstrasse,bus,"52.428921348542005, 13.267697234969374",['A53'],nan
581,1967581,Kniprodeallee,strassenbahn,"52.55328910288231, 13.479535430290078",['70'],nan
582,1967582,Kniprodestrasse,strassenbahn,"52.5325286,13.4406868","['13', '4', '69E']",Q65707391
583,1967583,Kniprodestrasse Ecke Ermländische Strasse,bus,"52.53214047166688, 13.441498411095067",['A57'],nan
584,1967584,Koblanckstrasse,bus,"52.42616031178746, 13.1614370371839",['A51'],nan
585,1967585,Kochstr.,u-bahn,"52.505897222222,13.390611111111",['6'],Q201849
586,1967586,"Kolonie ""Land in Sonne""",bus,"52.55462883361286, 13.511870302373488",['A39'],nan
587,1967587,Kolonie Springpfuhl,bus,"52.52565224965374, 13.534137831347001",['A43'],nan
588,1967588,Kongreßhalle,bus,"52.51763253396976, 13.363196975404886",['A69'],nan
589,1967589,Konstanzerstrasse Ecke Hohenzollerndamm,bus,"52.488557879230406, 13.307970125730856",['S3'],nan
590,1967590,Kopenhagener Strasse Ecke Klemkestrasse,bus,"52.57424973639634, 13.359180212904926",['A14'],nan
591,1967591,Kormoranweg Ecke Rudowerstrasse,bus,"52.440330819615895, 13.458887925847762",['A67'],nan
592,1967592,Kottbusser Damm (Schönleinstr.),u-bahn,"52.493055555556,13.421944444444",['8'],Q666868
593,1967593,Kottbusser Tor,u-bahn,"52.499166666667,13.418055555556","['1', '8']",Q819768
594,1967594,Kraftwerk Klingenberg,strassenbahn,"52.4881374,13.4958685","['82', '13']",Q66079524
595,1967595,Krahmerstrasse Ecke Hindenburgdamm,bus,"52.437855612569855, 13.315672966543055",['A84'],nan
596,1967596,Krampnitzer Weg Ecke Sakrower Landstrasse,bus,"52.45226293300371, 13.13840886325946",['A35'],nan
597,1967597,Krankenhaus Havelhöhe,bus,"52.462919334280684, 13.15899083159388","['A34', 'A35']",nan
598,1967598,Krankenhaus Heckeshorn,bus,"52.43498872792054, 13.161716693825408",['A51'],nan
599,1967599,Krankenhaus Hohengatow,bus,"52.470449875602235, 13.169391604448148","['A34', 'A35']",nan
600,1967600,Krankenhaus Köpenick,strassenbahn,"52.43861200573594, 13.592411258792163",['95'],nan
601,1967601,Krankenhaus Neukölln,bus,"52.43991971904642, 13.459396643339986",['A41'],nan
602,1967602,Krankenhaus Tegel-Süd,bus,"52.57573397877684, 13.278749331662",['A13'],nan
603,1967603,Krankenhaus Wannsee,bus,"52.43102764694952, 13.164964517227903",['A51'],nan
604,1967604,Kranoldplatz,bus,"52.427774762936416, 13.326473583049795","['A96', 'A11']",nan
605,1967605,Kronprinzessinen Weg Ecke Königstrasse,bus,"52.419962012343554, 13.1752879931957",['A18'],nan
606,1967606,Krottnaurerstrasse Ecke Alemannenstrasse,bus,"52.43405200590004, 13.206636339604483",['A53'],nan
607,1967607,Kroweistrasse Ecke Weißenburgerstrasse,bus,"52.52370387891815, 13.202876501783152",['A35'],nan
608,1967608,Krumme Lanke,u-bahn,"52.443333333333,13.241388888889",['2'],Q663945
609,1967609,Kurfürstendamm (Joachimstaler Str.),u-bahn,"52.504166666667,13.332777777778",['3'],Q663933
610,1967610,Kurfürstendamm (Joachmistaler Str.),u-bahn,"52.504166666667,13.332777777778",['9'],Q663933
611,1967611,Kurfürstendamm Ecke Joachim-Friedrichstrasse,bus,"52.49800511755257, 13.296199745571476",['A21'],nan
612,1967612,Kurfürstendamm Ecke Joachimstalerstrasse,bus,"52.503821761621026, 13.331324056667572",['S3'],nan
613,1967613,Kurfürstendamm Ecke Joachimsthaler Strasse,bus,"52.503834218422035, 13.331254318798976",['A10'],nan
614,1967614,Kurfürstendamm Ecke Konstanzer Strasse,bus,"52.500599097108285, 13.31304940813286",['A1'],nan
615,1967615,Kurfürstendamm Ecke Wilmersdorferstrasse,bus,"52.500005603908086, 13.307037476743691","['A89', 'A86', 'A74']",nan
616,1967616,Kurfürstenstr.,u-bahn,"52.5,13.361944444444",['1'],Q690203
617,1967617,Kurische Strasse,bus,"52.53541468899389, 13.439085794623837",['A9'],nan
618,1967618,Kurt-Fischer-Platz,bus,"52.57973292845757, 13.398330728468228","['A7', 'A50', 'A7E']",nan
619,1967619,Kurt-Fischer-Platz,strassenbahn,"52.578668,13.3983016","['22', '46']",Q65032974
620,1967620,Kurt-Schumacher-Damm,bus,"52.539636633140965, 13.29506456252715",['A65'],nan
621,1967621,Kurt-Schumacher-Damm Ecke Hecker Damm,bus,"52.539644077649434, 13.294922639488309",['A88'],nan
622,1967622,Kurt-Schumacher-Platz,bus,"52.563438249109005, 13.32713028618972",['A21'],nan
623,1967623,Kurt-Schumacher-Platz,u-bahn,"52.563555555556,13.326572222222",['6'],Q555916
624,1967624,Köllnische Heide,s-bahn,"52.4694,13.4675",['KBS 100k'],Q800505
625,1967625,"Königin-Elisabeth-Strasse, Adenauerdamm",bus,"52.51000833537766, 13.281761741049253",['A74'],nan
626,1967626,Königin-Luise-Strasse Ecke Clayallee,bus,"52.46048317222705, 13.274879137035011",['S3'],nan
627,1967627,Königin-Luise-Strasse Ecke Pacelliallee,bus,"52.45831130961841, 13.287126800851055",['A10'],nan
628,1967628,Königs Wusterhausen,s-bahn,"52.2966,13.6311",['KBS 103'],Q178002
629,1967629,Königsheideweg,bus,"52.44659456672834, 13.50649293086447",['A48'],nan
630,1967630,Königstor,bus,"52.52520269485428, 13.419834994127731","['A57', 'A9', 'O30', 'O40']",nan
631,1967631,Königstor,strassenbahn,"52.52821600265539, 13.423869016265495","['74', '73']",nan
632,1967632,Königstrasse,bus,"52.41987226002477, 13.175332944592043",['A6'],nan
633,1967633,Königstrasse/Kronprinzessinnenweg,bus,"52.41989533124603, 13.17532169204708",['A51'],nan
634,1967634,Köpenick,s-bahn,"52.4586,13.5808",['KBS 102'],Q800479
635,1967635,"Köpenick, Krankenhaus",bus,"52.43861200573594, 13.592411258792163",['A27'],nan
636,1967636,Köpenicker Landstrasse Ecke Baumschulenstrasse,strassenbahn,"52.46913201072182, 13.491340045687773",['87'],nan
637,1967637,Köpenicker Strasse,bus,"52.417188859212956, 13.493835883883817",['A52'],nan
638,1967638,Körtingstrasse Ecke Großbeerenstrasse,bus,"52.434813531058246, 13.378315641328395",['A11'],nan
639,1967639,Küstriner Platz,bus,"52.51324778107561, 13.439333192026231","['O30', 'O40']",nan
640,1967640,LPG Falkenberg,bus,"52.57043275562403, 13.536024836217607",['A46'],nan
641,1967641,Lakenfelderweg Ecke Geflügelsteig,bus,"52.40826584715739, 13.482129757637185",['A93'],nan
642,1967642,Landgericht,bus,"52.52698925988807, 13.297167647658592","['A72', 'A55']",nan
643,1967643,Lankwitz,s-bahn,"52.4386,13.3417",['KBS 100d'],Q800481
644,1967644,"Lankwitz, Kirche",bus,"52.43629186979271, 13.345745387354132","['A2', 'A81', 'A32', 'A83']",nan
645,1967645,Lankwitzerstrasse Ecke Großbeerenstrasse,bus,"52.43792839239068, 13.380439956005224",['A77'],nan
646,1967646,Lauenburger Platz,bus,"52.461985842386426, 13.33927388252173",['A75'],nan
647,1967647,Lehnitz,s-bahn,"52.7411,13.2635",['KBS 104'],Q4258498
648,1967648,Lehrter Stadtbahnhof,s-bahn,"52.5253,13.3694","['KBS 100g', 'KBS 100h']",Q821299
649,1967649,Leibnizstrasse Ecke Kantstrasse,bus,"52.50628811926533, 13.313953720007843","['S4', 'A94']",nan
650,1967650,Leibnizstrasse Ecke Otto-Suhr-Allee,bus,"52.51466735877481, 13.31516095265439",['A62'],nan
651,1967651,Leinestr.,u-bahn,"52.472777777778,13.428333333333",['8'],Q668563
652,1967652,Leipziger Strasse Ecke Otto-Grotewohl-Strasse,strassenbahn,"52.51001824906088, 13.384159938189619",['74'],nan
653,1967653,Leninallee,s-bahn,"52.5295,13.4548","['KBS 104', 'KBS 105', 'KBS 106a', 'KBS 106']",Q800507
654,1967654,Leninallee,strassenbahn,"52.5259343,13.4462368","['13', '4']",Q65553230
655,1967655,Leninplatz,bus,"52.523238998562235, 13.433594583798834",['O40'],nan
656,1967656,Leninplatz,strassenbahn,"52.5232658,13.4326457","['63', '64', '82', '69', '74']",Q65553105
657,1967657,Leonorenstrasse,bus,"52.444367159567626, 13.338879863390057",['A17'],nan
658,1967658,Leonorenstrasse Ecke Albrechstrasse,bus,"52.44438797088069, 13.338915879287914",['A2'],nan
659,1967659,Leonorenstrasse Ecke Kaiser-Wilhelm-Strasse,bus,"52.436240390502434, 13.345788080034866","['A96', 'A81', 'A32']",nan
660,1967660,Leopoldplatz,bus,"52.54647397037027, 13.359233475022176",['A79'],nan
661,1967661,Leopoldplatz,u-bahn,"52.5465,13.3591","['9', '6']",Q1960809
662,1967662,Lepsiusstrasse,bus,"52.45883023513571, 13.315599065479873",['A68'],nan
663,1967663,Lerbacher Weg Ecke Tautenbergstrasse,bus,"52.42568607125241, 13.347598950875563",['A2'],nan
664,1967664,Lerchenstrasse,strassenbahn,"52.455164145486215, 13.734409241881236",['S-Bhf. Rahnsdorf <> Woltersdorfer Schleuse (VEB Woltersdorf)'],nan
665,1967665,Lichtenberg,s-bahn,"52.5106,13.4964",['KBS 101'],Q634247
666,1967666,Lichtenberger Strasse,strassenbahn,"52.552032612200605, 13.465689924366766","['72', '70', '3']",nan
667,1967667,Lichtenberger Strasse Ecke Klement-Gottwald-Allee,bus,"52.55200517673564, 13.465477958826924",['A45'],nan
668,1967668,Lichtenrade,s-bahn,"52.3876,13.3963",['KBS 100c'],Q6543354
669,1967669,Lichtenrader Damm Ecke Buckower Chaussee,bus,"52.41458109674137, 13.401170404046406",['A52'],nan
670,1967670,Lichterfelde Ost,s-bahn,"52.43,13.3289",['KBS 100d'],Q111311299
671,1967671,Lichterfelde Süd,s-bahn,"52.41,13.3086",['KBS 100d'],Q800482
672,1967672,Lichterfelde West,s-bahn,"52.4433,13.2947",['KBS 100e'],Q111327103
673,1967673,Liebknechstrasse vor Littenstrasse,bus,"52.5239780247871, 13.412133666688375",['A16'],nan
674,1967674,Lincolnstrasse Ecke Rummelsburgerstrasse,bus,"52.501948681345915, 13.502003160388721",['A43/R'],nan
675,1967675,Lindauer Allee Ecke Residenzstrasse,bus,"52.573337229138254, 13.35901683161954",['A71'],nan
676,1967676,Lindauer Strasse Ecke Residenzstrasse,bus,"52.57332805900587, 13.35899004155058",['A72'],nan
677,1967677,"Lindenberg, Dorf",bus,"52.6015597722132, 13.519994727338524",['AL'],nan
678,1967678,"Lindenberg, Mühle",bus,"52.59740281065539, 13.507262737145838",['AL'],nan
679,1967679,"Lindenberg, Schule",bus,"52.60315194248914, 13.533443476615268",['AL'],nan
680,1967680,Lindenstrasse Ecke Bahnhofstrasse,strassenbahn,"52.4505094,13.572684","['86', '83', '83E']",Q66095701
681,1967681,Lindenstrasse Ecke Hegelschule,strassenbahn,"52.4505094,13.572684","['95', '85']",Q66095701
682,1967682,Lindenstrasse Ecke Müllerstrasse,bus,"52.417547142375135, 13.306660718895618",['A1'],nan
683,1967683,Lindenstrasse Ecke Oranienstrasse,bus,"52.50708473337127, 13.398300858764117",['A75'],nan
684,1967684,Lindenstrasse Ecke Ostpreußendamm,bus,"52.41788577186651, 13.305240762668786",['A96'],nan
685,1967685,Lindenthaler Allee,s-bahn,"52.4375,13.2325",['KBS 100e'],Q315891
686,1967686,Lindenthalerallee Ecke Potsdamerchaussee,bus,"52.430955902850094, 13.229936120361586",['A18'],nan
687,1967687,Lindhorstweg,bus,"52.44148583643127, 13.50065005792854",['A48'],nan
688,1967688,Lockenhuhnweg Ecke Waßmannsdorfer Chaussee,bus,"52.40834715501733, 13.492448756839304",['A93'],nan
689,1967689,Loewenhardtdamm Ecke Boelckestrasse,bus,"52.47958964372846, 13.376900027080955",['A28'],nan
690,1967690,Louise-Schroeder-Platz,bus,"52.55713317342601, 13.365513694540711",['A16'],nan
691,1967691,Ludwig-Hoffmann-Krankenhaus,bus,"52.63316196724486, 13.51360237687453",['A42'],nan
692,1967692,Ludwigsfelderstrasse Ecke Berlepschstrasse,bus,"52.42453366241316, 13.240179827719432",['A66'],nan
693,1967693,Luise-Schröder-Platz,bus,"52.55757019957571, 13.365470778195588",['A72'],nan
694,1967694,Luisenplatz,bus,"52.52005408723936, 13.2995133852506","['A87', 'A21', 'A55', 'A62', 'A89', 'A54']",nan
695,1967695,Luisenplatz Ecke Spandauer Damm,bus,"52.51958069836382, 13.299599443665151",['S1'],nan
696,1967696,Lupsteiner Weg,bus,"52.40950895120702, 13.251647735398342",['A10'],nan
697,1967697,Luxemburgplatz,u-bahn,"52.528333333333,13.410277777778",['A'],Q658790
698,1967698,Luzerner Strasse,bus,"52.42399460780493, 13.293333572320618",['A53'],nan
699,1967699,Lynastrasse Ecke Neundorferstrasse,bus,"52.54897329494869, 13.210205648691591",['A97'],nan
700,1967700,Lynastrasse Ecke Schönwalderstrasse,bus,"52.5484627825758, 13.20082346813887","['A54', 'S1']",nan
701,1967701,"Lübars, Dorfaue",bus,"52.62095733281459, 13.358934481999336",['A20'],nan
702,1967702,Lübarser Strasse Ecke Eichhorster Weg,bus,"52.602799715487954, 13.335712353984228",['A15'],nan
703,1967703,Lützowplatz,bus,"52.505029017314186, 13.351822867208506","['A29', 'A69', 'A16', 'A24']",nan
704,1967704,Lützowstrasse Ecke Potsdamer Strasse,bus,"52.50309850289834, 13.365697096281256",['A29'],"nan, nan"
705,1967705,Machnower Strasse Ecke Berlepschstrasse,bus,"52.42978244172841, 13.257044671164005",['A66'],nan
706,1967706,Machnowerstrasse Ecke Königsweg,bus,"52.39761381021893, 13.143659401544761",['A18'],nan
707,1967707,Magdalenenstr.,u-bahn,"52.5125,13.486388888889",['E'],Q473901
708,1967708,Magistratsweg,bus,"52.5331201414446, 13.158067208455051",['A31'],nan
709,1967709,Magistratsweg Ecke Brunsbütteler Damm,bus,"52.53308685678349, 13.157955808881047",['A80'],nan
710,1967710,Mahlsdorf,s-bahn,"52.5121,13.6106",['KBS 101'],Q800484
711,1967711,Mahlsdorf-Süd,strassenbahn,"52.4741663,13.5991443",['83'],Q66368466
712,1967712,"Mahlsdorf-Süd, Hubertus",strassenbahn,"52.4741663,13.5991443","['82', '86']",Q66368466
713,1967713,"Malchow, Dorfstrasse",bus,"52.580462270708544, 13.482797576255583","['AL', 'A46']",nan
714,1967714,Malchower Weg,bus,"52.56152031238405, 13.500485897507804",['A46'],nan
715,1967715,Malteserstrasse Ecke Paul-Schneider-Strasse,bus,"52.433325866040605, 13.353018739558587",['A83'],nan
716,1967716,Marchbrücke,bus,"52.51698975726307, 13.324322614794799",['A90'],nan
717,1967717,Marchlewskistr.,u-bahn,"52.516794444444,13.444991666667",['E'],Q551768
718,1967718,Mariannenplatz,bus,"52.50228674193422, 13.42408622658593",['A28'],nan
719,1967719,Mariendorf,s-bahn,"52.4478,13.3609",['KBS 100c'],Q800497
720,1967720,Mariendorfer Damm Ecke Kaiserstrasse,bus,"52.44555363764078, 13.385783004808394",['A33'],nan
721,1967721,Mariendorfer Damm Ecke Säntisstrasse,bus,"52.42334653301465, 13.396159554677919",['A76'],nan
722,1967722,Mariendorfer Weg Ecke Hermannstrasse,bus,"52.464691587412624, 13.432890775281324",['A91'],nan
723,1967723,Marienfelde,s-bahn,"52.4242,13.3747",['KBS 100c'],Q800485
724,1967724,"Marienfelde, Bahnstrasse",bus,"52.42054400657969, 13.376229163452807",['A32'],nan
725,1967725,"Marienfelde, Daimlerstrasse Ecke Hollabergweg",bus,"52.42164622937841, 13.385502360239334",['A77'],nan
726,1967726,"Marienfelde, Stadtrandsiedlung",bus,"52.40262127667971, 13.353307994567768",['A52'],nan
727,1967727,Marienfelder Allee Ecke Großbeerenstrasse,bus,"52.4263452728506, 13.374408499741786",['A77'],nan
728,1967728,Marienfelder Allee Ecke Hildburghauserstrasse,bus,"52.41228381707576, 13.362218851310404",['A32'],nan
729,1967729,Marienfelder Chaussee Ecke Quarz Weg,bus,"52.41824584355165, 13.416860708148521",['A78'],nan
730,1967730,Marienfelder Strasse Ecke Halker Zeile,bus,"52.394474220567425, 13.40151946321272",['A82'],nan
731,1967731,Markgrafendamm,bus,"52.49919969372071, 13.465742293248686",['82P'],nan
732,1967732,Markusstrasse,strassenbahn,"52.51349888586354, 13.42412751020309",['4'],nan
733,1967733,Martin-Luther-Friedhof,bus,"52.598400543805816, 13.298350500981082",['A20'],nan
734,1967734,Martin-Luther-Strasse,bus,"52.48902651655725, 13.345005241127383",['A74'],nan
735,1967735,Martin-Luther-Strasse Ecke Grunewaldstrasse,bus,"52.4891017368616, 13.34492200742072",['A89'],nan
736,1967736,Martin-Luther-Strasse Ecke Hohenstaufenstrasse,bus,"52.494473157147276, 13.345858810541014",['A50'],nan
737,1967737,Marx-Engels-Platz,s-bahn,"52.5226,13.4022","['KBS 103', 'KBS 102', 'KBS 101', 'KBS 103a']",Q689312
738,1967738,"Marzahn, Berliner Chaussee",bus,"52.54286481407268, 13.550124906736844",['A43'],nan
739,1967739,Marzahner Chaussee Ecke Berliner Chaussee,bus,"52.538907625210705, 13.533833208740669",['O37'],nan
740,1967740,"Marzahner Chaussee, Schule",bus,"52.51726622059543, 13.528324340612743",['A43'],nan
741,1967741,Mattenbuder Pfad Chaussee Ecke Hennigsdorfer Strasse,bus,"52.61697542594992, 13.22054523598869",['A14'],nan
742,1967742,Mehringdamm,bus,"52.49293917608851, 13.38772030059097",['A19'],nan
743,1967743,Mehringdamm,u-bahn,"52.493888888889,13.388333333333","['7', '6']",Q657905
744,1967744,Mehringplatz,bus,"52.49827538316731, 13.391909269891793","['A95', 'A89', 'A67']",nan
745,1967745,Mertensstrasse Ecke Streitstrasse,bus,"52.56532661904467, 13.209295526061815",['A97'],nan
746,1967746,Messedamm,bus,"52.50446814877144, 13.279412101845791","['A4', 'A65', 'S4']",nan
747,1967747,Messedamm Ecke Masurenallee,bus,"52.50644249962144, 13.28029447678361",['A94'],nan
748,1967748,Mimosenweg,bus,"52.42675928719203, 13.506179808906213",['A52'],nan
749,1967749,Mittelbruchzeile Ecke Reginhardstrasse,bus,"52.56748246817976, 13.372810537809281",['A79'],nan
750,1967750,"Moabit, Waldstrasse Ecke Turmstrasse",bus,"52.52718533455642, 13.33055251486945",['A1'],nan
751,1967751,Mollstrasse Ecke Hans-Beimler-Strasse,strassenbahn,"52.5255473,13.4202755",['74'],Q65548984
752,1967752,Moltkebrücke,bus,"52.52163755334746, 13.369229265511832",['A69'],nan
753,1967753,Moltkestrasse Ecke Bahnhofstrasse,bus,"52.38669666052287, 13.403243178742247",['A76'],nan
754,1967754,Morgensternstrasse Ecke Wilhelmstrasse,bus,"52.42808959398118, 13.325491157001045",['A17'],nan
755,1967755,Moritzplatz,bus,"52.50387355112676, 13.409983330065609",['A67'],nan
756,1967756,Moritzplatz,u-bahn,"52.503611111111,13.410833333333",['8'],Q374225
757,1967757,Motzstrasse Ecke Martin-Luther-Strasse,bus,"52.4971261766764, 13.346101855814512",['A73'],nan
758,1967758,Mozartstrasse Ecke Wolziger Zeile,bus,"52.3819507004478, 13.397655626161212",['A82'],nan
759,1967759,Munsterdamm Ecke Bergstrasse,bus,"52.45910800993387, 13.34873117331109",['A68'],nan
760,1967760,Munsterdamm Ecke Steglitzer Damm,bus,"52.45003044948948, 13.346702868396282",['A75'],nan
761,1967761,Märkisches Museum,u-bahn,"52.511944444444,13.408888888889",['A'],Q657871
762,1967762,Möckernbrücke,u-bahn,"52.499166666667,13.382777777778","['1', '7']",Q704716
763,1967763,Müggelheim,bus,"52.41018331064196, 13.665897531850348",['A27'],nan
764,1967764,Müggelheimer Strasse/Wendenschloßstraße,strassenbahn,"52.4429928,13.5812285",['95'],Q66095671
765,1967765,Müggelseeperle,bus,"52.42170168937569, 13.640893083169368",['A27'],nan
766,1967766,Mühlenstrasse,strassenbahn,"52.508543937506005, 13.43489757970717",['4'],nan
767,1967767,Mühlenstrasse Ecke Florastrasse,bus,"52.56538942967303, 13.406558045840182",['A50'],nan
768,1967768,Müllerstrasse Ecke Luxemburger Strasse,bus,"52.5464267245096, 13.359156830973307",['A64'],nan
769,1967769,Münchenerstrasse Ecke Bambergerstrasse,bus,"52.386840075836254, 13.414235550790872",['A82'],nan
770,1967770,Nauener Platz,bus,"52.551552618214714, 13.36737072883247",['A72'],nan
771,1967771,Nauener Strasse,bus,"52.5340443007014, 13.18167584141312",['A31'],nan
772,1967772,Nauener Strasse Ecke Brunsbütteler Damm,bus,"52.53407399830358, 13.18166330888111",['A80'],nan
773,1967773,Nennhauser Damm Ecke Brunsbütteler Damm,bus,"52.5324795309336, 13.141571708880917",['A80'],nan
774,1967774,Nervenklinik,bus,"52.56234285030248, 13.158489612035405",['A5'],nan
775,1967775,Nettelbeckplatz,bus,"52.54464511696315, 13.370154535054418","['A99', 'A83']",nan
776,1967776,Neu-Lindenberg,bus,"52.600885625411856, 13.554794085696633",['AL'],nan
777,1967777,Neu-Westend,u-bahn,"52.515555555556,13.261111111111",['1'],Q656431
778,1967778,Neuenhagen (b Bln),s-bahn,"52.5208,13.7003",['KBS 101'],Q7001614
779,1967779,Neukölln,s-bahn,"52.469166666667,13.441666666667","['KBS 100k', 'KBS 100']",Q111325412
780,1967780,Neukölln,u-bahn,"52.469444,13.442222",['7'],Q21272767
781,1967781,"Niederschönhausen, Rolandstrasse",bus,"52.58358272730836, 13.421109439678144",['A50'],nan
782,1967782,Nikolassee,s-bahn,"52.4317,13.1933","['KBS 100h', 'KBS 100e']",Q637052
783,1967783,"Nikolassee, Alemannenstrasse",bus,"52.42669870533291, 13.191370810886667",['A53'],nan
784,1967784,Nikolskoer Weg,bus,"52.41405938531216, 13.109270752484141",['A6'],nan
785,1967785,Nollendorfplatz,bus,"52.49968843634292, 13.353086438468269","['A16', 'A19']",nan
786,1967786,Nollendorfplatz,u-bahn,"52.499166666667,13.353888888889","['1', '4', '2']",Q571039
787,1967787,Nordend,bus,"52.59006569360479, 13.401740566033476","['A7', 'A7E']",nan
788,1967788,Nordend,strassenbahn,"52.5902104,13.4027524",['46'],Q65032696
789,1967789,Nordendstrasse,strassenbahn,"52.588534,13.3882952",['22'],Q65428345
790,1967790,Nöldnerplatz,s-bahn,"52.5038,13.4853",['KBS 101'],Q4892447
791,1967791,Nürnberger Strasse Ecke Kurfürstenstrasse,bus,"52.50513952189661, 13.34119156469812",['A69'],nan
792,1967792,Oberhofer Platz,bus,"52.42410259117963, 13.328170432694991","['A53', 'A17']",nan
793,1967793,Oberlandstrasse Ecke Germaniastrasse,bus,"52.4634624867915, 13.402082629697773",['A65'],nan
794,1967794,Oberspree,s-bahn,"52.4525,13.5382",['KBS 106'],Q15192700
795,1967795,"Oberspree, Bruno-Bürgel-Weg",strassenbahn,"52.452777014581045, 13.537124836409932",['92'],nan
796,1967796,Obus-Bf. Siegfriedstrasse,bus,"52.520558278471135, 13.49943441740371",['O30'],nan
797,1967797,Oderberger Strasse Ecke Eberswalderstrasse,strassenbahn,"52.54061076763243, 13.404559930731686",['13'],nan
798,1967798,Olbersstrasse Ecke Tegeler Weg,bus,"52.529310281714686, 13.296319631796775",['A62'],nan
799,1967799,Olivaer Platz,bus,"52.50060275704949, 13.313110622018645","['A29', 'A69', 'A19']",nan
800,1967800,Olympia-Stadion,u-bahn,"52.517222222222,13.25",['1'],Q656441
801,1967801,Olympiastadion,s-bahn,"52.511,13.2416",['KBS 100g'],Q800506
802,1967802,"Omnibusbahnhof, Neue Kantstrasse",bus,"52.5063904873412, 13.281046332189074",['S4'],nan
803,1967803,Onkel Toms Hütte,u-bahn,"52.450277777778,13.253333333333",['2'],Q389214
804,1967804,Oranienburg,s-bahn,"52.7536,13.2496",['KBS 104'],Q2341669
805,1967805,Oranienburger Strasse Ecke Wilhelmsruher Damm,bus,"52.595500195951075, 13.332986520018668",['A21'],nan
806,1967806,Oranienburger Tor,bus,"52.52716314203455, 13.38710905184874","['A57', 'O40']",nan
807,1967807,Oranienburger Tor,strassenbahn,"52.5256031,13.3872745","['71', '69', '46', '70']",Q65095375
808,1967808,Oranienburgerstrasse Ecke Wilhelmsruher Damm,bus,"52.59547688533438, 13.33301680827866",['A21E'],nan
809,1967809,Oraniendamm Ecke Zabel-Krüger-Damm,bus,"52.60786095340787, 13.323810166873162",['A20'],nan
810,1967810,Oranienplatz,bus,"52.50232370505019, 13.415510129463975","['A29', 'A67']",nan
811,1967811,Oranienstrasse Ecke Adalbertstrasse,bus,"52.50129319342642, 13.419255151851743",['A28'],nan
812,1967812,Oranienstrasse Ecke Lindenstrasse,bus,"52.5070918668965, 13.398272727549445",['A67'],nan
813,1967813,Oskar-Helene-Heim,u-bahn,"52.450277777778,13.269722222222",['2'],Q681336
814,1967814,Osloer Strasse Ecke Drontheimerstrasse,bus,"52.55646343300562, 13.377196086691646",['A16'],nan
815,1967815,Osloer Strasse Ecke Prinzenallee,bus,"52.555934421287596, 13.384340190401195","['A70', 'A71']",nan
816,1967816,Osloer Strasse Ecke Schwedenstrasse,bus,"52.55669669760979, 13.373827693395064","['A89', 'A61']","nan, nan"
817,1967817,Osloerstrasse Ecke Schwedenstrasse,bus,"52.556656015402865, 13.373862995391455",['A79'],nan
818,1967818,Osnabrückerstrasse Ecke Tauroggenerstrasse,bus,"52.52583431510053, 13.301951162931593",['A55'],nan
819,1967819,Ossietzkyplatz,bus,"52.58150700684141, 13.404249587640239",['A50'],nan
820,1967820,Ossietzkyplatz,strassenbahn,"52.58100580136794, 13.404014807678767",['46'],nan
821,1967821,Ostbahnhof,bus,"52.50976670730252, 13.43372198235041","['O30', 'O40']",nan
822,1967822,Ostbahnhof,s-bahn,"52.51,13.4347","['KBS 104', 'KBS 103', 'KBS 102', 'KBS 103a', 'KBS 101']",Q111325075
823,1967823,Ostbahnhof,strassenbahn,"52.509107635417394, 13.43550619008533","['82', '4']",nan
824,1967824,Ostkreuz,s-bahn,"52.5031,13.4689","['KBS 105', 'KBS 102', 'KBS 106a', 'KBS 106', 'KBS 101']",Q111251530
825,1967825,Ostpreußendamm Ecke Dorstenerstrasse,bus,"52.41274953927068, 13.300517753048418",['A85'],nan
826,1967826,Ostpreußendamm Ecke Königsbergerstrasse,bus,"52.430811463953006, 13.317486998378902",['A53'],nan
827,1967827,Ostpreußendamm Ecke Wilhelmstrasse,bus,"52.43080142626057, 13.317503639070004","['A11', 'A17']","nan, nan, nan"
828,1967828,Ostseestrasse,bus,"52.54785805575692, 13.438529960954577",['A42'],nan
829,1967829,Ostseestrasse vor Prenzlauer Promenade,bus,"52.550707841256525, 13.431200231240016",['A54'],nan
830,1967830,Otto-Grotewohl-Strasse,bus,"52.51648503643047, 13.380749190010452",['A9'],nan
831,1967831,Otto-Suhr-Allee Ecke Cauer Strasse,bus,"52.51463990616225, 13.315222709882928",['A1'],nan
832,1967832,Pacelli/Theilallee,bus,"52.45824694622199, 13.287066614446184",['A1'],nan
833,1967833,Pankow,s-bahn,"52.5667,13.4111","['KBS 104', 'KBS 105', 'KBS 106']",Q111273850
834,1967834,Pankow (Vinetastr.),u-bahn,"52.559166666667,13.413333333333",['A'],Q570906
835,1967835,"Pankow, Kirche",bus,"52.57124680898358, 13.410670715665145","['A58', 'A45']",nan
836,1967836,"Pankow, Kirche",strassenbahn,"52.5706452,13.4103115","['49', '22', '46']",Q65055066
837,1967837,"Pankow, Rathaus",bus,"52.56953908840178, 13.404186437171612","['A7', 'A50', 'A7E']",nan
838,1967838,"Pankow, Rathaus",strassenbahn,"52.5694816,13.4038045",['22'],Q65055060
839,1967839,Pankow-Heinersdorf,s-bahn,"52.5780653,13.4295093","['KBS 104', 'KBS 105', 'KBS 106']",Q4892366
840,1967840,Pankower Allee Ecke Markstrasse,bus,"52.56383532579568, 13.364279461310751",['A79'],nan
841,1967841,Pankower Allee Ecke Provinzstrasse,bus,"52.56468752332841, 13.37804357118055",['A14'],nan
842,1967842,Pankower Allee Ecke Residenzstrasse,bus,"52.56383591570264, 13.364287664704229","['A72', 'A61']",nan
843,1967843,Pankstrasse Ecke Badstrasse,bus,"52.55227404292705, 13.381387201509149","['A64', 'A14', 'A71', 'A61']",nan
844,1967844,Papestr.,s-bahn,"52.4756,13.3644","['KBS 100k', 'KBS 100c', 'KBS 100', 'KBS 100d']",Q111323139
845,1967845,Paplitzerstrasse Ecke Horstwalderstrasse,bus,"52.382083312174, 13.407766258765188",['A82'],nan
846,1967846,Parachimer Allee Ecke Buschkrug Allee,bus,"52.44546599625642, 13.455091249565658",['A41'],nan
847,1967847,Paradestr.,u-bahn,"52.478055555556,13.386111111111",['6'],Q557543
848,1967848,Parchimer Allee,u-bahn,"52.444722222222,13.449444444444",['7'],Q571855
849,1967849,Parchimer Allee Ecke Buschkrugallee,bus,"52.44548592417653, 13.45503659969242",['A67'],nan
850,1967850,Paulsternstrasse,bus,"52.54415774195884, 13.247126131065503","['A10', 'A13']",nan
851,1967851,Paulsternstrasse Ecke Gartenfelderstrasse,bus,"52.544121961729175, 13.247010457215051","['A72', 'A55']",nan
852,1967852,Paulsternstrasse Ecke Nonnendamm Allee,bus,"52.53814656080913, 13.24775541718677",['A99'],nan
853,1967853,Petershagen Nord,s-bahn,"52.5291,13.791",['KBS 101'],Q7178217
854,1967854,Pfaueninsel-Chaussee,bus,"52.41883762088876, 13.153039190703318",['A18'],nan
855,1967855,Pfaueninsel-Chaussee Ecke Königstrasse,bus,"52.41888024334639, 13.152988428835997",['A3'],nan
856,1967856,Pfaueninselchaussee Ecke Königstrasse,bus,"52.41883989599949, 13.153008281938446",['A6'],nan
857,1967857,"Philharmonie, Tiergartenstrasse",bus,"52.510896228371735, 13.369565371330399",['A48'],nan
858,1967858,Pichelsberg,s-bahn,"52.5103,13.2271",['KBS 100g'],Q800488
859,1967859,Pichelsdorferstrasse Ecke Heerstrasse,bus,"52.5131147119314, 13.196918559430642","['A97', 'A94']",nan
860,1967860,Pionierpark,strassenbahn,"52.46662288590602, 13.521257686609333","['82', '95', '87', '85']",nan
861,1967861,Pirnaer Strasse Ecke Groß-Ziethen Chaussee,bus,"52.41183492781805, 13.483450512255171",['A93'],nan
862,1967862,Platz der Luftbrücke,u-bahn,"52.485555555556,13.385833333333",['6'],Q553146
863,1967863,Platz vor dem Neuen Tor,bus,"52.52921245715711, 13.378513556812177",['A57'],nan
864,1967864,Plänterwald,s-bahn,"52.4786,13.4733","['KBS 105', 'KBS 103', 'KBS 106a', 'KBS 103a', 'KBS 106']",Q7205917
865,1967865,Podbielskiallee,u-bahn,"52.464444444444,13.296388888889",['2'],Q571324
866,1967866,Potsdamer Strasse Ecke Clayallee,bus,"52.43504800046437, 13.260425575475969",['A1'],nan
867,1967867,Potsdamer Strasse Ecke Fischerhüttenstrasse,bus,"52.4357751453625, 13.256027995378796",['A48'],nan
868,1967868,Potsdamer Strasse Ecke Pallasstrasse,bus,"52.494342373527935, 13.361045454880108",['A89'],nan
869,1967869,Potsdamer Strasse Ecke Schöneberger Ufer,bus,"52.50581655910509, 13.368252341285233",['A24'],nan
870,1967870,Potsdamer Strasse Ecke Verbindungsstrasse,bus,"52.509180028992205, 13.371735755066918",['A83'],nan
871,1967871,Potsdamerstrasse Ecke Goethestrasse,bus,"52.404367914625105, 13.4061741145561",['A82'],nan
872,1967872,Potsdamerstrasse Ecke Pallasstrasse,bus,"52.494318753656415, 13.361006426904911",['A50'],nan
873,1967873,Pottensteiner Weg Ecke Selbitzer Strasse,bus,"52.450510372810776, 13.121657800272581",['A35E'],nan
874,1967874,Prenzlauer Allee,s-bahn,"52.544775,13.426116","['KBS 104', 'KBS 105', 'KBS 106a', 'KBS 106']",Q32661483
875,1967875,Prenzlauer Allee,strassenbahn,"52.5396522,13.4244789","['13', '4', '71', '72']",Q65222180
876,1967876,Prenzlauer Promenade,strassenbahn,"52.55155536618067, 13.43032253030515","['71', '70', '72', '3']",nan
877,1967877,Prenzlauer Promenade Ecke Kissingenstrasse,bus,"52.56795804833996, 13.427734373319213",['A45'],nan
878,1967878,Prenzlauer Promenade Ecke Ostseestrasse,bus,"52.55135441277958, 13.430202672100975",['A42'],nan
879,1967879,Prenzlauer Tor,strassenbahn,"52.52709114016772, 13.415809370320808","['71', '72', '73']",nan
880,1967880,Preußenallee,bus,"52.508660519056406, 13.259314884478115",['A94'],nan
881,1967881,Priesterweg,s-bahn,"52.4601,13.3563","['KBS 100c', 'KBS 100d']",Q800508
882,1967882,Priesterweg Ecke Prellerweg,bus,"52.45875038601073, 13.354725754713439",['A76'],nan
883,1967883,Prinzenallee Ecke Osloerstrasse,bus,"52.555955307807594, 13.384350687345004",['A89'],nan
884,1967884,Prinzenstr.,u-bahn,"52.498333333333,13.406111111111",['1'],Q689797
885,1967885,Prinzessinenstrasse Ecke Wünzdorferstrasse,bus,"52.38668996655043, 13.39538325486679",['A82'],nan
886,1967886,Proskauer Ecke Dolziger Strasse,bus,"52.519874079766325, 13.463289228834057",['O30'],nan
887,1967887,Provinzstrasse/Pankower Allee,bus,"52.56468777207285, 13.378063096396454",['A71'],nan
888,1967888,Prühßstrasse Ecke Ringstrasse,bus,"52.44249986565702, 13.377821015179013",['A76'],nan
889,1967889,Putlitzstr.,s-bahn,"52.536,13.344","['KBS 100a', 'KBS 100']",Q465972
890,1967890,Putlitzstr. (Westhafen),u-bahn,"52.536,13.344",['9'],Q465972
891,1967891,Päwesiner Weg,bus,"52.52633953639178, 13.181877502746046",['A13'],nan
892,1967892,Pücklerstrasse Ecke Clayallee,bus,"52.46857085169584, 13.278397098793207",['S3'],nan
893,1967893,Quarzweg Ecke Tauernallee,bus,"52.42783434323616, 13.40499356838889",['A78'],nan
894,1967894,Quellweg Ecke Nonnendamm Allee,bus,"52.536668576718114, 13.26843642898379","['A72', 'A55', 'A99']",nan
895,1967895,RFT-Werk,strassenbahn,"52.436333488813574, 13.582428612664765","['83', '83E', '85']",nan
896,1967896,Radelandstrasse Ecke Niederheideweg,bus,"52.56622418682435, 13.157116704792886",['A63'],nan
897,1967897,Rahnsdorf,s-bahn,"52.4516372,13.6899776",['KBS 102'],Q800489
898,1967898,Rahnsdorf,strassenbahn,"52.443531694444445,13.685038",['87'],Q66361311
899,1967899,Rahnsdorfer Strasse,strassenbahn,"52.4985173,13.613101",['83'],Q66364532
900,1967900,Rankeplatz,bus,"52.50042978340582, 13.330867334397949",['S3'],nan
901,1967901,Raschdorffstrasse Ecke Reginhardstrasse,bus,"52.57027526432082, 13.369912583442087",['A79'],nan
902,1967902,Rathaus Neukölln,u-bahn,"52.481666666667,13.434166666667",['7'],Q628770
903,1967903,Rathaus Reinickendorf,bus,"52.591657836908254, 13.32633527572607","['A14', 'A12']",nan
904,1967904,Rathaus Schöneberg,bus,"52.48515473887597, 13.345086596743203","['A73', 'A4', 'A16', 'A74']",nan
905,1967905,Rathaus Schöneberg,u-bahn,"52.483116666667,13.341930555556",['4'],Q570926
906,1967906,Rathaus Spandau,bus,"52.53480744415333, 13.199505517192808","['A80', 'A5', 'A97', 'A99', 'A13', 'A63', 'S1', 'A34', 'A54', 'A31']",nan
907,1967907,Rathaus Steglitz,bus,"52.45683244954579, 13.320757398114617","['A48', 'A68', 'A86', 'A17', 'A85', 'A32', 'A84']",nan
908,1967908,Rathaus Tiergarten,bus,"52.52649085974541, 13.338358982634196",['A70'],nan
909,1967909,Rathaus Wannsee,bus,"52.418440129670444, 13.148872492834737","['A3', 'A6', 'A18', 'S4']",nan
910,1967910,Rathaus Zehlendorf,bus,"52.433207520111885, 13.259531923613192","['A3', 'A1', 'S3', 'A53']",nan
911,1967911,Rathenauplatz,bus,"52.49476692065044, 13.28558322563665",['A19'],nan
912,1967912,Rathenauplatz,bus,"52.49561134930413, 13.286573746568635",['A65'],nan
913,1967913,Rathenaustrasse,strassenbahn,"52.46177005387409, 13.532428906382645","['82', '95', '87']",nan
914,1967914,Rathenower Strasse Ecke Perleberger Strasse,bus,"52.53252487206442, 13.350617083748922",['A72'],nan
915,1967915,Rathenower Strasse Ecke Perlebergerstrasse,bus,"52.53249887039934, 13.350566762831942",['A70'],nan
916,1967916,Rathenower Strasse Ecke Quitzowstrasse,bus,"52.53510769040632, 13.349660807366753",['A99'],nan
917,1967917,Rathenower Strasse Ecke Turmstrasse,bus,"52.52674219932397, 13.3553876111091",['A24'],nan
918,1967918,Rathenowerstrasse Ecke Alt-Moabit,bus,"52.52363004752155, 13.356848710196214",['A90'],nan
919,1967919,Rauchstrasse Ecke Neundorferstrasse,bus,"52.56162934911933, 13.208609801713525",['A97'],nan
920,1967920,Rehberge,u-bahn,"52.5567,13.3412",['6'],Q253850
921,1967921,Reichartstrasse Ecke Sachsendamm,bus,"52.47272489735422, 13.366480956946022","['A73', 'A74']",nan
922,1967922,Reichssportfeldstrasse Ecke Heerstrasse,bus,"52.5075494871539, 13.242139455913255",['A94'],nan
923,1967923,Reimerweg Ecke Heerstrasse,bus,"52.521842035510815, 13.154307020090478","['A97', 'A94']",nan
924,1967924,Reinickendorf,s-bahn,"52.5779,13.3506",['KBS 100c'],Q800496
925,1967925,Reinickendorfer Str.,u-bahn,"52.539911111111,13.370377777778",['6'],Q559249
926,1967926,Reinickendorfer Strasse Ecke Schulstrasse,bus,"52.55154134842798, 13.367385622374945",['A79'],nan
927,1967927,Reinickendorferstrasse Ecke Osloer Strasse,bus,"52.55693290395323, 13.365584524321124",['A89'],nan
928,1967928,Reinickendorferstrasse Ecke Schulstrasse,bus,"52.551569176235766, 13.367349862776726",['A64'],nan
929,1967929,Rennbahn,bus,"52.431519887104706, 13.391508229384012","['A76', 'A78']",nan
930,1967930,Rennbahnstrasse Ecke Gustav-Adolf-Strasse,bus,"52.56218648050474, 13.454267038723398",['A56'],nan
931,1967931,Revalerstrasse,strassenbahn,"52.50855229639016, 13.450993553724967","['4', '3']",nan
932,1967932,Rhodeländerweg Ecke Geflügelsteig,bus,"52.40712038226217, 13.484825827501469",['A93'],nan
933,1967933,Richard-Wagner-Platz,bus,"52.517490990443804, 13.306397097578404","['A87', 'A86', 'A55', 'A62', 'A54']",nan
934,1967934,Richard-Wagner-Platz,u-bahn,"52.5175,13.306388888889",['5'],Q662201
935,1967935,Richtershorn,strassenbahn,"52.40105,13.6248473",['86'],Q66481215
936,1967936,Ridbacher Strasse,bus,"52.527457204488485, 13.606447755554132",['A49'],nan
937,1967937,Ringstrasse,bus,"52.439772810020266, 13.300175076283422",['A11'],nan
938,1967938,Ringstrasse Ecke Pestalozziplatz,bus,"52.434112245947, 13.287347868170125",['A84'],nan
939,1967939,Rittberg-Krankenhaus,bus,"52.42987951650218, 13.288961460110901",['A85'],nan
940,1967940,Robert-Koch-Platz,bus,"52.527570508835595, 13.37877230286134","['A18', 'O30', 'O40']",nan
941,1967941,Roederplatz,bus,"52.52671388514014, 13.479662353432392",['O30'],nan
942,1967942,Roederplatz,strassenbahn,"52.5266001,13.479068","['69', '69E', '3']",Q65685373
943,1967943,Rohdestrasse Ecke Germaniastrasse,bus,"52.4620458336563, 13.404444184357315",['A73'],nan
944,1967944,Romain-Rolland-Strasse,strassenbahn,"52.5725511,13.4371063",['71'],Q65096052
945,1967945,Roseneck,bus,"52.47580089902253, 13.282411270445099","['A19', 'A50', 'A17', 'A29', 'S3']",nan
946,1967946,"Roseneck, Hundekehl",bus,"52.47640250997692, 13.281611267179592",['A60'],nan
947,1967947,"Rosenthal, Hauptstrasse",strassenbahn,"52.5970063,13.3763916",['22'],Q65364985
948,1967948,Rosenthaler Platz,bus,"52.5296729549826, 13.401428926082492","['O30', 'A16', 'O40']",nan
949,1967949,Rosenthaler Platz,strassenbahn,"52.5301769,13.4016121","['82', '49']",Q65093945
950,1967950,Rudolfstadtstrasse Ecke Hohenzollern Damm,bus,"52.48838865828398, 13.30218743030998",['A50'],nan
951,1967951,"Rudow Stadtgrenze, Waltersdorfer Chaussee",bus,"52.40149832209663, 13.51359769728213",['A41'],nan
952,1967952,Rudower Strasse Ecke Johannisthaler Chaussee,bus,"52.43432389104007, 13.469034346222157",['A52'],nan
953,1967953,Ruhleben,u-bahn,"52.525555555556,13.241388888889",['1'],Q656401
954,1967954,Rummelsburg,s-bahn,"52.501244,13.478545",['KBS 102'],Q15107132
955,1967955,Ruppiner Chaussee & Schulzendorferstrasse,bus,"52.614439200663185, 13.244906142382904",['A14'],nan
956,1967956,Ruppiner Chaussee Ecke Hennigsdorfer Strasse,bus,"52.62647541728233, 13.227541592099726",['A14'],nan
957,1967957,Röntgental,s-bahn,"52.6487,13.5136",['KBS 106'],Q801386
958,1967958,"Rüdersdorf, Berghof",strassenbahn,"52.47364542473097, 13.761100477139374","['S-Bhf. Friedrichshagen <> Rüdersdorf, Karl-Marx-Platz (VEB Schöneiche-Rüdersdorf)']",nan
959,1967959,"Rüdersdorf, Heinitzstrasse",strassenbahn,"52.47300367314545, 13.776547132457198","['S-Bhf. Friedrichshagen <> Rüdersdorf, Karl-Marx-Platz (VEB Schöneiche-Rüdersdorf)']",nan
960,1967960,"Rüdersdorf, Karl-Marx-Platz",strassenbahn,"52.466474025436895, 13.805127733329565","['S-Bhf. Friedrichshagen <> Rüdersdorf, Karl-Marx-Platz (VEB Schöneiche-Rüdersdorf)']",nan
961,1967961,"Rüdersdorf, Post",strassenbahn,"52.47029587176764, 13.786537970773646","['S-Bhf. Friedrichshagen <> Rüdersdorf, Karl-Marx-Platz (VEB Schöneiche-Rüdersdorf)']",nan
962,1967962,"Rüdersdorf, Schulstrasse",strassenbahn,"52.469978487336554, 13.787024282488423","['S-Bhf. Friedrichshagen <> Rüdersdorf, Karl-Marx-Platz (VEB Schöneiche-Rüdersdorf)']",nan
963,1967963,"Rüdersdorf, Torellplatz",strassenbahn,"52.4740761,13.7714228","['S-Bhf. Friedrichshagen <> Rüdersdorf, Karl-Marx-Platz (VEB Schöneiche-Rüdersdorf)']",Q66542827
964,1967964,Rüdesheimer Platz,u-bahn,"52.473333333333,13.314444444444",['2'],Q167147
965,1967965,Rügener Strasse,bus,"52.544791277773946, 13.391067616355128",['A14'],nan
966,1967966,S-Bhf. Adlershof,strassenbahn,"52.435251,13.5408489",['84'],Q66363728
967,1967967,S-Bhf. Altglienicke,bus,"52.40840519773821, 13.558816171743953",['A23'],nan
968,1967968,S-Bhf. Baumschulenweg,bus,"52.4674967534767, 13.489379882069517",['A47'],nan
969,1967969,S-Bhf. Baumschulenweg,strassenbahn,"52.467425320387854, 13.489303343986984",['92'],nan
970,1967970,S-Bhf. Biesdorf,bus,"52.513432593832405, 13.555387279249894",['O37'],nan
971,1967971,S-Bhf. Buch,bus,"52.636831376314575, 13.49252085642661",['51B'],nan
972,1967972,S-Bhf. Friedrichsfelde-Ost,bus,"52.51324537165634, 13.524030584354616",['A43'],nan
973,1967973,S-Bhf. Friedrichshagen,strassenbahn,"52.4564126,13.6253656","['84', '87']",Q66360784
974,1967974,S-Bhf. Friedrichshagen (Grenze),strassenbahn,"52.4576956,13.6266712","['S-Bhf. Friedrichshagen <> Rüdersdorf, Karl-Marx-Platz (VEB Schöneiche-Rüdersdorf)']",Q66499230
975,1967975,S-Bhf. Greifswalder Strasse,strassenbahn,"52.5407234,13.4382904",['74'],Q65548932
976,1967976,S-Bhf. Greifswalderstrasse,strassenbahn,"52.5407234,13.4382904",['73'],Q65548932
977,1967977,S-Bhf. Grünau,bus,"52.41361515857581, 13.573796290663196","['A36', 'AD/38']",nan
978,1967978,S-Bhf. Grünau,strassenbahn,"52.413493,13.5746802",['86'],Q62470512
979,1967979,S-Bhf. Grünbergallee,bus,"52.39982232817773, 13.540170966673278","['A23', 'A36']",nan
980,1967980,S-Bhf. Jannowitzbrücke,bus,"52.514865856141625, 13.41796028027267",['A18'],nan
981,1967981,S-Bhf. Jannowitzbrücke,strassenbahn,"52.51478599600389, 13.418056238742702","['74', '64']",nan
982,1967982,S-Bhf. Karlshorst,strassenbahn,"52.481331,13.5254433","['69', '69E']",Q65952829
983,1967983,"S-Bhf. Kaulsdorf, Planitzstrasse",bus,"52.51113864301491, 13.58755467300039",['A27'],nan
984,1967984,S-Bhf. Köpenick,bus,"52.45882190200453, 13.579564677172508",['A27'],nan
985,1967985,S-Bhf. Köpenick,strassenbahn,"52.4582153,13.5790435","['82', '86', '83', '83E']",Q66370784
986,1967986,S-Bhf. Leninallee,bus,"52.528513273942636, 13.455602547861579",['O37'],nan
987,1967987,S-Bhf. Leninallee,strassenbahn,"52.52851097343215, 13.455862308166953","['63', '64']","nan, nan"
988,1967988,S-Bhf. Lenninallee,bus,"52.52851723757576, 13.455728086373169",['A54'],nan
989,1967989,S-Bhf. Mahlsdorf,bus,"52.51234908870327, 13.61221793610957","['A44', 'A44E']",nan
990,1967990,S-Bhf. Mahlsdorf,strassenbahn,"52.51221826761895, 13.612190748726157",['83'],nan
991,1967991,S-Bhf. Nöldnerplatz,bus,"52.50326619516546, 13.484293730152238","['A43/R', 'A43']",nan
992,1967992,S-Bhf. Ostkreuz,strassenbahn,"52.50243021718411, 13.469020052690205",['82'],nan
993,1967993,S-Bhf. Pankow,bus,"52.56742037379333, 13.412250129587665",['A58'],nan
994,1967994,S-Bhf. Pankow-Heinersdorf,strassenbahn,"52.577507820515834, 13.427853061920917",['49'],nan
995,1967995,S-Bhf. Plänterwald,strassenbahn,"52.479645467025435, 13.47567729609248","['95', '87']",nan
996,1967996,S-Bhf. Prenzlauer Allee,strassenbahn,"52.5448075,13.427408","['71', '72']",Q65219791
997,1967997,S-Bhf. Rahnsdorf,bus,"52.451628368326396, 13.691579101298974",['A22'],nan
998,1967998,S-Bhf. Rahnsdorf,strassenbahn,"52.4514224698383, 13.693045597650851",['S-Bhf. Rahnsdorf <> Woltersdorfer Schleuse (VEB Woltersdorf)'],nan
999,1967999,S-Bhf. Rummelsburg,bus,"52.50179539105723, 13.478028581044718",['O30'],nan
1000,19671000,S-Bhf. Rummelsburg,strassenbahn,"52.5010558,13.4762392",['13'],Q66069079
1001,19671001,S-Bhf. Schönhauser Allee,strassenbahn,"52.5493619,13.4135734","['49', '22', '46']",Q65088013
1002,19671002,S-Bhf. Spindlersfeld,strassenbahn,"52.4457311,13.5624298",['84'],Q66363397
1003,19671003,S-Bhf. Treptower Park,bus,"52.49403640886682, 13.460762565516704",['A47'],nan
1004,19671004,S-Bhf. Vinetastrasse,strassenbahn,"52.5596168,13.413232",['49'],Q65075426
1005,19671005,S-Bhf. Wilhelmshagen,bus,"52.43886122089184, 13.721060252199655",['A22'],nan
1006,19671006,Saaleckplatz,bus,"52.41629158246214, 13.323941962356194",['A17'],nan
1007,19671007,Saalestrasse Ecke Sonnenallee,bus,"52.47386409957645, 13.455877929531225","['A95', 'A67']",nan
1008,19671008,Saargemünder Strasse Ecke Clayallee,bus,"52.45098632805078, 13.270679779958403",['A11'],nan
1009,19671009,Saatwinkler Damm,bus,"52.54802938567344, 13.300569461587116",['A62'],nan
1010,19671010,Saatwinkler Damm Ecke Seestrasse,bus,"52.53818364322516, 13.326107534172687",['A99'],nan
1011,19671011,Sachsendamm Ecke Ebersstrasse,bus,"52.480139391217655, 13.352202571431462",['A65'],nan
1012,19671012,Sadowastrasse,bus,"52.482675472271694, 13.584833068425244",['A8E'],nan
1013,19671013,Sadowastrasse Ecke Ulmenstrasse,bus,"52.48270617117792, 13.584899089359748",['A8'],nan
1014,19671014,Samariterstr.,u-bahn,"52.514722222222,13.464444444444",['E'],Q552891
1015,19671015,Sandstrasse Ecke Heerstrasse,bus,"52.518565908814026, 13.169926588507737",['A97'],nan
1016,19671016,Savignyplatz,bus,"52.505852905503716, 13.32187246900547","['S4', 'A94']",nan
1017,19671017,Savignyplatz,s-bahn,"52.5051746,13.3190659","['KBS 100g', 'KBS 100k', 'KBS 100h']",Q554382
1018,19671018,Scharnhorststrasse Ecke Kielerstrasse,bus,"52.534352208349404, 13.370307403927896",['A57'],nan
1019,19671019,Scharnweberstr. (Eichborndamm),u-bahn,"52.566944444444,13.312777777778",['6'],Q557586
1020,19671020,"Schildow, Kirche",bus,"52.63581867397586, 13.377719168374458","['A7', 'A7E']",nan
1021,19671021,Schillingstr.,u-bahn,"52.520278,13.421667",['E'],Q552899
1022,19671022,Schlachtensee,s-bahn,"52.4401,13.2153",['KBS 100e'],Q800509
1023,19671023,Schlesisches Tor,u-bahn,"52.500833333333,13.441666666667",['1'],Q602282
1024,19671024,Schlossstrasse Ecke Seelingstrasse,bus,"52.51569806814604, 13.296301299533223",['A74'],nan
1025,19671025,Schloß Ruhwald,bus,"52.5216045798143, 13.260396873505604",['A54'],nan
1026,19671026,Schloßplatz,bus,"52.444440717970195, 13.575132622824544",['A27'],nan
1027,19671027,Schloßplatz Köpenick,strassenbahn,"52.4443409,13.5753837","['84', '86']",Q66095688
1028,19671028,Schloßstrasse Ecke Bundesallee,bus,"52.4649407720467, 13.328513608873887","['A85', 'A86']",nan
1029,19671029,Schloßstrasse Ecke Feuerbachstrasse,bus,"52.4631173264433, 13.326724826984016","['A2', 'A81']",nan
1030,19671030,Schloßstrasse Ecke Rheinstrasse,bus,"52.46496454491197, 13.328487911230798",['A17'],nan
1031,19671031,Schloßstrasse Ecke Spandauer Damm,bus,"52.51945635178006, 13.295941306612933",['S1'],nan
1032,19671032,Schmargendorf,s-bahn,"52.479672222222,13.312441666667","['KBS 100k', 'KBS 100']",Q302810
1033,19671033,Scholzplatz,bus,"52.50678815703117, 13.22840316297602",['A94'],nan
1034,19671034,Schopenhauer-Strasse Ecke Spanische Allee,bus,"52.433960489825, 13.212025866542618",['A3'],nan
1035,19671035,Schorfheidestrasse Ecke Wilhelmsruher Damm,bus,"52.59621977825613, 13.347582595647992",['A21E'],nan
1036,19671036,Schulenburgpark,bus,"52.4665445725577, 13.470341233609716",['A65'],nan
1037,19671037,Schulzendorf (b Tegel),s-bahn,"52.6128,13.2462",['KBS 100c'],Q800487
1038,19671038,Schulzendorfer Strasse,bus,"52.61057476279662, 13.295480649416259",['A15'],nan
1039,19671039,Schumannstrasse Ecke Reinhardtstrasse,bus,"52.5232589926343, 13.383820696675322",['A18'],nan
1040,19671040,Schwarzer Weg Ecke Sonnenallee,bus,"52.46241684454058, 13.47666099798573",['A95'],nan
1041,19671041,Schwiezerhaus,bus,"52.46177834654878, 13.133492629933269",['A34'],nan
1042,19671042,Schäferberg,bus,"52.41562661861071, 13.12630868100336",['A6'],nan
1043,19671043,"Schäfersee, Pankower Allee",bus,"52.56403098912502, 13.36417150367161",['A71'],nan
1044,19671044,Schöneberg,s-bahn,"52.4794,13.3517","['KBS 100k', 'KBS 100e', 'KBS 100']",Q543855
1045,19671045,"Schönefeld, Kirche",bus,"52.387425080944524, 13.505964115736859",['A36'],nan
1046,19671046,Schönefelderstrasse Ecke Neuköllnerstrasse,bus,"52.41519086640216, 13.497867153541241",['A41'],nan
1047,19671047,"Schöneiche, Dorfstrasse",strassenbahn,"52.47856620635917, 13.694957894723224","['S-Bhf. Friedrichshagen <> Rüdersdorf, Karl-Marx-Platz (VEB Schöneiche-Rüdersdorf)']",nan
1048,19671048,"Schöneiche, Goethepark",strassenbahn,"52.47079746484671, 13.688349606776411","['S-Bhf. Friedrichshagen <> Rüdersdorf, Karl-Marx-Platz (VEB Schöneiche-Rüdersdorf)']",nan
1049,19671049,"Schöneiche, Grätzwalde",strassenbahn,"52.47410984584059, 13.71327932499737","['S-Bhf. Friedrichshagen <> Rüdersdorf, Karl-Marx-Platz (VEB Schöneiche-Rüdersdorf)']",nan
1050,19671050,"Schöneiche, Jägerstrasse",strassenbahn,"52.47278762603676, 13.730566290724404","['S-Bhf. Friedrichshagen <> Rüdersdorf, Karl-Marx-Platz (VEB Schöneiche-Rüdersdorf)']",nan
1051,19671051,"Schöneiche, Schillerstrasse",strassenbahn,"52.47747516744112, 13.708762100565384","['S-Bhf. Friedrichshagen <> Rüdersdorf, Karl-Marx-Platz (VEB Schöneiche-Rüdersdorf)']",nan
1052,19671052,"Schöneiche, Waldstrasse",strassenbahn,"52.46776642462116, 13.68198321602651","['S-Bhf. Friedrichshagen <> Rüdersdorf, Karl-Marx-Platz (VEB Schöneiche-Rüdersdorf)']",nan
1053,19671053,Schöneweide,s-bahn,"52.455,13.509444444444","['KBS 105', 'KBS 103', 'KBS 106a', 'KBS 103a', 'KBS 106']",Q111323931
1054,19671054,Schönfließ,s-bahn,"52.6648,13.3397",['KBS 104'],Q801423
1055,19671055,Schönhauser Allee,s-bahn,"52.549329,13.413706","['KBS 104', 'KBS 105', 'KBS 106a', 'KBS 106']",Q111264493
1056,19671056,Schönhauser Allee,strassenbahn,"52.5537705,13.4138898",['3'],Q65076842
1057,19671057,Schönhauser Allee,u-bahn,"52.549328888889,13.413706111111",['A'],Q47014936
1058,19671058,Schönholz,s-bahn,"52.5714,13.3814","['KBS 100c', 'KBS 100e']",Q800490
1059,19671059,Schützallee Ecke Onkel-Tom-Strasse,bus,"52.4406263121593, 13.255177908871318",['A66'],nan
1060,19671060,Seebugerstrasse Ecke Pichelsdorferstrasse,bus,"52.52917051434413, 13.195651259490834",['A13'],nan
1061,19671061,Seegefelder Weg,bus,"52.549813200063646, 13.128679816115987",['A63'],nan
1062,19671062,Seelenbinderstrasse Ecke Bahnhofstrasse,strassenbahn,"52.4554632,13.5769303","['84', '87']",Q66324934
1063,19671063,Seesenerstrasse Ecke Hohenzollerndamm,bus,"52.48846116394224, 13.302150021095338",['S3'],nan
1064,19671064,Seestr.,u-bahn,"52.55056,13.35194",['6'],Q554391
1065,19671065,Seestrasse Ecke Afrikanischestrasse,bus,"52.54624596766985, 13.344021652901555",['A64'],nan
1066,19671066,Seidelstr. (Flughafen Tegel),u-bahn,"52.571111,13.302778",['6'],Q557582
1067,19671067,Selbitzer Strasse Ecke Krampnitzer Weg,bus,"52.45315521778876, 13.122040068790739",['A35E'],nan
1068,19671068,Senefelderplatz,u-bahn,"52.53242,13.412743",['A'],Q32661454
1069,19671069,Senftenberger Ring,bus,"52.59670203173529, 13.356121038793038",['A21E'],nan
1070,19671070,Seydlitzstrasse Ecke Rathenowerstrasse,bus,"52.5255609658975, 13.356405578501553",['A90'],nan
1071,19671071,Siedlung Habichtswald,bus,"52.47953016057808, 13.142069608219956",['A34E'],nan
1072,19671072,Siemensstadt,s-bahn,"52.53923,13.26365",['KBS 100b'],Q96080453
1073,19671073,Siemensstadt-Fürstenbrunn,s-bahn,"52.528,13.2695",['KBS 100a'],Q18747940
1074,19671074,Simpsonweg,bus,"52.39816914639087, 13.39288653952126",['A82'],nan
1075,19671075,Sommerstrasse Ecke Klemkestrasse,bus,"52.57476543169972, 13.3735118377214",['A79'],nan
1076,19671076,Sonderhauserstrasse Ecke Hildburghauserstrasse,bus,"52.415956180519764, 13.341711771261744",['A2'],nan
1077,19671077,Sonnenallee,s-bahn,"52.473,13.4558",['KBS 100'],Q481364
1078,19671078,Sonnenallee Ecke Baumschulenstrasse,strassenbahn,"52.46085257013217, 13.481340080950037",['92'],nan
1079,19671079,Sonnenallee Ecke Erkstrasse,bus,"52.48167462225099, 13.440103660480876",['A4'],nan
1080,19671080,Sonnenallee Ecke Pannierstrasse,bus,"52.48609620424968, 13.430217857961605",['A75'],nan
1081,19671081,Sophie-Charlotte-Platz,u-bahn,"52.510833333333,13.296666666667",['1'],Q657879
1082,19671082,Sophie-Charlotten-Platz,bus,"52.51094811093668, 13.296499935495818",['A74'],nan
1083,19671083,Sophie-Charlotten-Strasse Ecke Pulsstrasse,bus,"52.52424895516199, 13.285069508880115",['A87'],nan
1084,19671084,Sowjetisches Ehrenmal,bus,"52.485358959701166, 13.46705340935477",['A47'],nan
1085,19671085,Spandau,s-bahn,"52.532, 13.2089","['KBS 100a', 'KBS 100g']",Q800491
1086,19671086,Spandau West,s-bahn,"52.5347,13.1958","['KBS 100a', 'KBS 100g']",Q111325678
1087,19671087,"Spandau, Friedhof",bus,"52.553136286584845, 13.179674445908985",['A34'],nan
1088,19671088,"Spandau, Markt",bus,"52.537581553341596, 13.203797305616401","['A54', 'A56']",nan
1089,19671089,"Spandau, Wasserwerk",bus,"52.55592684238338, 13.16783600781684",['A34'],nan
1090,19671090,Spandauer Damm,bus,"52.51838420899177, 13.280076964056246","['A10', 'A74']",nan
1091,19671091,Spandauer Damm Ecke Sophie-Charlotten-Strasse,bus,"52.51882820056531, 13.286667124223507",['A87'],nan
1092,19671092,Spandauer Damm Ecke Stadtautobahn,bus,"52.51857412672491, 13.283160489189049",['A65'],nan
1093,19671093,Spanische Allee Ecke Kronprizessinnenweg,bus,"52.433820207313325, 13.189402721154853",['S4'],nan
1094,19671094,Spanische Allee Ecke Potsdamerchaussee,bus,"52.42961565609535, 13.22409178123359",['A18'],nan
1095,19671095,Sperberstrasse Ecke Sandhauserstrasse,bus,"52.58735165818818, 13.226011299547928",['A14E'],nan
1096,19671096,Spichernstr. (Bundesallee),u-bahn,"52.496388888889,13.330555555556","['9', '2']",Q667046
1097,19671097,Spichernstrasse Ecke Joachimstaler Strasse,bus,"52.4963190338576, 13.3307628589775",['A2'],nan
1098,19671098,Spindlersfeld,s-bahn,"52.4472,13.5613",['KBS 106'],Q4892371
1099,19671099,Spittelmarkt,strassenbahn,"52.511243321361405, 13.40494539543245","['74', '64']",nan
1100,19671100,Spittelmarkt,u-bahn,"52.511111111111,13.403611111111",['A'],Q569489
1101,19671101,Spreewaldplatz,bus,"52.49746662927152, 13.43173832995115",['A75'],nan
1102,19671102,Staaken,s-bahn,"52.5378,13.1414",['KBS 100a'],Q477545
1103,19671103,Stadion Buschallee,strassenbahn,"52.5566718,13.4869834",['70'],Q65504715
1104,19671104,Stadion Lichterfelde,bus,"52.43867922703144, 13.325050443019501",['A17'],nan
1105,19671105,Stadtmitte,u-bahn,"52.5122,13.3894",['A'],Q660066
1106,19671106,Stadtpark,bus,"52.44890555557147, 13.338827669086982",['A17'],nan
1107,19671107,Stedinger Weg,bus,"52.53925005465954, 13.45247205159168",['A54'],nan
1108,19671108,Steglitz,s-bahn,"52.4562,13.3216",['KBS 100e'],Q111264179
1109,19671109,Steglitzer Damm Ecke Halske Strasse,bus,"52.45003047744661, 13.346670686507988",['A2'],nan
1110,19671110,Steglitzer Damm Ecke Munsterdamm,bus,"52.45000037204289, 13.346702091676368",['A83'],nan
1111,19671111,Steinplatz,bus,"52.50922881774401, 13.325931792420363",['A62'],nan
1112,19671112,Sterndamm,bus,"52.44658674940087, 13.506534865142585",['A47'],nan
1113,19671113,Steuerhaus,strassenbahn,"52.530493,13.4614989","['63', '69', '69E', '64']",Q65553632
1114,19671114,Storkowerstrasse Ecke Greifswalderstrasse,bus,"52.54126983182835, 13.438853750676603",['A54'],nan
1115,19671115,Strab. Bhf. Köpenick,strassenbahn,"52.4399134,13.5817824","['83', '83E', '85']",Q66370900
1116,19671116,Strab. Bhf. Siegfriedstrasse,strassenbahn,"52.5206411,13.4994454","['69', '69E']",Q66014798
1117,19671117,Stralauer Allee Ecke Markgrafendamm,strassenbahn,"52.49740745019046, 13.46463650693144",['82'],nan
1118,19671118,Strandbad,bus,"52.599760109249864, 13.213133160337714",['A14E'],nan
1119,19671119,Strasse 484 Ecke Neuköllnerstrasse,bus,"52.42597637860528, 13.483004998399915",['A52'],nan
1120,19671120,Strasse 78,bus,"52.614646041574915, 13.484873269723556",['A42'],nan
1121,19671121,Strasse nach Saatwinkel,bus,"52.562001332583385, 13.254645985136678",['A13'],nan
1122,19671122,Strausberg,s-bahn,"52.531933,13.836933","['KBS 101c', 'KBS 101']",Q7622326
1123,19671123,Strausberg Nord,s-bahn,"52.5902,13.9084",['KBS 101c'],Q7622324
1124,19671124,Strausberg Stadt,s-bahn,"52.5766,13.8878",['KBS 101c'],Q7622325
1125,19671125,Strausberger Platz,u-bahn,"52.518055555556,13.430833333333",['E'],Q570999
1126,19671126,Stresowplatz,bus,"52.53362877636616, 13.206781830760963","['A5', 'A31', 'A80', 'A56']",nan
1127,19671127,Stromstrasse Ecke Alt-Moabit,bus,"52.52539701700869, 13.342786224224186",['A86'],nan
1128,19671128,Stromstrasse Ecke Turmstrasse,bus,"52.526341844675855, 13.343124963846464","['A70', 'A24']",nan
1129,19671129,Stubenrauchstrasse,bus,"52.4241380170149, 13.485495086038002",['A48'],nan
1130,19671130,Stubenrauchstrasse Ecke Kanalstrasse,bus,"52.43167138147915, 13.495271691543689",['A52'],nan
1131,19671131,Stuttgarter Platz,bus,"52.50551610729052, 13.302923303561508",['A21'],nan
1132,19671132,Stuttgarter Platz Ecke Wilmersdorferstrasse,bus,"52.505667266723236, 13.307004392404677",['A74'],nan
1133,19671133,Stölpchensee,bus,"52.409430239790396, 13.14381794619846",['A18'],nan
1134,19671134,"Stölpchensee, Wilhelmplatz",bus,"52.41240583089011, 13.141644518533106","['A3', 'S4']",nan
1135,19671135,Stößenseebrücke,bus,"52.5089006270181, 13.217490577232331",['A94'],nan
1136,19671136,Sundgauer Str.,s-bahn,"52.436291,13.273772",['KBS 100e'],Q800513
1137,19671137,Sundgauer Strasse Ecke Berlinerstrasse,bus,"52.43833636899285, 13.271438368698744",['A48'],nan
1138,19671138,Sundgauerstrasse Ecke Sophie-Charlotte-Strasse,bus,"52.44581090569525, 13.267762938240798",['S3'],nan
1139,19671139,Säntisstrasse Ecke Mariendorfer Damm,bus,"52.42333247296997, 13.396164512545324",['A78'],nan
1140,19671140,Südende,s-bahn,"52.4481,13.3536",['KBS 100d'],Q800511
1141,19671141,Südstern,bus,"52.488958649509335, 13.40781379557614",['A28'],nan
1142,19671142,Südstern,u-bahn,"52.489444444444,13.407777777778",['7'],Q656081
1143,19671143,Tauroggener Strasse Ecke Osnabrücker Strasse,bus,"52.525838744600904, 13.301852064700281",['A72'],nan
1144,19671144,Tauroggener Strasse Ecke Osnabrückerstrasse,bus,"52.525848873521234, 13.301915580118559",['A89'],nan
1145,19671145,Tegel,s-bahn,"52.5886,13.2894",['KBS 100c'],Q800493
1146,19671146,Tegel,u-bahn,"52.58944,13.28389",['6'],Q656090
1147,19671147,Tegelort,bus,"52.5705390073051, 13.231220862666484",['A20'],nan
1148,19671148,Teichstrasse Ecke Gotthardstrasse,bus,"52.566974111595314, 13.346602483580304",['A64'],nan
1149,19671149,Teltower Damm Ecke Berlinerstrasse,bus,"52.43505617062698, 13.26044574125962",['A53'],nan
1150,19671150,Teltower Damm Ecke Machnowerstrasse,bus,"52.4308217304647, 13.259272239478397",['A10'],nan
1151,19671151,Teltower Damm Ecke Potsdamerstrasse,bus,"52.435059519028655, 13.260384104797224",['A48'],nan
1152,19671152,Teltowerdamm Ecke Clayallee,bus,"52.435060140913535, 13.260415407977545",['A18'],nan
1153,19671153,Teltowerstrasse Ecke Ruhlebenerstrasse,bus,"52.52649488145337, 13.21644671223","['A54', 'A35']",nan
1154,19671154,Tempehofer Damm Ecke Friedrich-Karl-Strasse,bus,"52.45581544855384, 13.383950601851975",['A68'],nan
1155,19671155,Tempelhof,s-bahn,"52.4708,13.3854","['KBS 100k', 'KBS 100']",Q111264368
1156,19671156,Tempelhof,u-bahn,"52.47075,13.385361111111",['6'],Q3983109
1157,19671157,Tempelhofer Damm Ecke Alt-Tempelhof,bus,"52.46602260022989, 13.385511228831781","['A73', 'A65']",nan
1158,19671158,Tempelhofer Damm Ecke Ordensmeisterstrasse,bus,"52.45582321742813, 13.383969709705047",['A25'],nan
1159,19671159,Tessenowstrasse Ecke Oranienburgerstrasse,bus,"52.581461003387226, 13.33387304396357",['A12'],nan
1160,19671160,Teuptitzerstrasse Ecke Kiehl-Ufer,bus,"52.47953358511357, 13.455564998960526",['A4'],nan
1161,19671161,Theodor-Heuss-Platz,bus,"52.50937134345749, 13.272564724049401","['A4', 'A94']",nan
1162,19671162,Theodor-Heuss-Platz,u-bahn,"52.509722222222,13.273055555556",['1'],Q657857
1163,19671163,Thielallee/Pacelliallee,bus,"52.458161495962216, 13.28707254649315",['A68'],nan
1164,19671164,Thielplatz,u-bahn,"52.451111111111,13.282222222222",['2'],Q571331
1165,19671165,Thuner Platz,bus,"52.42375896990032, 13.296184869051308","['A85', 'A53']",nan
1166,19671166,Thälmannplatz,strassenbahn,"52.45059921293253, 13.752440969865605",['S-Bhf. Rahnsdorf <> Woltersdorfer Schleuse (VEB Woltersdorf)'],nan
1167,19671167,Thälmannplatz,u-bahn,"52.51167,13.38472",['A'],Q658391
1168,19671168,Tiergarten,s-bahn,"52.5144,13.3365","['KBS 100g', 'KBS 100h']",Q572112
1169,19671169,Tiergartenstrasse,bus,"52.50960312444174, 13.351320889801638","['A69', 'A24']",nan
1170,19671170,Tierpark Berlin,strassenbahn,"52.50297204519277, 13.520916474066839","['69', '69E']",nan
1171,19671171,Tischlerzeile Ecke Wildmeisterdamm,bus,"52.42536132602125, 13.44879297402946",['A52'],nan
1172,19671172,Tramper Weg Ecke Dannenwalderweg,bus,"52.592566623412566, 13.357949562526414",['A21E'],nan
1173,19671173,"Treptow, Rathaus",bus,"52.48358899866382, 13.480324760498638",['A47'],nan
1174,19671174,Treptower Park,s-bahn,"52.4938,13.4618","['KBS 105', 'KBS 103', 'KBS 106a', 'KBS 103a', 'KBS 106']",Q559274
1175,19671175,Trippsteinstrasse,bus,"52.41893958981137, 13.346149658204126",['A2'],nan
1176,19671176,Turmstr.,u-bahn,"52.52585,13.341352777778",['9'],Q571400
1177,19671177,Turmstrasse Ecke Rathenower Strasse,bus,"52.526759548213356, 13.35531375611548",['A70'],nan
1178,19671178,Turmstrasse Ecke Stromstrasse,bus,"52.52631573511827, 13.34320006470035",['A72'],nan
1179,19671179,U-Bhf Kottbusser Tor,bus,"52.499051258453434, 13.418359009880978",['A28'],nan
1180,19671180,U-Bhf Parchimer Allee,bus,"52.44566826032012, 13.449942053238908",['A98'],nan
1181,19671181,U-Bhf. Alt-Mariendorf,bus,"52.440202628447636, 13.387296995844753","['A11', 'A78', 'A77']",nan
1182,19671182,U-Bhf. Amrumerstrasse,bus,"52.542160623402594, 13.349499736078657",['A64'],nan
1183,19671183,U-Bhf. Blaschko-Allee,bus,"52.45247827369382, 13.448999962354293","['A41', 'A73']",nan
1184,19671184,U-Bhf. Boddinstrasse,bus,"52.48028651973042, 13.425279574612379","['A4', 'A91']",nan
1185,19671185,U-Bhf. Britz-Süd,bus,"52.43696136998766, 13.447541261443378",['A98'],nan
1186,19671186,U-Bhf. Bülowstrasse,bus,"52.49787469517453, 13.362124599310649","['A48', 'A83', 'A75']",nan
1187,19671187,U-Bhf. Dahlem-Dorf,bus,"52.45807069736877, 13.289706947871178",['A68'],nan
1188,19671188,U-Bhf. Dimitroffstrasse,strassenbahn,"52.5401928,13.4113979","['22', '13', '46', '70', '4', '49']",Q65088313
1189,19671189,U-Bhf. Ernst-Reuter-Platz,bus,"52.51164603099566, 13.322290858670174","['A25', 'A62']",nan
1190,19671190,U-Bhf. Fehrbelliner Platz,bus,"52.490390927187676, 13.31417745809863","['A50', 'A21', 'A1', 'A89', 'A4']",nan
1191,19671191,U-Bhf. Flughafen,bus,"52.48488595983176, 13.38599654703171",['A4'],nan
1192,19671192,U-Bhf. Friedrichsfelde,bus,"52.50624112361932, 13.512853060220209","['A43', 'A8', 'A8E', 'A43/R']",nan
1193,19671193,U-Bhf. Gesundbrunnen,bus,"52.548660755358114, 13.387873629581087","['A64', 'A99', 'A14']",nan
1194,19671194,U-Bhf. Gneisenaustrasse,bus,"52.491226587637556, 13.396327911797728",['A89'],nan
1195,19671195,U-Bhf. Grenzallee,bus,"52.46369510254238, 13.444231731166557",['A77'],nan
1196,19671196,U-Bhf. Hallesches Tor,bus,"52.497910015148264, 13.391307667735301",['A24'],nan
1197,19671197,U-Bhf. Heidelberger Platz,bus,"52.48006162214815, 13.312159920359697",['A60'],nan
1198,19671198,U-Bhf. Kaiserdamm,bus,"52.50999451351762, 13.28180313022396",['A10'],nan
1199,19671199,U-Bhf. Karl-Marx-Strasse,bus,"52.476139341208295, 13.439393113488725",['A4'],nan
1200,19671200,U-Bhf. Kochstrasse,bus,"52.50669823641868, 13.390503218886558","['A29', 'A75']",nan
1201,19671201,U-Bhf. Kottbusser Tor,bus,"52.499122758255055, 13.4182411702772",['A67'],nan
1202,19671202,U-Bhf. Krumme Lanke,bus,"52.44308074990891, 13.24046555211665","['A3', 'A53']",nan
1203,19671203,U-Bhf. Kurt-Schumacher-Platz,bus,"52.56338157214657, 13.32719915637487","['A62', 'A61']",nan
1204,19671204,U-Bhf. Leinestrasse,bus,"52.472634832836185, 13.428552064915147",['A91'],nan
1205,19671205,U-Bhf. Leopold-Platz,bus,"52.54640033291444, 13.359096803326494",['A12'],nan
1206,19671206,U-Bhf. Luxemburgplatz,bus,"52.527978233139706, 13.410372775049936","['A57', 'A9', 'O30']",nan
1207,19671207,U-Bhf. Luxemburgplatz,strassenbahn,"52.5286105,13.4104123","['63', '72', '73', '82', '71']",Q65690179
1208,19671208,U-Bhf. Mehringdamm,bus,"52.49515666726518, 13.389395498893041","['A89', 'A28']",nan
1209,19671209,U-Bhf. Moritzplatz,bus,"52.50366899509004, 13.41055755394872",['A75'],nan
1210,19671210,U-Bhf. Märkisches Museum,strassenbahn,"52.51272427882261, 13.411290606073608","['74', '64']",nan
1211,19671211,U-Bhf. Neukölln,bus,"52.46951739972892, 13.44165342826323",['A77'],nan
1212,19671212,U-Bhf. Onkel-Toms-Hütte,bus,"52.45007713385221, 13.251272593463492","['A3', 'A66']",nan
1213,19671213,U-Bhf. Oskar-Helene-Heim,bus,"52.450279005868815, 13.270361987159156","['A11', 'A3', 'A1', 'S3', 'A18']",nan
1214,19671214,U-Bhf. Pankow (Vinetastrasse),bus,"52.559329803871, 13.413333194922279","['A58', 'A50']",nan
1215,19671215,U-Bhf. Parchimer Allee,bus,"52.44566869961195, 13.44991915431808",['A25'],nan
1216,19671216,U-Bhf. Prinzenstrasse,bus,"52.49844153838657, 13.406643837212261",['A28'],nan
1217,19671217,U-Bhf. Richard-Wagner-Platz,bus,"52.51745457872731, 13.306577542724405",['S1'],nan
1218,19671218,U-Bhf. Ruhleben,bus,"52.52596833151868, 13.241478578696297","['A35', 'A80', 'A5', 'A56', 'S1', 'A54', 'A31']",nan
1219,19671219,U-Bhf. Rüdesheimer Platz,bus,"52.4720831087791, 13.314909778144818",['A17'],nan
1220,19671220,U-Bhf. Scharnweberstrasse,bus,"52.56723085204371, 13.311435188438125","['A61', 'A21']",nan
1221,19671221,U-Bhf. Schlesisches Tor,bus,"52.50108419874335, 13.441971259873345",['A28'],nan
1222,19671222,U-Bhf. Seestrasse,bus,"52.550315408708514, 13.352298502985231","['A89', 'A16', 'A12']",nan
1223,19671223,U-Bhf. Spichernstrasse,bus,"52.49661912400034, 13.330712965202862","['S3', 'A81']","nan+nan, nan"
1224,19671224,U-Bhf. Stadtmitte,bus,"52.5104179669139, 13.389881304836392",['A59'],nan
1225,19671225,U-Bhf. Strausberger Platz,strassenbahn,"52.51808306742478, 13.432938339097822","['74', '64']",nan
1226,19671226,U-Bhf. Strausburger Platz,strassenbahn,"52.51804587869082, 13.431759793975097",['82'],nan
1227,19671227,U-Bhf. Tegel,bus,"52.589503132547385, 13.283630715732999","['A15', 'A14', 'A20', 'A13']",nan
1228,19671228,U-Bhf. Tempelhof,bus,"52.4698750992553, 13.38558705982547",['A28'],nan
1229,19671229,U-Bhf. Thielplatz,bus,"52.45104520805668, 13.281736418792137",['A10'],nan
1230,19671230,U-Bhf. Thälmannplatz,bus,"52.5114441966642, 13.383432905885536",['A59'],nan
1231,19671231,U-Bhf. Turmstrasse,bus,"52.526364913706246, 13.341336806538983",['A90'],nan
1232,19671232,U-Bhf. Vinetastrasse,bus,"52.55981894046453, 13.413208628380339","['A7', 'A7E']",nan
1233,19671233,U-Bhf. Vinetastrasse,strassenbahn,"52.5596168,13.413232","['22', '46']",Q65075426
1234,19671234,Uckermarkstrasse,bus,"52.52145144349922, 13.596724604247981",['A49'],nan
1235,19671235,Uhlandstr.,u-bahn,"52.5025,13.325555555556",['3'],Q568224
1236,19671236,Uhlandstrasse Ecke Güntzelstrasse,bus,"52.491527105416, 13.32321130281692",['A50'],nan
1237,19671237,Uhlandstrasse Ecke Hohenzollerndamm,bus,"52.49370879466278, 13.3235887126991",['S3'],nan
1238,19671238,Uhlandstrasse Ecke Kurfürstendamm,bus,"52.502532428867724, 13.325280453057784","['A29', 'A69']",nan
1239,19671239,Uhlenhorst,strassenbahn,"52.468276850494775, 13.5867542618861","['82', '86', '83']",nan
1240,19671240,Ullsteinstr.,u-bahn,"52.453775,13.384302777778",['6'],Q637870
1241,19671241,Unionplatz,bus,"52.533059397499464, 13.337278814540305","['A99', 'A25']",nan
1242,19671242,Unter den Eichen Ecke Habelschwerdter-Allee,bus,"52.44567489464425, 13.29371363542892",['A11'],nan
1243,19671243,Urban-Krankenhaus,bus,"52.493469358698874, 13.406245116325284","['A95', 'A28']",nan
1244,19671244,Usedomer Strasse Ecke Brunnenstrasse,bus,"52.54111444748482, 13.393771487382672",['A71'],nan
1245,19671245,Usedomerstrasse Ecke Brunnenstrasse,bus,"52.541120917345495, 13.393781511932351",['A61'],nan
1246,19671246,VEB Bautransporte,bus,"52.44295541604966, 13.519519091051876",['A26'],nan
1247,19671247,VEB Schiffswerft,strassenbahn,"52.42547977761138, 13.586220039541647","['83', '83E', '85']",nan
1248,19671248,Velten (Mark),s-bahn,"52.685,13.172222",['KBS 104d'],Q19274518
1249,19671249,Verwaltungs-Gebäude,bus,"52.537063326963775, 13.262285169635492",['A10'],nan
1250,19671250,Veteranenstrasse Ecke Brunnenstrasse,bus,"52.53262273090187, 13.39887551925609",['A16'],nan
1251,19671251,Veteranenstrasse Ecke Invalidenstrasse,strassenbahn,"52.53267133254846, 13.398886498888846",['82'],nan
1252,19671252,Viktoria-Luise-Platz,u-bahn,"52.496161111111,13.342702777778",['4'],Q178685
1253,19671253,Vinetaplatz,bus,"52.54113780146798, 13.398421301960559","['A64', 'A90', 'A71']",nan
1254,19671254,Virchow-Krankenhaus,bus,"52.54371513062133, 13.339317916518894",['A16'],nan
1255,19671255,Voltastr.,u-bahn,"52.542093,13.393022",['8'],Q663308
1256,19671256,Waidmannslust,s-bahn,"52.6064,13.321",['KBS 100e'],Q800492
1257,19671257,Waidmannsluster Damm Ecke Oraniendamm,bus,"52.607850168715785, 13.323802799642452",['A12'],nan
1258,19671258,Waldemarplatz,bus,"52.43775537029681, 13.220189780766606",['A53'],nan
1259,19671259,"Waldesruh, Malhlsdorfer Allee",bus,"52.48493120102871, 13.629069441163518",['A8'],nan
1260,19671260,Waldhornstrasse,bus,"52.60288515165948, 13.308053424389595",['A20'],nan
1261,19671261,Waldidyll,strassenbahn,"52.3860340785458, 13.633711636146101",['86'],nan
1262,19671262,Waldkrankenhaus,bus,"52.56214542863615, 13.158340085815741",['A5'],nan
1263,19671263,Waldschänke,bus,"52.443318139967566, 13.68593963431219",['A22'],nan
1264,19671264,Waldstrasse Ecke Turmstrasse,bus,"52.52720083563926, 13.330524926971268",['A72'],nan
1265,19671265,Waldstrasse/Gotzkowskystrasse,bus,"52.52721622390326, 13.330524512340718",['A70'],nan
1266,19671266,Walter-Schreiber-Platz,bus,"52.465038263870944, 13.328465797721938",['A76'],nan
1267,19671267,Walter-Ulbricht-Stadion,strassenbahn,"52.535963327585435, 13.376321651970404","['82', '69']",nan
1268,19671268,Walter-Ulbricht-Stadion über Greifswalderstrasse,strassenbahn,"52.536515137173154, 13.377775719050113",['73'],nan
1269,19671269,"Walter-Ulbricht-Stadion, Pflugstrasse",strassenbahn,"52.53684981281907, 13.37952867915674",['63'],nan
1270,19671270,Waltersdorf,bus,"52.36492901110609, 13.555712408051676",['AD/38'],nan
1271,19671271,Walther-Ulbricht-Stadion,bus,"52.53664798445947, 13.378298128444149",['A59'],nan
1272,19671272,Wannsee,Fähre,"52.421928022812146, 13.175815964118582",['Wannsee<>Kladow (Betrieb durch Stern und Kreisschiffahrt)'],nan
1273,19671273,Wannsee,s-bahn,"52.4214,13.1792","['KBS 100h', 'KBS 100e']",Q111325896
1274,19671274,Warnemünder Strasse,bus,"52.47539404289092, 13.290313295533931",['A17'],nan
1275,19671275,Warnemünder/Berkaer Strasse,bus,"52.47543626291202, 13.290288437340868",['A60'],nan
1276,19671276,Warschauer Str.,s-bahn,"52.506416666667,13.450955555556","['KBS 104', 'KBS 103', 'KBS 102', 'KBS 103a', 'KBS 101']",Q111252298
1277,19671277,Warschauer Strasse,bus,"52.512432267445355, 13.452598837307189",['O30'],nan
1278,19671278,Warschauer Strasse,strassenbahn,"52.50502,13.44863","['82', '3']",Q63490275
1279,19671279,"Wartenberg, Lindenbergerstrasse",bus,"52.574853834797615, 13.518015937548133",['A39'],nan
1280,19671280,"Wartenberg, Schule",bus,"52.582883330021566, 13.52853971108729",['A39'],nan
1281,19671281,"Wartenberg, Siedlung",bus,"52.58393195902164, 13.53076033685478",['A39'],nan
1282,19671282,Washingtonplatz,bus,"52.52421575930872, 13.370599576836959",['A83'],nan
1283,19671283,Wasserwerk,strassenbahn,"52.4560563,13.6419956",['87'],Q66362601
1284,19671284,Wattstrasse Ecke Usedomer Damm,bus,"52.54024702440249, 13.39066183882669",['A90'],nan
1285,19671285,Waßmannsdorfer Chaussee Ecke Neuköllnerstrasse,bus,"52.41568285471829, 13.496218336798636",['A93'],nan
1286,19671286,Wedding,s-bahn,"52.5425,13.3661","['KBS 100a', 'KBS 100']",Q638604
1287,19671287,Weddingplatz,bus,"52.54113612364086, 13.368501029385115","['A72', 'A90', 'A70', 'A83']",nan
1288,19671288,Weinmeisterhornweg,bus,"52.511043998847086, 13.171645488962428",['A13'],nan
1289,19671289,Weinmeisterhornweg Ecke Gatower Strasse,bus,"52.509255097458066, 13.18030527768841",['A34'],nan
1290,19671290,Weinmeisterhornweg Ecke Gatowerstrasse,bus,"52.509262939441044, 13.180337401840518",['A35'],nan
1291,19671291,Weitlingstrasse,bus,"52.500986592433065, 13.492951866603294",['O30'],nan
1292,19671292,Weitlingstrasse Ecke Rummelsburgerstrasse,bus,"52.50094510588374, 13.493022934892716",['A43/R'],nan
1293,19671293,"Weißensee, Bernkastelerstrasse",strassenbahn,"52.557033683601794, 13.466915482720005",['73'],nan
1294,19671294,"Weißensee, Nüßlerstrasse",bus,"52.56398537909407, 13.469733771213992",['A56'],nan
1295,19671295,"Weißensee, Pasedagplatz",strassenbahn,"52.5594027,13.4609594",['72'],Q65954665
1296,19671296,"Weißensee, Schwarzelfenweg",bus,"52.56729838338304, 13.46535452978551",['A45'],nan
1297,19671297,Weißenseer Weg,bus,"52.53305919668049, 13.476252837088406",['O37'],nan
1298,19671298,Weißenseer Weg,strassenbahn,"52.532258,13.476705","['63', '64']",Q65942700
1299,19671299,Wendenschloß,strassenbahn,"52.4169658,13.5885926","['83E', '85']",Q66363928
1300,19671300,Wendenschloß Ecke Ekhofstrasse,strassenbahn,"52.41633000736971, 13.589690772826726",['83'],nan
1301,19671301,Wendenschloßstrasse Ecke Müggelheimerstrasse,bus,"52.44260945038952, 13.582258586234335",['A27'],nan
1302,19671302,Wernerwerk,bus,"52.535626996027915, 13.275370882199947",['A99'],nan
1303,19671303,Wernerwerk,s-bahn,"52.534863,13.27599",['KBS 100b'],Q96077001
1304,19671304,Westend,s-bahn,"52.5181,13.2844",['KBS 100'],Q323214
1305,19671305,Westerwaldstrasse Ecke Falkenseer Chaussee,bus,"52.54879481226057, 13.178135736733907",['A99'],nan
1306,19671306,Westkreuz,s-bahn,"52.5011,13.2839","['KBS 100g', 'KBS 100h', 'KBS 100']",Q678125
1307,19671307,Westpfahlweg,u-bahn,"52.446,13.386",['6'],Q554481
1308,19671308,Wiebestrasse,bus,"52.53119512537686, 13.319063771537584",['A24'],nan
1309,19671309,Wiebestrasse Ecke Kaiserin-Augusta-Allee,bus,"52.52580214309624, 13.317979171208343",['A72'],nan
1310,19671310,Wiebestrasse Ecke Sickingenstrasse,bus,"52.531206244278636, 13.319042720661853",['A70'],nan
1311,19671311,Wiener Brücke,strassenbahn,"52.49588477409083, 13.43650068505988","['95', '87']",nan
1312,19671312,Wiesbadener Strasse,bus,"52.47164544021605, 13.319516803491332",['A16'],nan
1313,19671313,Wiesenbaude,bus,"52.430495242672045, 13.31180861060395","['A84', 'A11', 'A53']",nan
1314,19671314,"Wießensee, Pasedagplatz",strassenbahn,"52.5594027,13.4609594",['74'],nan
1315,19671315,Wigandstalerstrasse Ecke Gustav-Adolf-Strasse,bus,"52.557841348022755, 13.444316939868218",['A56'],nan
1316,19671316,Wildau,s-bahn,"52.32,13.634",['KBS 103'],Q8000974
1317,19671317,Wilhelminenhofstrasse,strassenbahn,"52.460837970970566, 13.521054382869073","['69', '69E']",nan
1318,19671318,Wilhelminenhofstrasse Ecke Edisonstrasse,strassenbahn,"52.4619496,13.5139049","['82', '87']",Q65951882
1319,19671319,Wilhelmshagen,s-bahn,"52.4386,13.7222",['KBS 102'],Q800494
1320,19671320,Wilhelmsruh,s-bahn,"52.5814,13.3631",['KBS 100e'],Q800495
1321,19671321,"Wilhelmsruh, Kopenhagenerstrasse",bus,"52.58389050748314, 13.365472850300666",['A71'],nan
1322,19671322,"Wilhelmsruh, Schillerstrasse",bus,"52.58796525493634, 13.368781651322008",['A45'],nan
1323,19671323,"Wilhelmsruherdamm, Sektorengrenze",bus,"52.597333910146176, 13.367849330574769",['A21'],nan
1324,19671324,Wilhelmstrasse Ecke Heerstrasse,bus,"52.5166499895302, 13.179036925143604","['A97', 'A94']",nan
1325,19671325,Wilhelmstrasse Ecke Klosterstrasse,bus,"52.529169448159244, 13.195652659919547",['A97'],nan
1326,19671326,Wilhelmstrasse Ecke Pichelsdorferstrasse,bus,"52.527959605404874, 13.195282802302891",['A34'],nan
1327,19671327,Wilmerdorferstrasse Ecke Otto-Suhr-Allee,bus,"52.51810711853888, 13.304453200013214",['S1'],nan
1328,19671328,Wilmersdorf,s-bahn,"52.477658333333,13.328525","['KBS 100k', 'KBS 100']",Q464094
1329,19671329,Wilmersdorfer Strasse Ecke Kurfürstendamm,bus,"52.50002844680595, 13.307125123915897","['A29', 'A69', 'A19']",nan
1330,19671330,Wilmersdorferstrasse Ecke Kantstrasse,bus,"52.50669449513379, 13.306675440959262","['S4', 'A94']",nan
1331,19671331,Wilmersdorferstrasse Ecke Otto-Suhr-Allee,bus,"52.51811241460663, 13.304434824223463",['A87'],nan
1332,19671332,Wilsnacker Strasse Ecke Turmstrasse,bus,"52.52642382690729, 13.351705419616707",['A16'],nan
1333,19671333,Winifriedstrasse Ecke Berlinerstrasse,bus,"52.43752068807449, 13.26944465829263",['S3'],nan
1334,19671334,Winifriedstrasse Ecke Clayallee,bus,"52.439229231714734, 13.262871381887154",['A3'],nan
1335,19671335,Wirmerzeile,bus,"52.53678747062152, 13.30272884162477",['A88'],nan
1336,19671336,Wismarer Strasse Ecke Lindenstrasse,bus,"52.41787520476881, 13.305204497252257",['A1'],nan
1337,19671337,Wittenau,bus,"52.596084138285406, 13.332857679505645",['A62'],nan
1338,19671338,Wittenau (Kremmener Bahn),s-bahn,"52.597013,13.334329",['KBS 100c'],Q111264319
1339,19671339,Wittenau (Nordbahn),s-bahn,"52.597013,13.334329",['KBS 100e'],Q111264319
1340,19671340,Wittenbergplatz,bus,"52.50188939146253, 13.342697883756577","['A73', 'A19', 'A29', 'A85', 'A60']",nan
1341,19671341,Wittenbergplatz,u-bahn,"52.501944444444,13.343055555556","['1', '3', '2']",Q692727
1342,19671342,Witzleben,s-bahn,"52.5078,13.2836",['KBS 100'],Q321266
1343,19671343,Wolfmarsteig,bus,"52.41268952057738, 13.536602630335091",['A23'],nan
1344,19671344,Wollankstr.,s-bahn,"52.5651525,13.3923627","['KBS 100c', 'KBS 100e']",Q800515
1345,19671345,"Woltersdorf, Krankenhaus",strassenbahn,"52.447268599163, 13.76152918513502",['S-Bhf. Rahnsdorf <> Woltersdorfer Schleuse (VEB Woltersdorf)'],nan
1346,19671346,Woltersdorfer Schleuse,strassenbahn,"52.443313315690396, 13.763955523989587",['S-Bhf. Rahnsdorf <> Woltersdorfer Schleuse (VEB Woltersdorf)'],nan
1347,19671347,Wröhmannerpark,bus,"52.54211043974185, 13.205928603238073",['A55'],nan
1348,19671348,Wröhmännerpark,bus,"52.542156165442016, 13.205986084364643","['A97', 'A56', 'S1', 'A34', 'A54']",nan
1349,19671349,Wuhlheide,s-bahn,"52.4689,13.5533",['KBS 102'],Q800514
1350,19671350,Wutzkyallee Ecke Strasse 484,bus,"52.425781944028, 13.47393225195155",['A67'],nan
1351,19671351,Würzburgerstrasse Ecke Alt-Lichtenrade,bus,"52.387484995880726, 13.409762963448852",['A82'],nan
1352,19671352,Yorckstr.,s-bahn,"52.491777777778,13.372141666667","['KBS 100c', 'KBS 100d']",Q21776729
1353,19671353,Yorckstrasse Ecke Großbeerenstrasse,bus,"52.49371348390495, 13.383502210451628",['A28'],nan
1354,19671354,Zappoter/Oeynhauser Strasse,bus,"52.47331132628728, 13.298669291589876",['A60'],nan
1355,19671355,Zehlendorf,s-bahn,"52.4309,13.2584","['KBS 100f', 'KBS 100e']",Q737962
1356,19671356,Zeltinger Platz,bus,"52.633501673257435, 13.290447049862035","['A12', 'A15']",nan
1357,19671357,Zentralflughafen,bus,"52.390577379800106, 13.515594573201453",['A36'],nan
1358,19671358,Zentralflughafen Berlin-Schönefeld,s-bahn,"52.3914,13.5128","['KBS 103a', 'KBS 106a']",Q661069
1359,19671359,Zentralschule,bus,"52.43465069286089, 13.703692212644038",['A22'],nan
1360,19671360,Zentralviehhof,s-bahn,"52.5238,13.4644","['KBS 104', 'KBS 105', 'KBS 106a', 'KBS 106']",Q800512
1361,19671361,Zepernick (b Bernau),s-bahn,"52.6598,13.5342",['KBS 106'],Q801657
1362,19671362,Zeuthen,s-bahn,"52.3486,13.6274","['KBS 103', 'KBS 105']",Q8069824
1363,19671363,Ziekowstrasse Ecke Gorkistrasse,bus,"52.59058635821372, 13.292106368112313",['A14'],nan
1364,19671364,Zitadellenweg Ecke Am Juliusturm,bus,"52.5377797402122, 13.21728514752948",['A55'],nan
1365,19671365,"Zoo, Hardenbergplatz",bus,"52.507121394467354, 13.33326398937747","['A55', 'A54']",nan
1366,19671366,Zoologischer Garten,s-bahn,"52.507222222222,13.3325","['KBS 100g', 'KBS 100k', 'KBS 100h']",Q111326238
1367,19671367,Zoologischer Garten,u-bahn,"52.5058669,13.3330236","['9', '1']",Q4024764
1368,19671368,Zossener Strasse Ecke Gneisenaustrasse,bus,"52.49161245114332, 13.394471712156816",['A28'],nan
1369,19671369,Zum Heckeshorn,bus,"52.43307505069834, 13.164008736441371",['A51'],nan
1370,19671370,Zweibrücker Strasse Ecke Falkenseer Chaussee,bus,"52.54673941543329, 13.188764801340437",['A63'],nan
1371,19671371,Zwickauer Damm Ecke Neuköllnerstrasse,bus,"52.42412190520111, 13.485431075141827",['A41'],nan
