stop_name,type,line_name,stop_id,location,identifier,latitude,longitude,match_score,matched_name,matched_stop_id,matched_historical_lines,location_from
Bernauerstr. Ecke Wollinerstr.,tram,2,19610_west,"52.5399996,13.4020564",Q65719652,,,,,,,1961104.0
Voltastr. Ecke Wattstr.,tram,2,19611_west,"52.54152997238806, 13.389571756575245",,,,,,,,19611252.0
Weddingplatz,tram,2,19612_west,"52.54152535588228, 13.369198549039789",,,,,,,,19611282.0
Rathenowerstr. Ecke Perlebergerstr.,tram,2,19613_west,"52.53249876618244, 13.35053125306095",,,,,,,,1961946.0
Alt-Moabit Ecke Rathenowerstr.,tram,2,19614_west,"52.52356,13.35779",Q121863902,,,,,,,196129.0
Stromstr. Ecke Alt-Moabit,tram,2,19615_west,"52.525423127112404, 13.34283986840417",,,,,,,,19611137.0
Gotzkowskybrücke,tram,2,19616_west,"52.52256202362077, 13.328976276425243",,,,,,,,1961419.0
Ernst-Reuter-Platz,tram,2,19617_west,"52.51161823664999, 13.32251039233923",,,,,,,,1961329.0
Bhf. Zoo,tram,2,19618_west,"52.50719345524868, 13.332629878993917",,,,,,,,1961178.0
Wittenbergplatz,tram,2,19619_west,"52.50185025953713, 13.343098350806866",,,,,,,,19611335.0
Grunewaldstr. Ecke Martin-Lutherstr.,tram,2,196110_west,"52.489114608736564, 13.344981706170403",,,,,,,,1961441.0
Rathaus Schöneberg,tram,2,196111_west,"52.48509787554474, 13.345072009289709",,,,,,,,1961933.0
Hauptstr. Ecke Dominicusstr.,tram,2,196112_west,"52.48179322469747, 13.348385662518401",,,,,,,,1961479.0
Kaiser-Wilhelm-Platz,tram,2,196113_west,"52.486331659025346, 13.356584679052645",,,,,,,,1961573.0
Gotenstr.,tram,2,196114_west,"52.4801279061896, 13.360274671318749",,,,,,,,1960419.0
Grüntalerstr. Ecke Osloerstr.,tram,3,196115_west,"52.555331,13.3909979",Q65807452,,,,,,,1961445.0
U-Bhf. Seestr.,tram,3,196116_west,"52.5502459,13.3516304",Q65729619,,,,,,,19611227.0
Bhf. Beusselstr.,tram,3,196117_west,"52.53430684410127, 13.32833762655072",,,,,,,,1961112.0
Gotzkowskystr. Ecke Turmstr.,tram,3,196118_west,"52.52723347192614, 13.330503468404352",,,,,,,,1961420.0
Wiebestr. Ecke Kaiserin-Augusta-Allee,tram,3,196119_west,"52.52581805493254, 13.31804267301598",,,,,,,,19611300.0
Tauroggenerstr. Ecke Osnabrückerstr.,tram,3,196120_west,"52.525838744600904, 13.301970081896242",,,,,,,,19611152.0
Luisenplatz,tram,3,196121_west,"52.51951940474329, 13.300024347605849",,,,,,,,1961730.0
Wilmersdorferstr. Ecke Otto-Suhr-Alle,tram,3,196122_west,"52.518112442546, 13.304359726984016",,,,,,,,19611325.0
Wilmersdorferstr. Ecke Kurfürstendamm,tram,3,196123_west,"52.500032680363084, 13.307221456574052",,,,,,,,19611324.0
Fehrbellinerplatz,tram,3,196124_west,"52.49032472677901, 13.314317300484289",,,,,,,,1961343.0
Berlinerstr. Ecke Bundesallee,tram,3,196125_west,"52.48734559170921, 13.330985557716325",,,,,,,,1961229.0
Grunewaldstr. Ecke Martin-Lutherstr.,tram,3,196126_west,"52.489114608736564, 13.344981706170403",,,,,,,,1961441.0
Potsdamerstr. Ecke Pallasstr.,tram,3,196127_west,"52.49437098285493, 13.361060066548905",,,,,,,,1961893.0
Mehringdamm Ecke Yorckstr.,tram,3,196128_west,"52.492954886841254, 13.387694356760754",,,,,,,,1961782.0
U-Bhf. Südstern,tram,3,196129_west,"52.48899443353793, 13.40800672025058",,,,,,,,19611229.0
Hermannplatz,tram,3,196130_west,"52.487085572732276, 13.424752445258537",,,,,,,,1961502.0
Wilderbruchstr. Ecke Sonnenallee,tram,3,196131_west,"52.48172850402205, 13.440160266547615",,,,,,,,19611310.0
Elsenstr. Ecke Heidelbergerstr.,tram,3,196132_west,"52.48685029508912, 13.45118006834624",,,,,,,,1956290.0
Daimlerstr.,tram,15,196133_west,"52.423949959899865, 13.380145054879522",,,,,,,,1961271.0
Bhf. Marienfelde,tram,15,196134_west,"52.42613307832105, 13.375057660174704",,,,,,,,1961145.0
Körtingstr. Ecke Großbeerenstr.,tram,15,196135_west,"52.434802727145076, 13.378295684287906",,,,,,,,1961676.0
Mariendorferdamm,tram,15,196136_west,"52.44016299080784, 13.387234623097394",,,,,,,,1961760.0
Imbrosweg,tram,15,196137_west,"52.443541863050356, 13.398564688322455",,,,,,,,1961547.0
Mariendorfer Friedhof,tram,15,196138_west,"52.44953069256824, 13.404755931664896",,,,,,,,1961761.0
Industriestr.,tram,15,196139_west,"52.455350229930445, 13.409794385645863",,,,,,,,1961548.0
Germaniastr.,tram,15,196140_west,"52.46053782557012, 13.418009045149528",,,,,,,,1961393.0
Frauenklinik,tram,15,196141_west,"52.463949908172545, 13.427509548910932",,,,,,,,1961358.0
Hermannstr.,tram,15,196142_west,"52.46476232618638, 13.432818109719008",,,,,,,,1961505.0
U-Bhf. Neukölln,tram,15,196143_west,"52.46965567921364, 13.441614939772098",,,,,,,,19611217.0
Richardstr.,tram,15,196144_west,"52.47097391592754, 13.446301038467002",,,,,,,,1961964.0
Bhf. Sonnenallee,tram,15,196145_west,"52.47414312526527, 13.455499525035636",,,,,,,,1961159.0
Dammweg,tram,15,196146_west,"52.47070358256429, 13.46392233215299",,,,,,,,1961273.0
Schulenburgpark,tram,15,196147_west,"52.466660612786704, 13.470292593214328",,,,,,,,19611052.0
Spreewaldplatz,tram,26,196148_west,"52.49792227545992, 13.430617008810609",,,,,,,,19611106.0
Reichenbergerstr.,tram,26,196149_west,"52.495535248263636, 13.430362951622532",,,,,,,,1961948.0
Glogauerstr.,tram,26,196150_west,"52.493437003779434, 13.43739124697587",,,,,,,,1961404.0
Sonnenallee,tram,26,196151_west,"52.46218348846541, 13.477104416215733",,,,,,,,19611089.0
Hermannplatz,tram,26,196152_west,"52.487085572732276, 13.424752445258537",,,,,,,,1961502.0
Weichselstr.,tram,26,196153_west,"52.48313752772782, 13.431480309407663",,,,,,,,19611284.0
Rathaus Neukölln,tram,26,196154_west,"52.48159489526684, 13.434274903483136",,,,,,,,1961929.0
Karl-Marx-Platz,tram,26,196155_west,"52.47358382682129, 13.44070604138443",,,,,,,,1961586.0
U-Bhf. Neukölln,tram,26,196156_west,"52.46965567921364, 13.441614939772098",,,,,,,,19611217.0
Silbersteinstr.,tram,26,196157_west,"52.46723844998069, 13.438467144199928",,,,,,,,19611086.0
Hermannstr.,tram,26,196158_west,"52.46476232618638, 13.432818109719008",,,,,,,,1961505.0
Städtische Frauenklinik,tram,26,196159_west,"52.463656969889136, 13.424616755091188",,,,,,,,19611141.0
Germaniastr.,tram,26,196160_west,"52.46053782557012, 13.418009045149528",,,,,,,,1961393.0
Bhf. Teltowkanal,tram,26,196161_west,"52.45739188437929, 13.412438576146661",,,,,,,,1961166.0
Industriestr.,tram,26,196162_west,"52.455350229930445, 13.409794385645863",,,,,,,,1961548.0
Spreewaldplatz,tram,27,196163_west,"52.49792227545992, 13.430617008810609",,,,,,,,19611106.0
Hermannplatz,tram,27,196164_west,"52.487085572732276, 13.424752445258537",,,,,,,,1961502.0
U-Bhf. Boddinstr.,tram,27,196165_west,"52.48027865367161, 13.4251690465859",,,,,,,,19611192.0
U-Bhf. Leinestr.,tram,27,196166_west,"52.473591021401894, 13.428015562483331",,,,,,,,19611214.0
Bhf. Hermannstr.,tram,27,196167_west,"52.4676866643192, 13.431210901516543",,,,,,,,1961127.0
Mariendorferweg Ecke Hermannstr.,tram,27,196168_west,"52.46469083550148, 13.432907024217851",,,,,,,,1961762.0
Germaniapromenade Ecke Britzerdamm,tram,27,196169_west,"52.4608966930734, 13.435060145023824",,,,,,,,1961392.0
Franz-Körnerstr. Ecke Britzerdamm,tram,27,196170_west,"52.45588399633974, 13.437301610724912",,,,,,,,1961367.0
Britzerdamm Ecke Gradestr.,tram,27,196171_west,"52.45263570371839, 13.438520381888571",,,,,,,,1961421.0
Tempelhoferweg Ecke Britzerdamm,tram,27,196172_west,"52.448934594274505, 13.43628485305219",,,,,,,,19611168.0
Mohrinerallee Ecke Buckowerdamm,tram,27,196173_west,"52.444210434540814, 13.433541378183778",,,,,,,,1961788.0
Gutschmidtstr. Ecke Buckowerdamm,tram,27,196174_west,"52.44036543188374, 13.434740081887323",,,,,,,,1961448.0
"Kleinbahn, Buckowerdamm",tram,27,196175_west,"52.438022748003675, 13.434975544021462",,,,,,,,1961608.0
Dachdeckerweg Ecke Buckowerdamm,tram,27,196176_west,"52.43211471342048, 13.435208066542456",,,,,,,,1961266.0
"Parkfriedhof Neukölln, Buckowerdamm",tram,27,196177_west,"52.428374721547385, 13.435001496921483",,,,,,,,1961871.0
Alt-Buckow Ecke Buckowerdamm,tram,27,196178_west,"52.42365120067525, 13.436635949176258",,,,,,,,196119.0
Hermannplatz,tram,47,196179_west,"52.487085572732276, 13.424752445258537",,,,,,,,1961502.0
Weichselstr.,tram,47,196180_west,"52.48313752772782, 13.431480309407663",,,,,,,,19611284.0
Rathaus Neukölln,tram,47,196181_west,"52.48159489526684, 13.434274903483136",,,,,,,,1961929.0
Karl-Marx-Platz,tram,47,196182_west,"52.47358382682129, 13.44070604138443",,,,,,,,1961586.0
U-Bhf. Neukölln,tram,47,196183_west,"52.46965567921364, 13.441614939772098",,,,,,,,19611217.0
Silbersteinstr.,tram,47,196184_west,"52.46723844998069, 13.438467144199928",,,,,,,,19611086.0
U-Bhf. Grenzallee,tram,47,196185_west,"52.46348178875844, 13.444377273631815",,,,,,,,19611205.0
Buschkrug,tram,47,196186_west,"52.452470895695484, 13.450748195174354",,,,,,,,1961237.0
Onkel-Hersestr.,tram,47,196187_west,"52.44827036160263, 13.453893782713148",,,,,,,,1961834.0
Parchimerallee,tram,47,196188_west,"52.44544295914785, 13.455088787662136",,,,,,,,1961869.0
Krankenhause Neukölln,tram,47,196189_west,"52.43977054074335, 13.459359057866306",,,,,,,,1961646.0
Johannisthalerchaussee,tram,47,196190_west,"52.43434580082342, 13.469025837805159",,,,,,,,1961567.0
Wildmeisterdamm,tram,47,196191_west,"52.426124062490864, 13.48276594555747",,,,,,,,19611312.0
Stubenrauchstr.,tram,47,196192_west,"52.42422390261997, 13.485461375958135",,,,,,,,19611138.0
Köpenickerstr.,tram,47,196193_west,"52.420483475304536, 13.538745338445915",,,,,,,,1961674.0
Bahnhofstr.,tram,47,196194_west,"52.40244986860125, 13.512704137216817",,,,,,,,196177.0
Richard-Wagner-Platz,tram,53,196195_west,"52.517570616857, 13.306248118529135",,,,,,,,1961962.0
Luisenplatz,tram,53,196196_west,"52.51951940474329, 13.300024347605849",,,,,,,,1961730.0
Klausenerplatz,tram,53,196197_west,"52.519202008553854, 13.291867366490655",,,,,,,,1961606.0
Königin-Elisabethstr.,tram,53,196198_west,"52.51841661774004, 13.280185271122395",,,,,,,,1961663.0
Kirschenallee,tram,53,196199_west,"52.52037354122697, 13.267241546337495",,,,,,,,1961602.0
Schloss Ruhwald,tram,53,1961100_west,"52.52160139428261, 13.260396465216335",,,,,,,,19611043.0
U-Bhf. Ruhleben,tram,53,1961101_west,"52.52595776615238, 13.241371866188729",,,,,,,,19611222.0
Teltowerstr.,tram,53,1961102_west,"52.52691412538678, 13.215987693499372",,,,,,,,19611161.0
Bhf. Spandau,tram,53,1961103_west,"52.53469533777715, 13.199489615484376",,,,,,,,1961160.0
"Spandau, Markt",tram,53,1961104_west,"52.53784349532438, 13.204135429364628",,,,,,,,19611097.0
Hafenplatz,tram,53,1961105_west,"52.542292547760184, 13.206201126048732",,,,,,,,1961458.0
Lynastr. Ecke Neuendorferstr.,tram,53,1961106_west,"52.54898037206874, 13.210198880046686",,,,,,,,1961737.0
Hohenzollernring,tram,53,1961107_west,"52.55534806923232, 13.198657615343986",,,,,,,,1961532.0
Hakenfelde,tram,53,1961108_west,"52.57886009874865, 13.210057800310379",,,,,,,,1961461.0
Richard-Wagner-Platz,tram,54,1961109_west,"52.517570616857, 13.306248118529135",,,,,,,,1961962.0
Luisenplatz,tram,54,1961110_west,"52.51951940474329, 13.300024347605849",,,,,,,,1961730.0
Klausenerplatz,tram,54,1961111_west,"52.519202008553854, 13.291867366490655",,,,,,,,1961606.0
Königin-Elisabethstr.,tram,54,1961112_west,"52.51841661774004, 13.280185271122395",,,,,,,,1961663.0
Kirschenallee,tram,54,1961113_west,"52.52037354122697, 13.267241546337495",,,,,,,,1961602.0
Schloss Ruhwald,tram,54,1961114_west,"52.52160139428261, 13.260396465216335",,,,,,,,19611043.0
U-Bhf. Ruhleben,tram,54,1961115_west,"52.52595776615238, 13.241371866188729",,,,,,,,19611222.0
Teltowerstr.,tram,54,1961116_west,"52.52691412538678, 13.215987693499372",,,,,,,,19611161.0
Bhf. Spandau,tram,54,1961117_west,"52.53469533777715, 13.199489615484376",,,,,,,,1961160.0
"Spandau, Markt",tram,54,1961118_west,"52.53784349532438, 13.204135429364628",,,,,,,,19611097.0
Hafenplatz,tram,54,1961119_west,"52.542292547760184, 13.206201126048732",,,,,,,,1961458.0
Lynastr. Ecke Neuendorferstr.,tram,54,1961120_west,"52.54898037206874, 13.210198880046686",,,,,,,,1961737.0
Hohenzollernring,tram,54,1961121_west,"52.55534806923232, 13.198657615343986",,,,,,,,1961532.0
Johannesstift,tram,54,1961122_west,"52.56762416524039, 13.191782610265674",,,,,,,,1961564.0
Nollendorfplatz,tram,55,1961123_west,"52.49974136660471, 13.352878927585127",,,,,,,,1961818.0
Wittenbergplatz,tram,55,1961124_west,"52.50185025953713, 13.343098350806866",,,,,,,,19611335.0
Bhf. Zoo,tram,55,1961125_west,"52.50719345524868, 13.332629878993917",,,,,,,,1961178.0
U-Bhf. Ernst-Reuter-Platz,tram,55,1961126_west,"52.511726576083134, 13.32260139821175",,,,,,,,19611198.0
Cauerstr.,tram,55,1961127_west,"52.514690629578695, 13.315200881022642",,,,,,,,1961250.0
Richard-Wagner-Platz,tram,55,1961128_west,"52.517570616857, 13.306248118529135",,,,,,,,1961962.0
Luisenplatz,tram,55,1961129_west,"52.51951940474329, 13.300024347605849",,,,,,,,1961730.0
Osnabrückerstr.,tram,55,1961130_west,"52.52655659018374, 13.297414453709727",,,,,,,,1964874.0
Bhf. Jungfernheide,tram,55,1961131_west,"52.53103413649224, 13.300559481238167",,,,,,,,1961131.0
Jakob-Kaiser-Platz,tram,55,1961132_west,"52.53674527783534, 13.293570890395548",,,,,,,,1961556.0
Quellweg,tram,55,1961133_west,"52.53666578461771, 13.268432707290442",,,,,,,,1961915.0
Paulsternstr.,tram,55,1961134_west,"52.538114851173546, 13.248435943349298",,,,,,,,1961874.0
Zitadellenweg,tram,55,1961135_west,"52.5377758132997, 13.217204249093342",,,,,,,,19611356.0
"Spandau, Markt",tram,55,1961136_west,"52.53784349532438, 13.204135429364628",,,,,,,,19611097.0
Rathaus Spandau,tram,55,1961137_west,"52.53488081670858, 13.199058849732252",,,,,,,,1961936.0
Nauenerstr.,tram,55,1961138_west,"52.5384290651878, 13.182388284496431",,,,,,,,1961806.0
Königin-Elisabethstr.,tram,60,1961139_west,"52.51841661774004, 13.280185271122395",,,,,,,,1961663.0
Sophie-Charlotten-Platz,tram,60,1961140_west,"52.51092145563256, 13.296262773242288",,,,,,,,19611092.0
Stuttgarterplatz,tram,60,1961141_west,"52.50566810519856, 13.306864497506904",,,,,,,,19611140.0
Fehrbellinerplatz,tram,60,1961142_west,"52.49032472677901, 13.314317300484289",,,,,,,,1961343.0
Bundesallee,tram,60,1961143_west,"52.48733630342845, 13.331014163134173",,,,,,,,1961228.0
Rathaus Schöneberg,tram,60,1961144_west,"52.48509787554474, 13.345072009289709",,,,,,,,1961933.0
Hauptstr. (Schöneberg),tram,60,1961145_west,"52.47785084296006, 13.34322373343706",,,,,,,,1961476.0
Bhf. Papestr.,tram,60,1961146_west,"52.474088737380455, 13.363804736501839",,,,,,,,1961149.0
Eythstr.,tram,60,1961147_west,"52.45988973432991, 13.36224461313015",,,,,,,,1961334.0
Belzigerstr.,tram,66,1961148_west,"52.48469759121592, 13.34547616644445",,,,,,,,196187.0
Hauptstr. (Schöneberg),tram,66,1961149_west,"52.47785084296006, 13.34322373343706",,,,,,,,1961476.0
Innsbruckerplatz,tram,66,1961150_west,"52.47804266204959, 13.343446877940893",,,,,,,,1961551.0
Traegerstr.,tram,66,1961151_west,"52.476296219875636, 13.341188525686016",,,,,,,,19611181.0
Ceciliengärten,tram,66,1961152_west,"52.475079473741275, 13.343064768876424",,,,,,,,1961251.0
Rembrandtstr.,tram,66,1961153_west,"52.47116466720471, 13.343688369656276",,,,,,,,1961957.0
Canovastr. (Krankenhaus),tram,66,1961154_west,"52.4631967931949, 13.344688692199414",,,,,,,,1961246.0
Thorwaldsenstr.,tram,66,1961155_west,"52.46136534165126, 13.345121264246712",,,,,,,,19611171.0
Bergstr.,tram,66,1961156_west,"52.45916314067555, 13.34768142911793",,,,,,,,196192.0
Bhf. Lichterfelde-Ost,tram,73,1961157_west,"52.4289149405705, 13.329002919186095",,,,,,,,1961137.0
Wiesenbaude,tram,73,1961158_west,"52.43330952304924, 13.307272184416341",,,,,,,,19611306.0
Moltkestr.,tram,73,1961159_west,"52.440407040891834, 13.316309800686549",,,,,,,,1961790.0
Händelplatz,tram,73,1961160_west,"52.450279094879285, 13.315466784727654",,,,,,,,1961544.0
Schlossstr.,tram,73,1961161_west,"52.4649279288063, 13.328420834164818",,,,,,,,19611047.0
Rathaus Steglitz,tram,73,1961162_west,"52.45691682931275, 13.320745348424166",,,,,,,,1961938.0
Bundesallee Ecke Rheinstr.,tram,73,1961163_west,"52.46491462600472, 13.328502880037894",,,,,,,,1961230.0
Kaisereiche,tram,73,1961164_west,"52.468942127334586, 13.332672961457298",,,,,,,,1961576.0
Lauterplatz,tram,73,1961165_west,"52.475528954378376, 13.340160154844037",,,,,,,,1961688.0
Innsbruckerplatz,tram,73,1961166_west,"52.47804266204959, 13.343446877940893",,,,,,,,1961551.0
Dominicusstr.,tram,73,1961167_west,"52.48182811502358, 13.348369024265194",,,,,,,,1961289.0
Albertstr.,tram,73,1961168_west,"52.48441764584102, 13.352842591071507",,,,,,,,19617.0
Kaiser-Wilhelm-Platz,tram,73,1961169_west,"52.486331659025346, 13.356584679052645",,,,,,,,1961573.0
U-Bhf. Bülowstr.,tram,73,1961170_west,"52.4977947071403, 13.362041491653272",,,,,,,,19611194.0
Lützowstr.,tram,73,1961171_west,"52.503071437757164, 13.365720679612895",,,,,,,,1961742.0
Potsdamerplatz,tram,73,1961172_west,"52.50948236131137, 13.375988156399634",,,,,,,,1961890.0
Finckensteinallee,tram,74,1961173_west,"52.43264816323959, 13.294626828766564",,,,,,,,1961349.0
Wiesenbaude,tram,74,1961174_west,"52.43330952304924, 13.307272184416341",,,,,,,,19611306.0
Moltkestr.,tram,74,1961175_west,"52.440407040891834, 13.316309800686549",,,,,,,,1961790.0
Händelplatz,tram,74,1961176_west,"52.450279094879285, 13.315466784727654",,,,,,,,1961544.0
Schlossstr.,tram,74,1961177_west,"52.4649279288063, 13.328420834164818",,,,,,,,19611047.0
Rathaus Steglitz,tram,74,1961178_west,"52.45691682931275, 13.320745348424166",,,,,,,,1961938.0
Bundesallee,tram,74,1961179_west,"52.46492119902574, 13.32837406654589",,,,,,,,1961228.0
Kaisereiche,tram,74,1961180_west,"52.468942127334586, 13.332672961457298",,,,,,,,1961576.0
Lauterplatz,tram,74,1961181_west,"52.475528954378376, 13.340160154844037",,,,,,,,1961688.0
Innsbruckerplatz,tram,74,1961182_west,"52.47804266204959, 13.343446877940893",,,,,,,,1961551.0
Dominicusstr.,tram,74,1961183_west,"52.48182811502358, 13.348369024265194",,,,,,,,1961289.0
Albertstr.,tram,74,1961184_west,"52.48441764584102, 13.352842591071507",,,,,,,,19617.0
Kaiser-Wilhelm-Platz,tram,74,1961185_west,"52.486331659025346, 13.356584679052645",,,,,,,,1961573.0
U-Bhf. Bülowstr.,tram,74,1961186_west,"52.4977947071403, 13.362041491653272",,,,,,,,19611194.0
Lützowstr.,tram,74,1961187_west,"52.503071437757164, 13.365720679612895",,,,,,,,1961742.0
Potsdamerplatz,tram,74,1961188_west,"52.50948236131137, 13.375988156399634",,,,,,,,1961890.0
"Bhf. Zoo, Kantstr.",tram,75,1961189_west,"52.50540350310839, 13.330367559360592",,,,,,,,1961179.0
Wilmersdorferstr.,tram,75,1961190_west,"52.506692000645316, 13.306692426875525",,,,,,,,19611322.0
Amtsgericht,tram,75,1961191_west,"52.50682617853116, 13.297391449613752",,,,,,,,196153.0
Messedamm,tram,75,1961192_west,"52.50641938570246, 13.280392436943686",,,,,,,,1961785.0
Reichskanzlerplatz,tram,75,1961193_west,"52.5089140766086, 13.272251406623242",,,,,,,,1961950.0
Bhf. Heerstr.,tram,75,1961194_west,"52.50857975740797, 13.258353900023156",,,,,,,,1961125.0
Reichssportfeldstr.,tram,75,1961195_west,"52.507514731015824, 13.242086696344282",,,,,,,,1961952.0
Stößenseebrücke,tram,75,1961196_west,"52.508894368243524, 13.217475972829826",,,,,,,,19641222.0
Pichelsdorferstr.,tram,75,1961197_west,"52.51307046642958, 13.196871153391022",,,,,,,,1961878.0
"Weverstr., Strassenbahnhof",tram,75,1961198_west,"52.51946975407937, 13.19781896484702",,,,,,,,19611297.0
Seeburgerstr.,tram,75,1961199_west,"52.52919074855153, 13.195613280527734",,,,,,,,19611075.0
Rathaus Spandau,tram,75,1961200_west,"52.53488081670858, 13.199058849732252",,,,,,,,1961936.0
"Spandau, Markt",tram,75,1961201_west,"52.53784349532438, 13.204135429364628",,,,,,,,19611097.0
Hafenplatz,tram,75,1961202_west,"52.542292547760184, 13.206201126048732",,,,,,,,1961458.0
Hohenzollernring,tram,75,1961203_west,"52.55569292602298, 13.20744492422738",,,,,,,,1961532.0
Hakenfelde,tram,75,1961204_west,"52.57886009874865, 13.210057800310379",,,,,,,,1961461.0
"Bhf. Zoo, Kantstr.",tram,76,1961205_west,"52.50540350310839, 13.330367559360592",,,,,,,,1961179.0
Wilmersdorferstr.,tram,76,1961206_west,"52.506692000645316, 13.306692426875525",,,,,,,,19611322.0
Amtsgericht,tram,76,1961207_west,"52.50682617853116, 13.297391449613752",,,,,,,,196153.0
Messedamm,tram,76,1961208_west,"52.50641938570246, 13.280392436943686",,,,,,,,1961785.0
Reichskanzlerplatz,tram,76,1961209_west,"52.5089140766086, 13.272251406623242",,,,,,,,1961950.0
Bhf. Heerstr.,tram,76,1961210_west,"52.50857975740797, 13.258353900023156",,,,,,,,1961125.0
Reichssportfeldstr.,tram,76,1961211_west,"52.507514731015824, 13.242086696344282",,,,,,,,1961952.0
Stößenseebrücke,tram,76,1961212_west,"52.508894368243524, 13.217475972829826",,,,,,,,19641222.0
Pichelsdorferstr.,tram,76,1961213_west,"52.51307046642958, 13.196871153391022",,,,,,,,1961878.0
"Weverstr., Strassenbahnhof",tram,76,1961214_west,"52.51946975407937, 13.19781896484702",,,,,,,,19611297.0
Seeburgerstr.,tram,76,1961215_west,"52.52919074855153, 13.195613280527734",,,,,,,,19611075.0
Rathaus Spandau,tram,76,1961216_west,"52.53488081670858, 13.199058849732252",,,,,,,,1961936.0
"Spandau, Markt",tram,76,1961217_west,"52.53784349532438, 13.204135429364628",,,,,,,,19611097.0
Hafenplatz,tram,76,1961218_west,"52.542292547760184, 13.206201126048732",,,,,,,,1961458.0
Hohenzollernring,tram,76,1961219_west,"52.55534806923232, 13.198657615343986",,,,,,,,1961532.0
Johannesstift,tram,76,1961220_west,"52.56762416524039, 13.191782610265674",,,,,,,,1961564.0
Bhf. Zoo,tram,77,1961221_west,"52.50719345524868, 13.332629878993917",,,,,,,,1961178.0
Wittenbergplatz,tram,77,1961222_west,"52.50185025953713, 13.343098350806866",,,,,,,,19611335.0
Grunewaldstr.,tram,77,1961223_west,"52.489099571674906, 13.344928521367574",,,,,,,,1961440.0
Bundesallee,tram,77,1961224_west,"52.48733630342845, 13.331014163134173",,,,,,,,1961228.0
Bundesplatz,tram,77,1961225_west,"52.4777799057296, 13.328566193541166",,,,,,,,1961232.0
Friedrich-Wilhelm-Platz,tram,77,1961226_west,"52.47132415928576, 13.328417218543715",,,,,,,,1961369.0
Schlossstr.,tram,77,1961227_west,"52.4649279288063, 13.328420834164818",,,,,,,,19611047.0
Rathaus Steglitz,tram,77,1961228_west,"52.45691682931275, 13.320745348424166",,,,,,,,1961938.0
Hindenburgdamm,tram,77,1961229_west,"52.45271700038014, 13.319567835182761",,,,,,,,1961514.0
Händelplatz,tram,77,1961230_west,"52.450279094879285, 13.315466784727654",,,,,,,,1961544.0
Bhf. Botanischer Garten,tram,77,1961231_west,"52.44730098506532, 13.3083006582632",,,,,,,,1961113.0
Bhf. Lichterfelde-West,tram,77,1961232_west,"52.442695165817675, 13.297046489476738",,,,,,,,1961139.0
Rittberg-Krankenhaus,tram,77,1961233_west,"52.42987951650218, 13.288961460110901",,,,,,,,1961968.0
Wismarerstr.,tram,77,1961234_west,"52.42195291492597, 13.29850599537737",,,,,,,,19611329.0
Goerzallee,tram,77,1961235_west,"52.421943941201924, 13.298506647186814",,,,,,,,1961409.0
Bhf. Zoo,tram,78,1961236_west,"52.50719345524868, 13.332629878993917",,,,,,,,1961178.0
Wittenbergplatz,tram,78,1961237_west,"52.50185025953713, 13.343098350806866",,,,,,,,19611335.0
Grunewaldstr.,tram,78,1961238_west,"52.489099571674906, 13.344928521367574",,,,,,,,1961440.0
Bundesallee,tram,78,1961239_west,"52.48733630342845, 13.331014163134173",,,,,,,,1961228.0
Bundesplatz,tram,78,1961240_west,"52.4777799057296, 13.328566193541166",,,,,,,,1961232.0
Friedrich-Wilhelm-Platz,tram,78,1961241_west,"52.47132415928576, 13.328417218543715",,,,,,,,1961369.0
Schlossstr.,tram,78,1961242_west,"52.4649279288063, 13.328420834164818",,,,,,,,19611047.0
Rathaus Steglitz,tram,78,1961243_west,"52.45691682931275, 13.320745348424166",,,,,,,,1961938.0
Hindenburgdamm,tram,78,1961244_west,"52.45271700038014, 13.319567835182761",,,,,,,,1961514.0
Händelplatz,tram,78,1961245_west,"52.450279094879285, 13.315466784727654",,,,,,,,1961544.0
Bhf. Botanischer Garten,tram,78,1961246_west,"52.44730098506532, 13.3083006582632",,,,,,,,1961113.0
Bhf. Lichterfelde-West,tram,78,1961247_west,"52.442695165817675, 13.297046489476738",,,,,,,,1961139.0
Rittberg-Krankenhaus,tram,78,1961248_west,"52.42987951650218, 13.288961460110901",,,,,,,,1961968.0
Goerzallee,tram,78,1961249_west,"52.421943941201924, 13.298506647186814",,,,,,,,1961409.0
Lichterfelde-West Lindenstr.,tram,78,1961250_west,"52.416224714960904, 13.311832010279808",,,,,,,,19611366.0
Mehringplatz,tram,95,1961251_west,"52.4979249057416, 13.39108106831653",,,,,,,,1961783.0
Zossenerstr. Ecke Blücherstr.,tram,95,1961252_west,"52.49622054069677, 13.395106811633234",,,,,,,,19611361.0
Baerwaldstr. Ecke Urbanstr.,tram,95,1961253_west,"52.493899843231475, 13.403460093532933",,,,,,,,196173.0
Hermannplatz,tram,95,1961254_west,"52.487085572732276, 13.424752445258537",,,,,,,,1961502.0
Erkstr. Ecke Sonnenallee,tram,95,1961255_west,"52.48169987618706, 13.440143697235596",,,,,,,,1961327.0
Hertzbergplatz,tram,95,1961256_west,"52.4773735457893, 13.448843811492495",,,,,,,,1961510.0
Bhf. Sonnenallee,tram,95,1961257_west,"52.47414312526527, 13.455499525035636",,,,,,,,1961159.0
Dammweg Ecke Sonnenallee,tram,95,1961258_west,"52.4702891791955, 13.464619670250386",,,,,,,,1961274.0
Schulenburgpark,tram,95,1961259_west,"52.466660612786704, 13.470292593214328",,,,,,,,19611052.0
Schwarzerweg Ecke Sonnenallee,tram,95,1961260_west,"52.46218348846541, 13.477104416215733",,,,,,,,19611057.0
Lindenstr.,tram,96,1961261_west,"52.50703628824205, 13.398245194666595",,,,,,,,1961721.0
Mehringplatz,tram,96,1961262_west,"52.4979249057416, 13.39108106831653",,,,,,,,1961783.0
Yorckstr.,tram,96,1961263_west,"52.492901206042376, 13.387766831697483",,,,,,,,19611346.0
U-Bhf. Flughafen,tram,96,1961264_west,"52.484779980367215, 13.385962227231367",,,,,,,,19611201.0
Adolf-Scheidt-Platz,tram,96,1961265_west,"52.478194856980814, 13.37836902238447",,,,,,,,19613.0
Berlinickeplatz,tram,96,1961266_west,"52.466329675590764, 13.378144688199017",,,,,,,,1961100.0
Attilaplatz,tram,96,1961267_west,"52.455498340147045, 13.375619638525905",,,,,,,,196165.0
Bhf. Mariendorf,tram,96,1961268_west,"52.447078310256, 13.361439800164863",,,,,,,,1961143.0
"Lankwitz, Kirche",tram,96,1961269_west,"52.43629411008752, 13.34577793920493",,,,,,,,1961686.0
Sydlitzstr. Ecke Kaiser-Wilhelmstr.,tram,96,1961270_west,"52.43195972077168, 13.338109786819931",,,,,,,,19611146.0
Bhf. Lichterfelde-Ost,tram,96,1961271_west,"52.4289149405705, 13.329002919186095",,,,,,,,1961137.0
Ostpreußendamm Ecke Morgensternstr.,tram,96,1961272_west,"52.42585546925107, 13.316822725126194",,,,,,,,1961852.0
Giesendorferstr. Ecke Ostpreußendamm,tram,96,1961273_west,"52.42404034141401, 13.314380054820173",,,,,,,,1961399.0
Wismarerstr. Ecke Ostpreußendamm,tram,96,1961274_west,"52.41786193949108, 13.305195152904869",,,,,,,,19611330.0
Schwelmerstr. Ecke Ostpreußendamm,tram,96,1961275_west,"52.41219656071037, 13.29903796654036",,,,,,,,19611059.0
Waldstr. Ecke Turmstr.,autobus,A1,1961276_west,"52.52723999918061, 13.33057857025633",,,,,,,,19611364.0
Otto-Suhr-Allee,autobus,A1,1961277_west,"52.51469791251031, 13.315136925389936",,,,,,,,1961853.0
U-Bhf. Fehrbellinerplatz,autobus,A1,1961278_west,"52.490390927187676, 13.31417745809863",,,,,,,,19611199.0
Detmolderstr.,autobus,A1,1961279_west,"52.47876003,13.32030364",,52.47876003,13.32030364,90,Detmolderstr. Ecke Blissestr.,19674_west,['A1'],
Breitenbachplatz,autobus,A1,1961280_west,"52.467219717443385, 13.309473490660878",,,,,,,,1961209.0
Botanischer Garten,autobus,A1,1961281_west,"52.458598799471524, 13.303436055459807",,,,,,,,1961203.0
Pacelli-/Thielallee,autobus,A1,1961282_west,"52.45824695,13.28706661",,52.45824695,13.28706661,92,Pacelli/Theilallee,19677_west,['A1'],
Clayallee,autobus,A1,1961283_west,"52.46042333572993, 13.274946148765821",,,,,,,,1961257.0
U-Bhf. Oskar-Helene-Heim,autobus,A1,1961284_west,"52.450279005868815, 13.270361987159156",,,,,,,,19611219.0
Bhf. Zehlendorf,autobus,A1,1961285_west,"52.43121177777893, 13.259164408129196",,,,,,,,1961176.0
Beeskowdamm,autobus,A1,1961286_west,"52.40988367,13.2735291",,52.40988367,13.2735291,90,Beeskowdamm Ecke Goerzallee,196712_west,['A1'],
Wismarerstr.,autobus,A1,1961287_west,"52.421953196010676,13.298466295797924",,52.421953196010676,13.298466295797924,100,Wismarerstr.,196713_west,['A1'],
Ernst-Reuter-Platz,autobus,A2,1961289_west,"52.511591823135106, 13.322571528312595",,,,,,,,1961328.0
Bhf. Zoo,autobus,A2,1961290_west,"52.507029532025605, 13.333220118900503",,,,,,,,1961177.0
Spichernstr. Ecke Bundesallee,autobus,A2,1961291_west,"52.49638829618181, 13.330865963780257",,,,,,,,19611101.0
Berlinerstr. Ecke Bundesallee,autobus,A2,1961292_west,"52.48735367071187, 13.33100210517226",,,,,,,,196197.0
Bundesplatz,autobus,A2,1961293_west,"52.478678991134835, 13.32860278411238",,,,,,,,1961231.0
Friedrich-Wilhelm-Platz,autobus,A2,1961294_west,"52.47128806242274, 13.328362126543809",,,,,,,,1961368.0
Schloßstr. Ecke Feuerbachstr.,autobus,A2,1961295_west,"52.4631173264433, 13.326724826984016",,,,,,,,19611049.0
Bergstr. Ecke Bismarckstr.,autobus,A2,1961296_west,"52.45863817204511, 13.33931462421719",,,,,,,,196193.0
Steglitzerdamm Ecke Halskestr.,autobus,A2,1961297_west,"52.45003048,13.34667069",,52.45003048,13.34667069,100,Steglitzerdamm Ecke Halskestr.,196723_west,['A2'],
Leonorenstr. Ecke Siemensstr.,autobus,A2,1961298_west,"52.44438057977062, 13.338875271971135",,,,,,,,1961700.0
"Lankwitz, Kirche",autobus,A2,1961299_west,"52.43629186979271, 13.345745387354132",,,,,,,,1961685.0
Havensteinstr. Ecke Gallwitzallee,autobus,A2,1961300_west,"52.43195312,13.34636317",,52.43195312,13.34636317,88,Havensteinstr. Ecke Gallwitzstr.,196726_west,['A2'],
Lerbacherweg Ecke Gallwitzallee,autobus,A2,1961301_west,"52.425706884201745, 13.347621555992067",,,,,,,,1961704.0
Trippsteinstr.,autobus,A2,1961302_west,"52.41893959,13.34614966",,52.41893959,13.34614966,100,Trippsteinstr.,196728_west,['A2'],
Rathaus Zehlendorf,autobus,A3,1961303_west,"52.433207520111885, 13.259531923613192",,,,,,,,1961942.0
Winifriedstr. Ecke Clayallee,autobus,A3,1961304_west,"52.43922923,13.26287138",,52.43922923,13.26287138,100,Winifriedstr. Ecke Clayallee,196731_west,['A3'],
U-Bhf. Oskar-Helene-Heim,autobus,A3,1961305_west,"52.450279005868815, 13.270361987159156",,,,,,,,19611219.0
U-Bhf. Onkel-Toms-Hütte,autobus,A3,1961306_west,"52.45007713385221, 13.251272593463492",,,,,,,,19611218.0
U-Bhf. Krumme Lanke,autobus,A3,1961307_west,"52.44308074990891, 13.24046555211665",,,,,,,,19611212.0
Bhf. Lindenthalerallee,autobus,A3,1961308_west,"52.43102571,13.22988168",,52.43102571,13.22988168,100,Bhf. Lindenthalerallee,196735_west,['A3'],
Benschallee Ecke Potsdamerchaussee,autobus,A3,1961309_west,"52.42963804,13.2239327",,52.42963804,13.2239327,100,Benschallee Ecke Potsdamerchaussee,196736_west,['A3'],
Schopenhauer-Strasse Ecke Spanischeallee,autobus,A3,1961310_west,"52.43397115,13.21204175",,52.43397115,13.21204175,99,Schopenhauerstrasse Ecke Spanischeallee,196737_west,['A3'],
Bhf. Nikolassee,autobus,A3,1961311_west,"52.43378197004219, 13.193152057415048",,,,,,,,1961147.0
Am Beelitzhof,autobus,A3,1961312_west,"52.432202091928794, 13.186661564435827",,,,,,,,196137.0
Bhf. Wannsee,autobus,A3,1961313_west,"52.42151302311533, 13.17810256503659",,,,,,,,1961169.0
Am Großen Wannsee Ecke Königstr.,autobus,A3,1961314_west,"52.420496581432594, 13.167192967572669",,,,,,,,196141.0
Pfaueninsel-Chaussee Ecke Königstr.,autobus,A3,1961315_west,"52.41888024,13.15298843",,52.41888024,13.15298843,100,Pfaueninsel-Chaussee Ecke Königstr.,196742_west,['A3'],
Rathaus Wannsee,autobus,A3,1961316_west,"52.418440129670444, 13.148872492834737",,,,,,,,1961941.0
"Stölpchensee, Wilhelmplatz",autobus,A3,1961317_west,"52.41240583089011, 13.141644518533106",,,,,,,,19611142.0
"Haselhorst, Kirche",autobus,A10,1961318_west,"52.54682818,13.23706589",,52.54682818,13.23706589,100,"Haselhorst, Kirche",196745_west,['A10'],
Paulsternstr.,autobus,A10,1961319_west,"52.54415774195884, 13.247126131065503",,,,,,,,1961873.0
Verwaltungs-Gebäude,autobus,A10,1961320_west,"52.53706333,13.26228517",,52.53706333,13.26228517,100,Verwaltungs-Gebäude,196747_west,['A10'],
Spandauerdamm,autobus,A10,1961321_west,"52.51838420899177, 13.280076964056246",,,,,,,,19611098.0
U-Bhf. Kaiserdamm,autobus,A10,1961322_west,"52.50999451,13.28180313",,52.50999451,13.28180313,100,U-Bhf. Kaiserdamm,196749_west,['A10'],
Amtsgerichsplatz,autobus,A10,1961323_west,"52.50685665976427, 13.295057483522156",,,,,,,,196152.0
Bhf. Halensee,autobus,A10,1961324_west,"52.496865585452014, 13.289557340809273",,,,,,,,1961124.0
Elsterplatz,autobus,A10,1961325_west,"52.47977982878401, 13.285507613099716",,,,,,,,1961318.0
Hundekehlestr.,autobus,A10,1961326_west,"52.47548162130776, 13.290308772196097",,,,,,,,1961543.0
Königin-Luisestr.,autobus,A10,1961327_west,"52.45831794711095, 13.287027476333241",,,,,,,,1961664.0
U-Bhf. Thielplatz,autobus,A10,1961328_west,"52.45104521,13.28173642",,52.45104521,13.28173642,100,U-Bhf. Thielplatz,196755_west,['A10'],
Dahlemerweg,autobus,A10,1961329_west,"52.44179805042347, 13.282699371472702",,,,,,,,1961268.0
Teltowerdamm,autobus,A10,1961330_west,"52.43504474561002, 13.2604425311939",,,,,,,,19611159.0
Behring-Krankenhaus,autobus,A10,1961331_west,"52.42410895,13.25176454",,52.42410895,13.25176454,100,Behring-Krankenhaus,196758_west,['A10'],
Lupsteinerweg,autobus,A10,1961332_west,"52.40950895,13.25164774",,52.40950895,13.25164774,100,Lupsteinerweg,196759_west,['A10'],
Saargemünderstr.,autobus,A11,1961333_west,"52.45098633,13.27067978",,52.45098633,13.27067978,90,Saargemünderstr. Ecke Clayallee,196760_west,['A11'],
U-Bhf. Oskar-Helene-Heim,autobus,A11,1961334_west,"52.450279005868815, 13.270361987159156",,,,,,,,19611219.0
Ihnestr.,autobus,A11,1961335_west,"52.44831039,13.27635507",,52.44831039,13.27635507,100,Ihnestr.,196762_west,['A11'],
Corrensplatz,autobus,A11,1961336_west,"52.44601401,13.28426468",,52.44601401,13.28426468,100,Corrensplatz,196763_west,['A11'],
Unter den Eichen Ecke Habelschwerdterallee,autobus,A11,1961337_west,"52.44567489,13.29371364",,52.44567489,13.29371364,99,Unter den Eichen Ecke Habelschwerdter-Allee,196764_west,['A11'],
Bhf. Lichterfelde-West,autobus,A11,1961338_west,"52.44397675869793, 13.295628699942629",,,,,,,,1961138.0
Ringstr.,autobus,A11,1961339_west,"52.43977281,13.30017508",,52.43977281,13.30017508,100,Ringstr.,196766_west,['A11'],
Wiesenbaude,autobus,A11,1961340_west,"52.430495242672045, 13.31180861060395",,,,,,,,19611305.0
Unter den Eichen Ecke Drakestr.,autobus,A11,1961341_west,"52.445733691746746, 13.293722374035292",,,,,,,,196198.0
Marienstr.,autobus,A11,1961342_west,"52.42960010456386, 13.321303543636025",,,,,,,,1961767.0
Morgensternstr. Ecke Wilhelmstr.,autobus,A11,1961343_west,"52.42808959398118, 13.325491157001045",,,,,,,,1961791.0
Bhf. Lichterfelde-Ost,autobus,A11,1961344_west,"52.42911680950547, 13.329847267881705",,,,,,,,1961136.0
Langestr.,autobus,A11,1961345_west,"52.42401188883506, 13.333131159875414",,,,,,,,1961681.0
Hildburghauserstr.,autobus,A11,1961346_west,"52.41665075,13.33814404",,52.41665075,13.33814404,100,Hildburghauserstr.,196770_west,['A11'],
Apoldaerstr. Ecke Sonderhauserstr.,autobus,A11,1961347_west,"52.41944943945407, 13.342640667996188",,,,,,,,196159.0
Trippsteinstr.,autobus,A11,1961348_west,"52.41893958981137, 13.346149658204126",,,,,,,,19611186.0
Gartenstr. Ecke Bernauerstr.,autobus,A12,1961349_west,"52.53347452,13.38747412",,52.53347452,13.38747412,100,Gartenstr. Ecke Bernauerstr.,196775_west,['A12'],
Grenzstr.,autobus,A12,1961350_west,"52.541822798579034, 13.378147647725354",,,,,,,,1961429.0
U-Bhf. Leopold-Platz,autobus,A12,1961351_west,"52.54640033,13.3590968",,52.54640033,13.3590968,100,U-Bhf. Leopold-Platz,196777_west,['A12'],
U-Bhf. Seestr.,autobus,A12,1961352_west,"52.550315408708514, 13.352298502985231",,,,,,,,19611226.0
Bristolstr.,autobus,A12,1961353_west,"52.55830889,13.35117448",,52.55830889,13.35117448,90,Bristolstr. Ecke Barfusstr.,196779_west,['A12'],
Emmentalerstr.,autobus,A12,1961354_west,"52.56751501,13.35118144",,52.56751501,13.35118144,90,Emmentalerstr. Ecke Aroserallee,196780_west,['A12'],
Lindauerstr.,autobus,A12,1961355_west,"52.573378512244474, 13.359026284637647",,,,,,,,1961717.0
Lindenweg,autobus,A12,1961356_west,"52.58320838924275, 13.343677581838621",,,,,,,,1961724.0
Holzhauserstr.,autobus,A12,1961357_west,"52.59178549505881, 13.326377240287412",,,,,,,,1961536.0
Cyclopstr.,autobus,A12,1961358_west,"52.60208377,13.32483858",,52.60208377,13.32483858,100,Cyclopstr.,196784_west,['A12'],
Zabel-Krüger-Damm,autobus,A12,1961359_west,"52.60786610541416, 13.323845802997752",,,,,,,,19611347.0
Kirchstr.,autobus,A12,1961360_west,"52.61485248170046, 13.317034418727145",,,,,,,,1961601.0
Hermsdorferdamm,autobus,A12,1961361_west,"52.62242143698805, 13.31287835380073",,,,,,,,1961508.0
Bhf. Frohnau,autobus,A12,1961362_west,"52.63311782571585, 13.28947655939645",,,,,,,,1961120.0
Donnersmarckplatz,autobus,A12,1961363_west,"52.62982465,13.28047497",,52.62982465,13.28047497,100,Donnersmarckplatz,196789_west,['A12'],
Hainbuchenstr.,autobus,A12,1961364_west,"52.63439314,13.27475572",,52.63439314,13.27475572,90,Hainbuchenstr. Ecke Kastanienallee,196790_west,['A12'],
Alt-Heiligensee,autobus,A13,1961365_west,"52.60616921042186, 13.210646859320935",,,,,,,,196122.0
Am Dachsbau,autobus,A13,1961366_west,"52.60655284387061, 13.22984370797522",,,,,,,,196138.0
Gabelung,autobus,A13,1961367_west,"52.59988613,13.25204129",,52.59988613,13.25204129,100,Gabelung,196792_west,['A13'],
Ruppinerchaussee,autobus,A13,1961368_west,"52.59792202028554, 13.275075196373528",,,,,,,,1961984.0
U-Bhf. Tegel,autobus,A13,1961369_west,"52.589503132547385, 13.283630715732999",,,,,,,,19611230.0
Bernauerstr.,autobus,A13,1961370_west,"52.57629696,13.29469241",,52.57629696,13.29469241,100,Bernauerstr.,196795_west,['A13'],
Krankenhaus Tegel-Süd,autobus,A13,1961371_west,"52.57573398,13.27874933",,52.57573398,13.27874933,100,Krankenhaus Tegel-Süd,196796_west,['A13'],
Strasse nach Staatwinkel,autobus,A13,1961372_west,"52.56200133,13.25464599",,52.56200133,13.25464599,98,Strasse nach Saatwinkel,196797_west,['A13'],
Paulsternstr.,autobus,A13,1961373_west,"52.54415774,13.24712613",,52.54415774,13.24712613,100,Paulsternstr.,196798_west,['A13'],
Daumstr.,autobus,A13,1961374_west,"52.54060997,13.23226473",,52.54060997,13.23226473,100,Daumstr.,196799_west,['A13'],
Carl-Schurzstr. Ecke Am Juliusturm,autobus,A13,1961375_west,"52.539564379064075, 13.205586144912843",,,,,,,,1961247.0
Rathaus Spandau,autobus,A13,1961376_west,"52.534578361518356, 13.199490942441287",,,,,,,,1961935.0
Päwesinerweg Ecke Seeburgerstr.,autobus,A13,1961378_west,"52.52633954,13.1818775",,52.52633954,13.1818775,90,Päwesinerweg,1967103_west,['A13'],
Heerstr.,autobus,A13,1961379_west,"52.51662457723462, 13.179022303033726",,,,,,,,1961488.0
Weinmeisterhornweg,autobus,A13,1961380_west,"52.511044,13.17164549",,52.511044,13.17164549,100,Weinmeisterhornweg,1967105_west,['A13'],
Alt-Heiligensee,autobus,A14,1961381_west,"52.60616921042186, 13.210646859320935",,,,,,,,196122.0
Mattenbuder Pfad,autobus,A14,1961382_west,"52.61697543,13.22054524",,52.61697543,13.22054524,90,Mattenbuder Pfadchaussee Ecke Hennigsdorferstr.,1967107_west,['A14'],
Bhf. Heiligensee,autobus,A14,1961383_west,"52.625151238346696, 13.229659068045944",,,,,,,,1961126.0
Bhf. Schulzendorf,autobus,A14,1961384_west,"52.61386001623567, 13.245879660333635",,,,,,,,1961152.0
Heiligenseestr.,autobus,A14,1961385_west,"52.59796193636089, 13.275098894138587",,,,,,,,1961492.0
U-Bhf. Tegel,autobus,A14,1961386_west,"52.589503132547385, 13.283630715732999",,,,,,,,19611230.0
Ziekowstr.,autobus,A14,1961387_west,"52.59058636,13.29210637",,52.59058636,13.29210637,90,Ziekowstr. Ecke Gorkistr.,1967112_west,['A14'],
Holzhauserstr.,autobus,A14,1961388_west,"52.59178549505881, 13.326377240287412",,,,,,,,1961536.0
Lindenweg,autobus,A14,1961389_west,"52.58320838924275, 13.343677581838621",,,,,,,,1961724.0
Aroserallee,autobus,A14,1961390_west,"52.57376245122369, 13.351970705456408",,,,,,,,196161.0
Kopenhagenerstr.,autobus,A14,1961391_west,"52.574260461143574, 13.359154742049908",,,,,,,,1961629.0
Pankowerallee,autobus,A14,1961392_west,"52.564667911185886, 13.378087639243981",,,,,,,,1961863.0
Pankstr.,autobus,A14,1961393_west,"52.55229407958284, 13.38145934777098",,,,,,,,1961865.0
U-Bhf. Gesundbrunnen,autobus,A14,1961394_west,"52.548660755358114, 13.387873629581087",,,,,,,,19611203.0
Rügenerstr.,autobus,A14,1961395_west,"52.54479128,13.39106762",,52.54479128,13.39106762,100,Rügenerstr.,1967120_west,['A14'],
Lübarserstr.,autobus,A15,1961396_west,"52.60279972,13.33571235",,52.60279972,13.33571235,90,Lübarserstr. Ecke Eichhorsterweg,1967127_west,['A15'],
Bhf. Wittenau,autobus,A15,1961397_west,"52.59721246906266, 13.332631469768408",,,,,,,,1961173.0
Alt-Wittenau,autobus,A15,1961398_west,"52.59166508975595, 13.326326895395114",,,,,,,,196134.0
Tor 5,autobus,A15,1961399_west,"52.58357682284558, 13.320522582904216",,,,,,,,19611179.0
Bhf. Eichbornstr.,autobus,A15,1961400_west,"52.57760143817809, 13.31554154716",,,,,,,,1961116.0
Holzhauserstr.,autobus,A15,1961401_west,"52.5874928,13.3238967",,52.5874928,13.3238967,90,Holzhauserstr. Ecke Eichborndamm,1967131_west,['A15'],
Borsigwalderweg,autobus,A15,1961402_west,"52.58482847787268, 13.29793542584195",,,,,,,,1961200.0
Gorkistr.,autobus,A15,1961403_west,"52.59059426195262, 13.292011153010927",,,,,,,,1961414.0
U-Bhf. Tegel,autobus,A15,1961404_west,"52.589503132547385, 13.283630715732999",,,,,,,,19611230.0
Hermsdorferdamm,autobus,A15,1961405_west,"52.600011860666825, 13.281303213246002",,,,,,,,1961508.0
Am Fließ,autobus,A15,1961406_west,"52.6034575714732, 13.289613652822638",,,,,,,,196139.0
Schulzendorferstr.,autobus,A15,1961407_west,"52.61057476,13.29548065",,52.61057476,13.29548065,100,Schulzendorferstr.,1967136_west,['A15'],
Bhf. Hermsdorf,autobus,A15,1961408_west,"52.61953939,13.30416069",,52.61953939,13.30416069,100,Bhf. Hermsdorf,1967137_west,['A15'],
Dominikus-Krankenhaus,autobus,A15,1961409_west,"52.62619652,13.29449567",,52.62619652,13.29449567,100,Dominikus-Krankenhaus,1967138_west,['A15'],
Donnersmarckplatz,autobus,A15,1961410_west,"52.62982465046043, 13.28047497184123",,,,,,,,1961292.0
Bhf. Frohnau,autobus,A15,1961411_west,"52.63311782571585, 13.28947655939645",,,,,,,,1961120.0
Louise-Schroeder-Platz,autobus,A16,1961412_west,"52.55713317,13.36551369",,52.55713317,13.36551369,100,Louise-Schroeder-Platz,1967144_west,['A16'],
U-Bhf. Seestr.,autobus,A16,1961413_west,"52.550315408708514, 13.352298502985231",,,,,,,,19611226.0
Afrikanischestr.,autobus,A16,1961414_west,"52.54630154020319, 13.343855247543928",,,,,,,,19615.0
Virchow-Krankenhaus,autobus,A16,1961415_west,"52.54371513,13.33931792",,52.54371513,13.33931792,100,Virchow-Krankenhaus,1967146_west,['A16'],
Turmstr.,autobus,A16,1961417_west,"52.52639995421508, 13.35171729538701",,,,,,,,19601211.0
Hansaplatz,autobus,A16,1961418_west,"52.5179343319099, 13.342038193257153",,,,,,,,1961468.0
Tiergartenstr.,autobus,A16,1961419_west,"52.50960312444174, 13.351320889801638",,,,,,,,19611177.0
Lützowplatz,autobus,A16,1961420_west,"52.505029017314186, 13.351822867208506",,,,,,,,1961740.0
Rathaus Schöneberg,autobus,A16,1961422_west,"52.48515473887597, 13.345086596743203",,,,,,,,1961932.0
Innsbruckerplatz,autobus,A16,1961423_west,"52.478545508234895, 13.34405868604117",,,,,,,,1961549.0
Bundesplatz,autobus,A16,1961424_west,"52.478678991134835, 13.32860278411238",,,,,,,,1961231.0
Wiesbadenerstr.,autobus,A16,1961425_west,"52.47164544,13.3195168",,52.47164544,13.3195168,100,Wiesbadenerstr.,1967157_west,['A16'],
Breitenbachplatz,autobus,A16,1961426_west,"52.467219717443385, 13.309473490660878",,,,,,,,1961209.0
Englerallee,autobus,A16,1961427_west,"52.46177803,13.3044733",,52.46177803,13.3044733,100,Englerallee,1967159_west,['A16'],
Bhf. Grunewald,autobus,A17,1961428_west,"52.488010147803465, 13.26315524644143",,,,,,,,1961123.0
Hagenplatz,autobus,A17,1961429_west,"52.483382973651, 13.265818700272884",,,,,,,,1961459.0
Rosenecke,autobus,A17,1961430_west,"52.47578489322442, 13.282306517997712",,,,,,,,1961976.0
Warnem Nderstr.,autobus,A17,1961431_west,"52.47539404,13.2903133",,52.47539404,13.2903133,96,Warnemünderstr.,1967163_west,['A17'],
U-Bhf. Rüdesheimerplatz,autobus,A17,1961432_west,"52.47208311,13.31490978",,52.47208311,13.31490978,100,U-Bhf. Rüdesheimerplatz,1967164_west,['A17'],
Friedriche-Wilhelm-Platz,autobus,A17,1961433_west,"52.471408713269064, 13.327952650518178",,,,,,,,1961370.0
Rathaus Steglitz,autobus,A17,1961434_west,"52.45563377647203, 13.321050784344678",,,,,,,,1961937.0
Stadtpark,autobus,A17,1961435_west,"52.44890556,13.33882767",,52.44890556,13.33882767,100,Stadtpark,1967168_west,['A17'],
Leonorenstr.,autobus,A17,1961436_west,"52.44436716,13.33887986",,52.44436716,13.33887986,100,Leonorenstr.,1967169_west,['A17'],
Stadion Lichterfelde,autobus,A17,1961437_west,"52.43867923,13.32505044",,52.43867923,13.32505044,100,Stadion Lichterfelde,1967170_west,['A17'],
Wilhelmstr.,autobus,A17,1961438_west,"52.43057879952989, 13.318592903820731",,,,,,,,19611319.0
Morgensternstr. Ecke Wilhelmstr.,autobus,A17,1961439_west,"52.42808959,13.32549116",,52.42808959,13.32549116,100,Morgensternstr. Ecke Wilhelmstr.,1967172_west,['A17'],
Oberhoferplatz,autobus,A17,1961440_west,"52.42410259117963, 13.328170432694991",,,,,,,,1961826.0
Saaleckplatz,autobus,A17,1961441_west,"52.41629158,13.32394196",,52.41629158,13.32394196,100,Saaleckplatz,1967174_west,['A17'],
Saargemünderstr.,autobus,A18,1961442_west,"52.450918082089416, 13.270922488527036",,,,,,,,19611023.0
U-Bhf. Oskar-Helene-Heim,autobus,A18,1961443_west,"52.450279005868815, 13.270361987159156",,,,,,,,19611219.0
Sophie-Charlottenstr.,autobus,A18,1961444_west,"52.44594955353092, 13.267788405970709",,,,,,,,19611093.0
Scharfestr.,autobus,A18,1961445_west,"52.43828828643976, 13.262213345971533",,,,,,,,19611030.0
Mittelstr.,autobus,A18,1961446_west,"52.43475141442549, 13.249262104251452",,,,,,,,1961787.0
Wolzogenstr.,autobus,A18,1961447_west,"52.43229985926568, 13.235719207112487",,,,,,,,19611341.0
Benschallee,autobus,A18,1961448_west,"52.42959261918116, 13.22400013419735",,,,,,,,196188.0
Waldfriedhof,autobus,A18,1961449_west,"52.42599572508999, 13.209246048971062",,,,,,,,19611258.0
Quantzstr.,autobus,A18,1961450_west,"52.423135671729796, 13.202253537880683",,,,,,,,1961914.0
Kronprinzessinenweg,autobus,A18,1961451_west,"52.41996201,13.17528799",,52.41996201,13.17528799,90,Kronprinzessinenweg Ecke Königstr.,1967179_west,['A18'],
Am Grossen Wannsee,autobus,A18,1961452_west,"52.420496581432594, 13.167192967572669",,,,,,,,196140.0
Pfaueninsel-Chaussee,autobus,A18,1961453_west,"52.41883762,13.15303919",,52.41883762,13.15303919,100,Pfaueninsel-Chaussee,1967181_west,['A18'],
Rathaus Wannsee,autobus,A18,1961454_west,"52.418440129670444, 13.148872492834737",,,,,,,,1961941.0
St Lpchensee,autobus,A18,1961455_west,"52.40943024,13.14381795",,52.40943024,13.14381795,96,Stölpchensee,1967183_west,['A18'],
Kohlhasenbrück,autobus,A18,1961456_west,"52.399386850068794, 13.141401147548066",,,,,,,,1964625.0
Roseneck,autobus,A19,1961457_west,"52.47580089902253, 13.282411270445099",,,,,,,,1961974.0
Hagenplatz,autobus,A19,1961458_west,"52.48338297,13.2658187",,52.48338297,13.2658187,100,Hagenplatz,1967186_west,['A19'],
Erdenerstr.,autobus,A19,1961459_west,"52.490558314289494, 13.276360031005654",,,,,,,,1961324.0
Bhf. Halensee,autobus,A19,1961460_west,"52.496865585452014, 13.289557340809273",,,,,,,,1961124.0
Wilmersdorferstr.,autobus,A19,1961461_west,"52.499967660537735, 13.306987838785277",,,,,,,,19611321.0
Olivaerplatz,autobus,A19,1961462_west,"52.50060275704949, 13.313110622018645",,,,,,,,1961830.0
Joachimstalerstr.,autobus,A19,1961463_west,"52.50380704791941, 13.331281572821457",,,,,,,,1961561.0
Breitscheidplatz,autobus,A19,1961464_west,"52.504438063129996, 13.33564615707506",,,,,,,,1961211.0
Wittenbergplatz,autobus,A19,1961465_west,"52.50188939146253, 13.342697883756577",,,,,,,,19611334.0
Nollendorfplatz,autobus,A19,1961466_west,"52.49968844,13.35308644",,52.49968844,13.35308644,100,Nollendorfplatz,1967194_west,['A19'],
Bhf. Yorckstr.,autobus,A19,1961467_west,"52.49297747613118, 13.369530914840707",,,,,,,,1961175.0
Katzbachstr.,autobus,A19,1961468_west,"52.49160279,13.37664279",,52.49160279,13.37664279,90,Katzbachstr. Ecke Yorckstr.,1967197_west,['A19'],
Mehringdamm,autobus,A19,1961469_west,"52.49293918,13.3877203",,52.49293918,13.3877203,100,Mehringdamm,1967198_west,['A19'],
U-Bhf. Flughafen,autobus,A19,1961470_west,"52.48488595983176, 13.38599654703171",,,,,,,,19611200.0
Flughafen,autobus,A19,1961471_west,"52.470965141866394, 13.385641462324475",,,,,,,,1961351.0
Tegelort,autobus,A20,1961472_west,"52.57053901,13.23122086",,52.57053901,13.23122086,100,Tegelort,1967200_west,['A20'],
Walderseestr.,autobus,A20,1961473_west,"52.575655932178144, 13.228965833395124",,,,,,,,19611256.0
Falkenplatz,autobus,A20,1961474_west,"52.58490938,13.22761993",,52.58490938,13.22761993,100,Falkenplatz,1967202_west,['A20'],
Mühlenstr.,autobus,A20,1961475_west,"52.59350028783369, 13.248862690560857",,,,,,,,1961801.0
Heiligenseestr.,autobus,A20,1961476_west,"52.59988429,13.25202758",,52.59988429,13.25202758,90,Heiligenseestr. Ecke Konradshöherstr.,1967204_west,['A20'],
Karolinenstr.,autobus,A20,1961477_west,"52.59678679,13.27666137",,52.59678679,13.27666137,90,Karolinenstr. Ecke Hermsdorferdamm,1967205_west,['A20'],
U-Bhf. Tegel,autobus,A20,1961478_west,"52.58950313,13.28363072",,52.58950313,13.28363072,100,U-Bhf. Tegel,1967206_west,['A20'],
Hatzfeldallee,autobus,A20,1961479_west,"52.59133642,13.28657989",,52.59133642,13.28657989,96,Hatzfeldtallee,1967207_west,['A20'],
Martin-Luther-Friedhof,autobus,A20,1961480_west,"52.59840054,13.2983505",,52.59840054,13.2983505,100,Martin-Luther-Friedhof,1967208_west,['A20'],
Freie Scholle,autobus,A20,1961481_west,"52.59985154,13.30173616",,52.59985154,13.30173616,100,Freie Scholle,1967209_west,['A20'],
Waldstr.,autobus,A20,1961482_west,"52.60193428053164, 13.306047505406614",,,,,,,,19611262.0
Bhf. Waidmannslust,autobus,A20,1961483_west,"52.60711750606285, 13.32022370793147",,,,,,,,1961168.0
Oraniendamm,autobus,A20,1961484_west,"52.60786095,13.32381017",,52.60786095,13.32381017,90,Oraniendamm Ecke Zabel-Krüger-Damm,1967212_west,['A20'],
Am Vierrutenbert,autobus,A20,1961485_west,"52.613698620824124, 13.344231823340426",,,,,,,,196150.0
"Lübars, Dorfaue",autobus,A20,1961486_west,"52.62095733,13.35893448",,52.62095733,13.35893448,100,"Lübars, Dorfaue",1967214_west,['A20'],
Wentowsteig,autobus,A21,1961487_west,"52.59694371557204, 13.360462949429833",,,,,,,,19611293.0
Oranienburgerstr.,autobus,A21,1961488_west,"52.59544415987805, 13.333037366087483",,,,,,,,1961836.0
Alt-Wittenau,autobus,A21,1961489_west,"52.59166508975595, 13.326326895395114",,,,,,,,196134.0
Bhf. Eichbornstr.,autobus,A21,1961490_west,"52.57760143817809, 13.31554154716",,,,,,,,1961116.0
Scharnweberstr.,autobus,A21,1961491_west,"52.567891242257375, 13.31193029694028",,,,,,,,19611034.0
Kurt-Schumacher-Platz,autobus,A21,1961492_west,"52.56343825,13.32713029",,52.56343825,13.32713029,100,Kurt-Schumacher-Platz,1967220_west,['A21'],
Kaserne Südtor,autobus,A21,1961493_west,"52.5568597,13.30843424",,52.5568597,13.30843424,100,Kaserne Südtor,1967221_west,['A21'],
Heckerdamm,autobus,A21,1961494_west,"52.53962816572025, 13.295048454368684",,,,,,,,1961485.0
Bhf. Jungfernheide,autobus,A21,1961495_west,"52.530138785889896, 13.296018817180764",,,,,,,,1961130.0
Luisenplatz,autobus,A21,1961496_west,"52.52005408723936, 13.2995133852506",,,,,,,,1961729.0
Kantstr.,autobus,A21,1961497_west,"52.50678795,13.30232027",,52.50678795,13.30232027,100,Kantstr.,1967225_west,['A21'],
Stuttgarterplatz,autobus,A21,1961498_west,"52.50551611,13.3029233",,52.50551611,13.3029233,100,Stuttgarterplatz,1967226_west,['A21'],
Amtsgericht Charlottenburg,autobus,A21,1961499_west,"52.50571854,13.2953474",,52.50571854,13.2953474,100,Amtsgericht Charlottenburg,1967227_west,['A21'],
Bhf. Hohenzollerndamm,autobus,A21,1961500_west,"52.48832717,13.30143693",,52.48832717,13.30143693,100,Bhf. Hohenzollerndamm,1967229_west,['A21'],
U-Bhf. Fehrbellinerplatz,autobus,A21,1961501_west,"52.490390927187676, 13.31417745809863",,,,,,,,19611199.0
Wiebestr.,autobus,A24,1961502_west,"52.53119513,13.31906377",,52.53119513,13.31906377,100,Wiebestr.,1967237_west,['A24'],
Gotzkowskystr.,autobus,A24,1961503_west,"52.527187214573765, 13.330550930001301",,,,,,,,1964397.0
Stromstr.,autobus,A24,1961504_west,"52.52631690374401, 13.343146315837002",,,,,,,,19611136.0
Rathenowerstr.,autobus,A24,1961505_west,"52.52673250798154, 13.355275614926985",,,,,,,,1961944.0
Alt-Moabit,autobus,A24,1961506_west,"52.524078460891005, 13.357069143313803",,,,,,,,196128.0
John-Foster-Dulles-Allee,autobus,A24,1961507_west,"52.51710164,13.35460447",,52.51710164,13.35460447,90,John-Foster-Dulles-Allee Ecke Spreeweg,1967242_west,['A24'],
Tiergartenstr.,autobus,A24,1961508_west,"52.50960312444174, 13.351320889801638",,,,,,,,19611177.0
Lützowplatz,autobus,A24,1961509_west,"52.505029017314186, 13.351822867208506",,,,,,,,1961740.0
Hafenplatz,autobus,A24,1961510_west,"52.50392084,13.37547988",,52.50392084,13.37547988,100,Hafenplatz,1967246_west,['A24'],
Askanischerplatz,autobus,A24,1961511_west,"52.50447897041404, 13.382295467838158",,,,,,,,196163.0
U-Bhf. Hallesches Tor,autobus,A24,1961512_west,"52.49791002,13.39130767",,52.49791002,13.39130767,100,U-Bhf. Hallesches Tor,1967248_west,['A24'],
Gneisenaustr.,autobus,A24,1961513_west,"52.491573255885584, 13.394331623371611",,,,,,,,1961406.0
Columbiadamm,autobus,A24,1961514_west,"52.48396787,13.39436897",,52.48396787,13.39436897,90,Columbiadamm Ecke Friesenstr.,1967251_west,['A24'],
Tempelhoferdamm,autobus,A24,1961515_west,"52.48422430539437, 13.385891408286207",,,,,,,,19611167.0
Flughafen,autobus,A24,1961516_west,"52.484291745975625,13.38563919067383",,52.484291745975625,13.38563919067383,100,Flughafen,1967252_west,['A24'],
Unionplatz,autobus,A25,1961517_west,"52.533059397499464, 13.337278814540305",,,,,,,,19611240.0
Gotzkowskybrücke,autobus,A25,1961518_west,"52.52381238,13.32972912",,52.52381238,13.32972912,100,Gotzkowskybrücke,1967254_west,['A25'],
Hansaplatz,autobus,A25,1961519_west,"52.51793433,13.34203819",,52.51793433,13.34203819,100,Hansaplatz,1967255_west,['A25'],
U-Bhf. Ernst-Reuter-Platz,autobus,A25,1961520_west,"52.51164603099566, 13.322290858670174",,,,,,,,19611197.0
Bhf. Zoo,autobus,A25,1961521_west,"52.507029532025605, 13.333220118900503",,,,,,,,1961177.0
Pariserstr. Ecke Bundesallee,autobus,A25,1961522_west,"52.48735367,13.33100211",,52.48735367,13.33100211,88,Berlinerstr. Ecke Bundesallee,1967258_west,['A25'],
Berlinerstr. Ecke Bundesallee,autobus,A25,1961523_west,"52.48735367,13.33100211",,52.48735367,13.33100211,100,Berlinerstr. Ecke Bundesallee,1967258_west,['A25'],
Bundesplatz,autobus,A25,1961524_west,"52.478678991134835, 13.32860278411238",,,,,,,,1961231.0
Kaisereiche,autobus,A25,1961525_west,"52.46896806014468, 13.332614886077709",,,,,,,,1961575.0
Grazerplatz,autobus,A25,1961526_west,"52.467636991817486, 13.347565807885369",,,,,,,,1961422.0
Attilaplatz,autobus,A25,1961527_west,"52.45590179888225, 13.376512495751076",,,,,,,,196164.0
Tempelhoferdamm Ecke Friedrich-Karlstr.,autobus,A25,1961528_west,"52.4557662805014, 13.383913574584998",,,,,,,,19611371.0
Gottlieb-Dunkelstr. Ecke Tempelhoferweg,autobus,A25,1961529_west,"52.460486783559624, 13.417983924217406",,,,,,,,1961416.0
Tempelhoferweg Ecke Britzerdamm,autobus,A25,1961530_west,"52.44894113,13.43622048",,52.44894113,13.43622048,95,Britzerdamm Ecke Tempelhoferweg,1967265_west,['A25'],
Grünerweg,autobus,A25,1961531_west,"52.42955863550208, 13.453590733350595",,,,,,,,1961444.0
Gutschmidtstr.,autobus,A25,1961532_west,"52.437076827846255, 13.444129425003135",,,,,,,,1961447.0
Loewenhardtdamm,autobus,A28,1961533_west,"52.47958964,13.37690003",,52.47958964,13.37690003,90,Loewenhardtdamm Ecke Boelckestr.,1967270_west,['A28'],
Dudenstr.,autobus,A28,1961534_west,"52.485078406979376, 13.376567552300232",,,,,,,,1961296.0
Kreuzbergstr.,autobus,A28,1961535_west,"52.48940663862394, 13.376689964763667",,,,,,,,1961647.0
Yorckstr.,autobus,A28,1961536_west,"52.49371348,13.38350221",,52.49371348,13.38350221,90,Yorckstr. Ecke Großbeerenstr.,1967272_west,['A28'],
Mehringdamm,autobus,A28,1961537_west,"52.49293917608851, 13.38772030059097",,,,,,,,1961780.0
Zossenerstr.,autobus,A28,1961538_west,"52.49160676567746, 13.394443897793668",,,,,,,,19611360.0
Südstern,autobus,A28,1961539_west,"52.48895865,13.4078138",,52.48895865,13.4078138,100,Südstern,1967275_west,['A28'],
Urban-Krankenhause,autobus,A28,1961540_west,"52.493469358698874, 13.406245116325284",,,,,,,,19611241.0
U-Bhf. Prinzenstr.,autobus,A28,1961541_west,"52.49844154,13.40664384",,52.49844154,13.40664384,100,U-Bhf. Prinzenstr.,1967277_west,['A28'],
U-Bhf Kottbusser Tor,autobus,A28,1961542_west,"52.49905126,13.41835901",,52.49905126,13.41835901,100,U-Bhf Kottbusser Tor,1967278_west,['A28'],
Oranienstr.,autobus,A28,1961543_west,"52.501310708954215, 13.419224612073883",,,,,,,,1961841.0
Waldemarstr.,autobus,A28,1961544_west,"52.50326279588436, 13.420631417701001",,,,,,,,19611255.0
Mariannenplatz,autobus,A28,1961545_west,"52.50228674,13.42408623",,52.50228674,13.42408623,100,Mariannenplatz,1967280_west,['A28'],
Köpenickerstr. Ecke Manteuffelstr.,autobus,A28,1961546_west,"52.50574939832715, 13.431940956927507",,,,,,,,19611367.0
U-Bhf. Schlesisches Tor,autobus,A28,1961547_west,"52.5010842,13.44197126",,52.5010842,13.44197126,100,U-Bhf. Schlesisches Tor,1967281_west,['A28'],
Heckmannufer,autobus,A28,1961548_west,"52.497047860947596,13.449207528733977",,52.497047860947596,13.449207528733977,100,Heckmannufer,1967282_west,['A28'],
Roseneck,autobus,A29,1961549_west,"52.47580089902253, 13.282411270445099",,,,,,,,1961974.0
Berkaerstr.,autobus,A29,1961550_west,"52.48209271,13.28118295",,52.48209271,13.28118295,100,Berkaerstr.,1967284_west,['A29'],
BSC-Sportplatz,autobus,A29,1961551_west,"52.48590335523557, 13.284366733504768",,,,,,,,196169.0
Bismarckplatz,autobus,A29,1961552_west,"52.49206454,13.28493897",,52.49206454,13.28493897,100,Bismarckplatz,1967285_west,['A29'],
Bhf. Halensee,autobus,A29,1961553_west,"52.496865585452014, 13.289557340809273",,,,,,,,1961124.0
Joachim-Friedrichstr.,autobus,A29,1961554_west,"52.49796465694724, 13.296270941417216",,,,,,,,1961559.0
Wilmersdorferstr.,autobus,A29,1961555_west,"52.499967660537735, 13.306987838785277",,,,,,,,19611321.0
Olivaerplatz,autobus,A29,1961556_west,"52.50060275704949, 13.313110622018645",,,,,,,,1961830.0
Uhlandstr.,autobus,A29,1961557_west,"52.50252020955797, 13.325204349014482",,,,,,,,19611236.0
Joachimstalerstr.,autobus,A29,1961558_west,"52.50380704791941, 13.331281572821457",,,,,,,,1961561.0
Breitscheidplatz,autobus,A29,1961559_west,"52.504438063129996, 13.33564615707506",,,,,,,,1961211.0
Wittenbergplatz,autobus,A29,1961560_west,"52.50188939146253, 13.342697883756577",,,,,,,,19611334.0
Lutherstr.,autobus,A29,1961561_west,"52.50104544166847, 13.34692193817342",,,,,,,,1961733.0
Lützowstr.,autobus,A29,1961562_west,"52.5030985,13.3656971",,52.5030985,13.3656971,90,Lützowstr. Ecke Potsdamerstr.,1967295_west,['A29'],
Askanischerplatz,autobus,A29,1961563_west,"52.50447897041404, 13.382295467838158",,,,,,,,196163.0
Machandelweg,autobus,A31,1961564_west,"52.52483519555124, 13.24567177943413",,,,,,,,1961743.0
U-Bhf. Ruhleben,autobus,A31,1961565_west,"52.52596833151868, 13.241478578696297",,,,,,,,19611221.0
Friedhof Ruhleben,autobus,A31,1961566_west,"52.527735865422024, 13.231788317801291",,,,,,,,1961365.0
Kinderheim Ruhleben,autobus,A31,1961567_west,"52.52796709321304, 13.230713275419049",,,,,,,,1961600.0
Teltowerstr.,autobus,A31,1961568_west,"52.52691807826059, 13.215807069988056",,,,,,,,19611160.0
Grenadierstr.,autobus,A31,1961569_west,"52.530981925368565, 13.205371761701368",,,,,,,,1961427.0
Stresowplatz,autobus,A31,1961570_west,"52.53362877636616, 13.206781830760963",,,,,,,,19611134.0
Breitestr.,autobus,A31,1961571_west,"52.53613613360638, 13.20450629947795",,,,,,,,1961208.0
Rathaus Spandau,autobus,A31,1961572_west,"52.534578361518356, 13.199490942441287",,,,,,,,1961935.0
Brunsbüttelerdamm,autobus,A31,1961573_west,"52.53292762063852, 13.198429555074528",,,,,,,,1980226.0
Nauenerstr.,autobus,A31,1961574_west,"52.5340443,13.18167584",,52.5340443,13.18167584,100,Nauenerstr.,1967302_west,['A31'],
Egelpfuhlstr.,autobus,A31,1961575_west,"52.53353984351533, 13.169416926784528",,,,,,,,1961304.0
Magistratsweg,autobus,A31,1961576_west,"52.53312014,13.15806721",,52.53312014,13.15806721,100,Magistratsweg,1967303_west,['A31'],
Spandauerstr.,autobus,A31,1961577_west,"52.535940922541684, 13.156793426342295",,,,,,,,19611099.0
Hackbuschstr.,autobus,A31,1961578_west,"52.53959956967987, 13.150244533066292",,,,,,,,1961455.0
Heidebergplan,autobus,A31,1961579_west,"52.54107413,13.14733873",,52.54107413,13.14733873,100,Heidebergplan,1967304_west,['A31'],
Breitenbachplatz,autobus,A32,1961580_west,"52.46721972,13.30947349",,52.46721972,13.30947349,100,Breitenbachplatz,1967305_west,['A32'],
Gritznerstr.,autobus,A32,1961581_west,"52.46438146098689, 13.316483335491945",,,,,,,,1964407.0
Schlossstr.,autobus,A32,1961582_west,"52.46502319139203, 13.328512641123645",,,,,,,,19611046.0
Rathaus Steglitz,autobus,A32,1961583_west,"52.45563377647203, 13.321050784344678",,,,,,,,1961937.0
Sedanstr.,autobus,A32,1961584_west,"52.45143021733514, 13.335289250392284",,,,,,,,19611074.0
Stindestr.,autobus,A32,1961585_west,"52.4481390275755, 13.3401193662823",,,,,,,,19641199.0
Leonorenstr.,autobus,A32,1961586_west,"52.444367159567626, 13.338879863390057",,,,,,,,1960707.0
"Lankwitz, Kirche",autobus,A32,1961587_west,"52.43629186979271, 13.345745387354132",,,,,,,,1961685.0
Marienfelderstr.,autobus,A32,1961588_west,"52.43338754214616, 13.353023554563793",,,,,,,,1961765.0
Marchandstr.,autobus,A32,1961589_west,"52.423049326436605, 13.357354547531147",,,,,,,,1961754.0
Marienfelderallee,autobus,A32,1961590_west,"52.413790430379194, 13.362098895780415",,,,,,,,1961764.0
Stegerwaldstr.,autobus,A32,1961591_west,"52.42073935358918, 13.369265336797783",,,,,,,,19611117.0
Bhf. Marienfelde,autobus,A32,1961592_west,"52.42342246533686, 13.374664175181172",,,,,,,,1961144.0
Bhf. Steglitz,autobus,A33,1961593_west,"52.4567389564548, 13.32114701824465",,,,,,,,1961163.0
Breitestr.,autobus,A33,1961594_west,"52.45435057367761, 13.328307509759025",,,,,,,,1961208.0
Klingsorstr.,autobus,A33,1961595_west,"52.45309021884074, 13.33121103955973",,,,,,,,1961614.0
Sedanstr.,autobus,A33,1961596_west,"52.45143021733514, 13.335289250392284",,,,,,,,19611074.0
Bismarckstr.,autobus,A33,1961597_west,"52.45105788558934, 13.337947293504078",,,,,,,,1961183.0
Halskestr.,autobus,A33,1961598_west,"52.449975911659585, 13.34671540590703",,,,,,,,1961464.0
Bhf. Südende,autobus,A33,1961599_west,"52.44906892859584, 13.354097834514832",,,,,,,,1961164.0
Bhf. Mariendorf,autobus,A33,1961600_west,"52.446757741789085, 13.360550212856184",,,,,,,,1961142.0
Kurfürstenstr.,autobus,A33,1961601_west,"52.445643034300396, 13.36805209564975",,,,,,,,1961652.0
Kaiserstr./Ringstr.,autobus,A33,1961602_west,"52.44449600134536, 13.372233806361567",,,,,,,,1961581.0
Rathaus Mariendorf,autobus,A33,1961603_west,"52.44527453682428, 13.379492384246559",,,,,,,,1961928.0
Kaiserstr.,autobus,A33,1961604_west,"52.44510413,13.37400606",,52.44510413,13.37400606,90,Kaiserstr. Ecke Gersdorferstr.,1967314_west,['A33'],
"Spandau, Friedhof",autobus,A34,1961605_west,"52.55313629,13.17967445",,52.55313629,13.17967445,100,"Spandau, Friedhof",1967318_west,['A34'],
Askanierring,autobus,A34,1961606_west,"52.54891706,13.19349559",,52.54891706,13.19349559,90,Askanierring Ecke Falkenhagenerstr.,1967319_west,['A34'],
Hafenplatz,autobus,A34,1961607_west,"52.54215888169655, 13.206044861619935",,,,,,,,1961457.0
Rathaus Spandau,autobus,A34,1961608_west,"52.534578361518356, 13.199490942441287",,,,,,,,1961935.0
Wilhelmstr. Ecke Pichelsdorferstr.,autobus,A34,1961609_west,"52.52795961,13.1952828",,52.52795961,13.1952828,100,Wilhelmstr. Ecke Pichelsdorferstr.,1967322_west,['A34'],
Adamstr.,autobus,A34,1961610_west,"52.521029117218866, 13.19780699419913",,,,,,,,19611.0
Heerstr.,autobus,A34,1961611_west,"52.51550447615084, 13.18456806294143",,,,,,,,1961488.0
Weinmeisterhornweg,autobus,A34,1961612_west,"52.50924681744358, 13.180314851039075",,,,,,,,19611285.0
Ortsgrenze Gatow,autobus,A34,1961613_west,"52.48314231,13.18264737",,52.48314231,13.18264737,86,Großglienickerweg Ecke Alt-Gatow,1967327_west,['A34'],
"Gatow, Kirche",autobus,A34,1961614_west,"52.48684681,13.18215148",,52.48684681,13.18215148,100,"Gatow, Kirche",1967326_west,['A34'],
Großglienickerweg,autobus,A34,1961615_west,"52.48314231,13.18264737",,52.48314231,13.18264737,90,Großglienickerweg Ecke Alt-Gatow,1967327_west,['A34'],
Krankenhaus Hohengatow,autobus,A34,1961616_west,"52.470449875602235, 13.169391604448148",,,,,,,,1961641.0
Krankenhaus Havelhöhe,autobus,A34,1961617_west,"52.46291933,13.15899083",,52.46291933,13.15899083,100,Krankenhaus Havelhöhe,1967329_west,['A34'],
Alt-Kladow,autobus,A34,1961618_west,"52.454591413254434, 13.144488043956764",,,,,,,,196123.0
Schwiezerhaus,autobus,A34,1961619_west,"52.46177835,13.13349263",,52.46177835,13.13349263,100,Schwiezerhaus,1967331_west,['A34'],
Gutshof,autobus,A34,1961620_west,"52.47510904,13.12071054",,52.47510904,13.12071054,100,Gutshof,1967332_west,['A34'],
Germersheimerplatz,autobus,A35,1961621_west,"52.54433253766927, 13.187336363919895",,,,,,,,1961394.0
Askanierring,autobus,A35,1961622_west,"52.545679974269035, 13.194267325495874",,,,,,,,196162.0
Rathaus Spandau,autobus,A35,1961623_west,"52.534578361518356, 13.199490942441287",,,,,,,,1961935.0
Wilhelmstr. Ecke Pichelsdorferstr.,autobus,A35,1961624_west,"52.527959605404874, 13.195282802302891",,,,,,,,19611365.0
Adamstr.,autobus,A35,1961625_west,"52.521029117218866, 13.19780699419913",,,,,,,,19611.0
Heerstr.,autobus,A35,1961626_west,"52.51550447615084, 13.18456806294143",,,,,,,,1961488.0
Gatowerstr.,autobus,A35,1961627_west,"52.489436255649245, 13.180387588417426",,,,,,,,1961390.0
Weinmeisterhornweg,autobus,A35,1961628_west,"52.50924681744358, 13.180314851039075",,,,,,,,19611285.0
Ortsgrenze Gatow,autobus,A35,1961629_west,"52.4981601705565, 13.180014416479423",,,,,,,,1961842.0
"Gatow, Kirche",autobus,A35,1961630_west,"52.48684680676539, 13.18215147844503",,,,,,,,1961389.0
Großglienickerweg,autobus,A35,1961631_west,"52.483148805729485, 13.182630557348212",,,,,,,,1961436.0
Krankenhaus Hohengatow,autobus,A35,1961632_west,"52.47044988,13.1693916",,52.47044988,13.1693916,100,Krankenhaus Hohengatow,1967342_west,['A35'],
Krankenhaus Havelhöhe,autobus,A35,1961633_west,"52.462919334280684, 13.15899083159388",,,,,,,,1961639.0
Alt-Kladow,autobus,A35,1961634_west,"52.454591413254434, 13.144488043956764",,,,,,,,196123.0
Krampnitzerweg,autobus,A35,1961635_west,"52.45226293,13.13840886",,52.45226293,13.13840886,90,Krampnitzerweg Ecke Sakrower Landstr.,1967345_west,['A35'],
Hottengrund,autobus,A35,1961636_west,"52.44597765,13.12625139",,52.44597765,13.12625139,100,Hottengrund,1967346_west,['A35'],
Brixplatz,autobus,A4,1961637_west,"52.51907944,13.25699371",,52.51907944,13.25699371,100,Brixplatz,1967352_west,['A4'],
Reichskanzlerplatz,autobus,A4,1961638_west,"52.50929184084697, 13.27265693784035",,,,,,,,1961949.0
Messedamm,autobus,A4,1961639_west,"52.50446814877144, 13.279412101845791",,,,,,,,1961784.0
Bhf. Halensee,autobus,A4,1961640_west,"52.496865585452014, 13.289557340809273",,,,,,,,1961124.0
Hochmeisterplatz,autobus,A4,1961641_west,"52.49468638,13.30125468",,52.49468638,13.30125468,100,Hochmeisterplatz,1967356_west,['A4'],
U-Bhf. Fehrbellinerplatz,autobus,A4,1961642_west,"52.490390927187676, 13.31417745809863",,,,,,,,19611199.0
Rathaus Schöneberg,autobus,A4,1961643_west,"52.48515473887597, 13.345086596743203",,,,,,,,1961932.0
Innsbruckerplatz,autobus,A4,1961644_west,"52.478545508234895, 13.34405868604117",,,,,,,,1961549.0
Dominicusstr.,autobus,A4,1961645_west,"52.481845594274056, 13.348295976204904",,,,,,,,1961288.0
Kaiser-Wilhelm-Platz,autobus,A4,1961646_west,"52.486329247981715, 13.35655627172785",,,,,,,,1961572.0
U-Bhf. Flughafen,autobus,A4,1961647_west,"52.48488596,13.38599655",,52.48488596,13.38599655,100,U-Bhf. Flughafen,1967362_west,['A4'],
Friesenstr.,autobus,A4,1961648_west,"52.483950604682775, 13.394359749805426",,,,,,,,1961378.0
U-Bhf. Boddinstr.,autobus,A4,1961649_west,"52.48028651973042, 13.425279574612379",,,,,,,,19611191.0
Erkstr. Ecke Sonnenallee,autobus,A4,1961650_west,"52.481673740100334, 13.440111510727606",,,,,,,,19611090.0
Harzerstr.,autobus,A4,1961651_west,"52.48636830082275, 13.446318376662678",,,,,,,,1961471.0
Potsdamerstr. Ecke Fischerhüttenstr.,autobus,A48,1961652_west,"52.43577515,13.256028",,52.43577515,13.256028,100,Potsdamerstr. Ecke Fischerhüttenstr.,1967377_west,['A48'],
Teltowerdamm,autobus,A48,1961653_west,"52.43504474561002, 13.2604425311939",,,,,,,,19611159.0
Sundgauerstr.,autobus,A48,1961654_west,"52.43838201264951, 13.2714479590",,,,,,,,19611145.0
Dahlemerweg,autobus,A48,1961655_west,"52.44179805042347, 13.282699371472702",,,,,,,,1961268.0
Drakestr.,autobus,A48,1961656_west,"52.445733691746746, 13.293722374035292",,,,,,,,1961295.0
Hindenburgdamm,autobus,A48,1961657_west,"52.45352507850236, 13.315671490206539",,,,,,,,1961513.0
Rathaus Steglitz,autobus,A48,1961658_west,"52.45563377647203, 13.321050784344678",,,,,,,,1961937.0
Kaisereiche,autobus,A48,1961659_west,"52.46896806014468, 13.332614886077709",,,,,,,,1961575.0
Innsbruckerplatz,autobus,A48,1961660_west,"52.478545508234895, 13.34405868604117",,,,,,,,1961549.0
Dominicusstr.,autobus,A48,1961661_west,"52.481845594274056, 13.348295976204904",,,,,,,,1961288.0
Kaiser-Wilhelm-Platz,autobus,A48,1961662_west,"52.486329247981715, 13.35655627172785",,,,,,,,1961572.0
Goeben-/Pallasstr.,autobus,A48,1961663_west,"52.49428616,13.36105437",,52.49428616,13.36105437,100,Goeben-/Pallasstr.,1967388_west,['A48'],
U-Bhf. Bülowstr.,autobus,A48,1961664_west,"52.49787469517453, 13.362124599310649",,,,,,,,19611193.0
Lützowstr.,autobus,A48,1961665_west,"52.503101800928995, 13.365680628188969",,,,,,,,1961741.0
Margaretenstr.,autobus,A48,1961666_west,"52.50894074108115, 13.36866960388795",,,,,,,,1961756.0
Machandelweg,autobus,A5,1961667_west,"52.52483519555124, 13.24567177943413",,,,,,,,1961743.0
U-Bhf. Ruhleben,autobus,A5,1961668_west,"52.52596833151868, 13.241478578696297",,,,,,,,19611221.0
Friedhof Ruhleben,autobus,A5,1961669_west,"52.527735865422024, 13.231788317801291",,,,,,,,1961365.0
Hauptkinderheim,autobus,A5,1961670_west,"52.52819346807093, 13.228649269163302",,,,,,,,1961474.0
Teltowerstr.,autobus,A5,1961671_west,"52.52691807826059, 13.215807069988056",,,,,,,,19611160.0
Grenadierstr.,autobus,A5,1961672_west,"52.530981925368565, 13.205371761701368",,,,,,,,1961427.0
Stresowplatz,autobus,A5,1961673_west,"52.53362877636616, 13.206781830760963",,,,,,,,19611134.0
Breitestr.,autobus,A5,1961674_west,"52.53613613360638, 13.20450629947795",,,,,,,,1961208.0
Rathaus Spandau,autobus,A5,1961675_west,"52.534578361518356, 13.199490942441287",,,,,,,,1961935.0
Bhf. Spandau-West,autobus,A5,1961676_west,"52.53497194201396, 13.198460334945361",,,,,,,,1961161.0
Hochgerichtstr.,autobus,A5,1961677_west,"52.53838037062423, 13.183009198076522",,,,,,,,1961518.0
Falkenseerchaussee,autobus,A5,1961678_west,"52.54750355,13.18466806",,52.54750355,13.18466806,100,Falkenseerchaussee,1967394_west,['A5'],
Viersenerstr.,autobus,A5,1961679_west,"52.54873823655914, 13.17802517662475",,,,,,,,19611247.0
Wolburgsweg,autobus,A5,1961680_west,"52.550616013150325, 13.16810722103831",,,,,,,,19611338.0
Stadtrandstr.,autobus,A5,1961681_west,"52.553426999619965, 13.153585430700852",,,,,,,,19611113.0
Waldkrankenhaus,autobus,A5,1961682_west,"52.55952849877026,13.156755563521326",,52.55952849877026,13.156755563521326,100,Waldkrankenhaus,1967395_west,['A5'],
Roseneck,autobus,A50,1961683_west,"52.47580089902253, 13.282411270445099",,,,,,,,1961974.0
Hohenzollerndamm,autobus,A50,1961684_west,"52.476835205459196, 13.28097752710442",,,,,,,,1961528.0
Elsterplatz,autobus,A50,1961685_west,"52.47977982878401, 13.285507613099716",,,,,,,,1961318.0
Forckenbeckstr.,autobus,A50,1961686_west,"52.48220864,13.2900566",,52.48220864,13.2900566,90,Forckenbeckstr. Ecke Hohenzollerndamm,1967398_west,['A50'],
Flinsbergerplatz,autobus,A50,1961687_west,"52.483689942018465, 13.29268111645926",,,,,,,,1961350.0
Cunostr.,autobus,A50,1961688_west,"52.485632143913, 13.296298367587678",,,,,,,,1961264.0
Bhf. Hohenzollerndamm,autobus,A50,1961689_west,"52.48832716566947, 13.301436926268025",,,,,,,,1961129.0
Konstanzerstr.,autobus,A50,1961690_west,"52.48857876641685, 13.308077083720315",,,,,,,,1961626.0
Ruhrstr.,autobus,A50,1961691_west,"52.48988277984805, 13.312456459919812",,,,,,,,1961982.0
Fehrbellinerplatz,autobus,A50,1961692_west,"52.49040638965375, 13.314204217177087",,,,,,,,1961342.0
Emserplatz,autobus,A50,1961693_west,"52.492072890007414, 13.319251387534207",,,,,,,,1961321.0
Uhlandstr.,autobus,A50,1961694_west,"52.49368292097469, 13.323611381015645",,,,,,,,19611236.0
Nassauischestr.,autobus,A50,1961695_west,"52.4911618772095, 13.326528822264246",,,,,,,,1961803.0
Pragerplatz,autobus,A50,1961696_west,"52.49294694854429, 13.332964219632272",,,,,,,,1961894.0
Bhf. Wannsee,autobus,A51,1961697_west,"52.42151302311533, 13.17810256503659",,,,,,,,1961169.0
Königstr./Kronprinzessinnenweg,autobus,A51,1961698_west,"52.41989533,13.17532169",,52.41989533,13.17532169,100,Königstr./Kronprinzessinnenweg,1967407_west,['A51'],
Am Grossen Wannsee,autobus,A51,1961699_west,"52.42049658,13.16719297",,52.42049658,13.16719297,100,Am Grossen Wannsee,1967408_west,['A51'],
Koblanckstr.,autobus,A51,1961700_west,"52.42616031,13.16143704",,52.42616031,13.16143704,100,Koblanckstr.,1967409_west,['A51'],
Colomierstr.,autobus,A51,1961701_west,"52.42928676,13.1640903",,52.42928676,13.1640903,100,Colomierstr.,1967410_west,['A51'],
Krankenhaus Wannsee,autobus,A51,1961702_west,"52.43102765,13.16496452",,52.43102765,13.16496452,100,Krankenhaus Wannsee,1967411_west,['A51'],
Zum Heckeshorn,autobus,A51,1961703_west,"52.43307505,13.16400874",,52.43307505,13.16400874,100,Zum Heckeshorn,1967412_west,['A51'],
Krankenhaus Heckeshorn,autobus,A51,1961704_west,"52.43498873,13.16171669",,52.43498873,13.16171669,100,Krankenhaus Heckeshorn,1967413_west,['A51'],
Alt-Marienfelde,autobus,A52,1961705_west,"52.41357787,13.36333052",,52.41357787,13.36333052,90,Alt-Marienfelde Ecke Marienfelderallee,1967415_west,['A52'],
Gutshof Marienfelde,autobus,A52,1961706_west,"52.41088450558385, 13.373192649319066",,,,,,,,1961450.0
Bhf. Buckowerchaussee,autobus,A52,1961707_west,"52.41109589500145, 13.382466497921738",,,,,,,,1961114.0
Lichtenraderdamm,autobus,A52,1961708_west,"52.41457407591286, 13.401100479114065",,,,,,,,1961713.0
Bühlerweg,autobus,A52,1961709_west,"52.41729623,13.41293156",,52.41729623,13.41293156,90,Bühlerweg Ecke Marienfelderchaussee,1967418_west,['A52'],
Buckower Friedhof,autobus,A52,1961710_west,"52.42151537,13.43036951",,52.42151537,13.43036951,100,Buckower Friedhof,1967419_west,['A52'],
Buckowerdamm,autobus,A52,1961711_west,"52.42368329841466, 13.436638725763267",,,,,,,,1961225.0
Grünerweg,autobus,A52,1961712_west,"52.42955863550208, 13.453590733350595",,,,,,,,1961444.0
Triftweg,autobus,A52,1961713_west,"52.431024618021745, 13.45739670616807",,,,,,,,19611185.0
Rudowerstr.,autobus,A52,1961714_west,"52.43428237477314, 13.469124205215895",,,,,,,,1961980.0
Efeuweg,autobus,A52,1961715_west,"52.42964562,13.47798792",,52.42964562,13.47798792,90,Efeuweg Ecke Rudowerstr.,1967424_west,['A52'],
Wildmeisterdamm,autobus,A52,1961716_west,"52.42536133,13.44879297",,52.42536133,13.44879297,90,Tischlerzeile Ecke Wildmeisterdamm,1967421_west,['A52'],
Köpenickerstr.,autobus,A52,1961717_west,"52.41718886,13.49383588",,52.41718886,13.49383588,100,Köpenickerstr.,1967426_west,['A52'],
Friedhof Rudow,autobus,A52,1961718_west,"52.42113122,13.50319915",,52.42113122,13.50319915,100,Friedhof Rudow,1967427_west,['A52'],
Kanalstr.,autobus,A52,1961719_west,"52.43167138,13.49527169",,52.43167138,13.49527169,90,Stubenrauchstr. Ecke Kanalstr.,1967429_west,['A52'],
Mimosenweg,autobus,A52,1961720_west,"52.42675929,13.50617981",,52.42675929,13.50617981,100,Mimosenweg,1967428_west,['A52'],
Schlachtensee,autobus,A53,1961721_west,"52.440164224898425, 13.214629432022623",,,,,,,,19611038.0
Waldemarplatz,autobus,A53,1961722_west,"52.43775537,13.22018978",,52.43775537,13.22018978,100,Waldemarplatz,1967432_west,['A53'],
Bhf. Lindenthalerallee,autobus,A53,1961723_west,"52.43102570943782, 13.229881678326638",,,,,,,,1961140.0
U-Bhf. Krumme Lanke,autobus,A53,1961724_west,"52.44308075,13.24046555",,52.44308075,13.24046555,100,U-Bhf. Krumme Lanke,1967434_west,['A53'],
Hartmannsweilerweg,autobus,A53,1961725_west,"52.43871188132932, 13.248833836243495",,,,,,,,1961470.0
Teltowerdamm,autobus,A53,1961726_west,"52.43505617,13.26044574",,52.43505617,13.26044574,90,Teltowerdamm Ecke Berlinerstr.,1967435_west,['A53'],
Bhf. Zehlendorf,autobus,A53,1961727_west,"52.43121177777893, 13.259164408129196",,,,,,,,1961176.0
Knesebeckstr.,autobus,A53,1961728_west,"52.42892135,13.26769723",,52.42892135,13.26769723,90,Knesebeckstr. Ecke Seehofstr.,1967437_west,['A53'],
Jänickestr.,autobus,A53,1961729_west,"52.427213941734294, 13.271659447787256",,,,,,,,1961570.0
Dahlemerweg,autobus,A53,1961730_west,"52.4263512,13.27683596",,52.4263512,13.27683596,90,Dahlemerweg Ecke Seehofstr.,1967438_west,['A53'],
Osteweg,autobus,A53,1961731_west,"52.42102198114528, 13.281135801011326",,,,,,,,1961850.0
4. Ring,autobus,A53,1961732_west,"52.42250631,13.28694906",,52.42250631,13.28694906,100,4. Ring,1967439_west,['A53'],
Luzernerstr.,autobus,A53,1961733_west,"52.42399461,13.29333357",,52.42399461,13.29333357,100,Luzernerstr.,1967440_west,['A53'],
Thunerplatz,autobus,A53,1961734_west,"52.42375896990032, 13.296184869051308",,,,,,,,19611172.0
Bhf. Wannsee,autobus,A6,1961735_west,"52.42151302311533, 13.17810256503659",,,,,,,,1961169.0
Königstr.,autobus,A6,1961736_west,"52.41987226,13.17533294",,52.41987226,13.17533294,100,Königstr.,1967482_west,['A6'],
Am Grossen Wannsee,autobus,A6,1961737_west,"52.420496581432594, 13.167192967572669",,,,,,,,196140.0
Endestr.,autobus,A6,1961738_west,"52.41965961978957, 13.160396994674473",,,,,,,,1961322.0
Pfaueninsel-Chaussee,autobus,A6,1961739_west,"52.41883762088876, 13.153039190703318",,,,,,,,1961875.0
Rathaus Wannsee,autobus,A6,1961740_west,"52.418440129670444, 13.148872492834737",,,,,,,,1961941.0
Friedenstr.,autobus,A6,1961741_west,"52.41722378,13.13895017",,52.41722378,13.13895017,100,Friedenstr.,1967485_west,['A6'],
Schäferberg,autobus,A6,1961742_west,"52.41562662,13.12630868",,52.41562662,13.12630868,100,Schäferberg,1967486_west,['A6'],
Nikolskoerweg,autobus,A6,1961743_west,"52.41405939,13.10927075",,52.41405939,13.10927075,100,Nikolskoerweg,1967487_west,['A6'],
Schloss Glienicke,autobus,A6,1961744_west,"52.41321315212787, 13.096214143840962",,,,,,,,19611041.0
Glienicker Brücke,autobus,A6,1961745_west,"52.41347409,13.09123588",,52.41347409,13.09123588,100,Glienicker Brücke,1967488_west,['A6'],
"Roseneck, Hundekehl",autobus,A60,1961746_west,"52.47640251,13.28161127",,52.47640251,13.28161127,100,"Roseneck, Hundekehl",1967489_west,['A60'],
Warnemünder/Berkaerstr.,autobus,A60,1961747_west,"52.47543626,13.29028844",,52.47543626,13.29028844,100,Warnemünder/Berkaerstr.,1967490_west,['A60'],
Zappoter/Oeynhauserstr.,autobus,A60,1961748_west,"52.47331133,13.29866929",,52.47331133,13.29866929,100,Zappoter/Oeynhauserstr.,1967491_west,['A60'],
"Hamburgerstr., Rudolf-Mosse-Platz",autobus,A60,1961749_west,"52.475375170002664, 13.303566446005037",,,,,,,,1961466.0
U-Bhf. Heidelbergerplatz,autobus,A60,1961750_west,"52.48006162,13.31215992",,52.48006162,13.31215992,100,U-Bhf. Heidelbergerplatz,1967492_west,['A60'],
Brabanterplatz,autobus,A60,1961751_west,"52.48200661448961, 13.316219175470072",,,,,,,,1961206.0
Am Volkspark,autobus,A60,1961752_west,"52.483222065143515, 13.32036833862448",,,,,,,,196151.0
Berlinerstr.,autobus,A60,1961753_west,"52.48647817230135, 13.32051384057218",,,,,,,,196196.0
Postamt,autobus,A60,1961754_west,"52.48905066177084, 13.322770368720937",,,,,,,,1961887.0
Güntzelstr.,autobus,A60,1961755_west,"52.49154575346882, 13.323206588873013",,,,,,,,1961452.0
Ludwigkirchstr./Pariserstr.,autobus,A60,1961756_west,"52.497535465268555, 13.324328066962357",,,,,,,,1961727.0
Joachimstalerstr.,autobus,A60,1961757_west,"52.50380704791941, 13.331281572821457",,,,,,,,1961561.0
Breitscheidplatz,autobus,A60,1961758_west,"52.50443806,13.33564616",,52.50443806,13.33564616,100,Breitscheidplatz,1967498_west,['A60'],
Wittenbergplatz,autobus,A60,1961759_west,"52.50188939146253, 13.342697883756577",,,,,,,,19611334.0
Zobeltitzstr.,autobus,A61,1961760_west,"52.56899057186423, 13.317205496215005",,,,,,,,19641448.0
"U-Bhf. Scharnweberstr., Sportplatz",autobus,A61,1961761_west,"52.56723085,13.31143519",,52.56723085,13.31143519,90,U-Bhf. Scharnweberstr.,1967500_west,['A61'],
Schillingstr.,autobus,A61,1961762_west,"52.56595360108564, 13.320255053064429",,,,,,,,19611037.0
U-Bhf. Kurt-Schumacher-Platz,autobus,A61,1961763_west,"52.56338157,13.32719916",,52.56338157,13.32719916,100,U-Bhf. Kurt-Schumacher-Platz,1967501_west,['A61'],
Humboldtstr.,autobus,A61,1961764_west,"52.56929443788896, 13.32995611157798",,,,,,,,1961542.0
Sebastianfriedhof,autobus,A61,1961765_west,"52.571002500013684, 13.336360943589446",,,,,,,,19611072.0
Teichstr.,autobus,A61,1961766_west,"52.57435884050963, 13.34777330742025",,,,,,,,19611158.0
Aroserallee,autobus,A61,1961767_west,"52.57376074,13.35184962",,52.57376074,13.35184962,90,Aroserallee Ecke Lindauerallee,1967502_west,['A61'],
Osloerstr.,autobus,A61,1961768_west,"52.55671381712504, 13.373732523202998",,,,,,,,1961844.0
Exerzierstr.,autobus,A61,1961769_west,"52.553756646174705, 13.37716619556309",,,,,,,,1961332.0
Pankstr.,autobus,A61,1961770_west,"52.55229407958284, 13.38145934777098",,,,,,,,1961865.0
Bhf. Gesundbrunnen,autobus,A61,1961771_west,"52.548738600413905, 13.387745851632966",,,,,,,,1961121.0
Rügenerstr.,autobus,A61,1961772_west,"52.544791277773946, 13.391067616355128",,,,,,,,1961989.0
Bernauerstr.,autobus,A61,1961773_west,"52.538252555466876, 13.396009073652834",,,,,,,,1961102.0
"Gartenplatz, Feldstr.",autobus,A61,1961774_west,"52.5385659,13.38400528",,52.5385659,13.38400528,100,"Gartenplatz, Feldstr.",1967509_west,['A61'],
Wittenau,autobus,A62,1961775_west,"52.59608414,13.33285768",,52.59608414,13.33285768,100,Wittenau,1967510_west,['A62'],
Alt-Wittenau,autobus,A62,1961776_west,"52.59608414,13.33285768",,52.59608414,13.33285768,90,Wittenau,1967510_west,['A62'],
Bonhoeffer-Heim,autobus,A62,1961777_west,"52.57940413,13.33327468",,52.57940413,13.33327468,100,Bonhoeffer-Heim,1967512_west,['A62'],
Auguste-Viktoria-Allee,autobus,A62,1961778_west,"52.56923716,13.32990334",,52.56923716,13.32990334,90,Auguste-Viktoria-Allee Ecke Ollenhauerstr.,1967513_west,['A62'],
U-Bhf. Kurt-Schumacher-Platz,autobus,A62,1961779_west,"52.56338157214657, 13.32719915637487",,,,,,,,19611213.0
Saatwinklerdamm,autobus,A62,1961780_west,"52.54802939,13.30056946",,52.54802939,13.30056946,100,Saatwinklerdamm,1967515_west,['A62'],
Heckerdamm,autobus,A62,1961781_west,"52.53962816572025, 13.295048454368684",,,,,,,,1961485.0
Bhf. Jungfernheide,autobus,A62,1961782_west,"52.530138785889896, 13.296018817180764",,,,,,,,1961130.0
Luisenplatz,autobus,A62,1961783_west,"52.52005408723936, 13.2995133852506",,,,,,,,1961729.0
Richard-Wagner-Platz,autobus,A62,1961784_west,"52.517490990443804, 13.306397097578404",,,,,,,,1961961.0
Leibnizstr. Ecke Otto-Suhr-Allee,autobus,A62,1961785_west,"52.51466736,13.31516095",,52.51466736,13.31516095,100,Leibnizstr. Ecke Otto-Suhr-Allee,1967520_west,['A62'],
U-Bhf. Ernst-Reuter-Platz,autobus,A62,1961786_west,"52.51164603,13.32229086",,52.51164603,13.32229086,100,U-Bhf. Ernst-Reuter-Platz,1967521_west,['A62'],
Bhf. Zoo,autobus,A62,1961787_west,"52.507029532025605, 13.333220118900503",,,,,,,,1961177.0
Marburgerstr.,autobus,A62,1961788_west,"52.50371964602222, 13.337728344178407",,,,,,,,1961753.0
Wittenbergplatz,autobus,A62,1961789_west,"52.50188939146253, 13.342697883756577",,,,,,,,19611334.0
Radelandstr.,autobus,A63,1961790_west,"52.56622419,13.1571167",,52.56622419,13.1571167,90,Radelandstr. Ecke Niederheideweg,1967524_west,['A63'],
Bötzowbahn,autobus,A63,1961791_west,"52.560942294746425, 13.171763262130519",,,,,,,,1961240.0
Kisselnallee Ecke Radelandstr.,autobus,A63,1961792_west,"52.556501057441956, 13.188670871494672",,,,,,,,1961603.0
Zweibrückerstr.,autobus,A63,1961793_west,"52.54673942,13.1887648",,52.54673942,13.1887648,90,Zweibrückerstr. Ecke Falkenseerchaussee,1967526_west,['A63'],
Askanierring,autobus,A63,1961794_west,"52.545679974269035, 13.194267325495874",,,,,,,,196162.0
Bezirksamt,autobus,A63,1961795_west,"52.54146443211212, 13.200850156157355",,,,,,,,1961110.0
Rathaus Spandau,autobus,A63,1961796_west,"52.534578361518356, 13.199490942441287",,,,,,,,1961935.0
Bhf. Spandau-West,autobus,A63,1961797_west,"52.53497194201396, 13.198460334945361",,,,,,,,1961161.0
Staakenerstr.,autobus,A63,1961798_west,"52.536487084911975, 13.190823566060091",,,,,,,,19611108.0
Hochgerichtstr.,autobus,A63,1961799_west,"52.53838037062423, 13.183009198076522",,,,,,,,1961518.0
Viersenerstr.,autobus,A63,1961800_west,"52.54020417705652, 13.17462661157195",,,,,,,,19611247.0
Dyotzerstr.,autobus,A63,1961801_west,"52.541513574478394, 13.168806761501132",,,,,,,,1961297.0
Leuthingerweg,autobus,A63,1961802_west,"52.54180680726089, 13.163727103711182",,,,,,,,1961707.0
Strasse 393,autobus,A63,1961803_west,"52.54346134229288, 13.156333109553433",,,,,,,,19611125.0
Seegefelderweg,autobus,A63,1961804_west,"52.5498132,13.12867982",,52.5498132,13.12867982,100,Seegefelderweg,1967529_west,['A63'],
Bernauerstr. Ecke Wollinerstr.,autobus,A64,1961805_west,"52.539825749774046, 13.4015229935377",,,,,,,,1961103.0
Demminerstr. Ecke Brunnenstr.,autobus,A64,1961806_west,"52.54113697481197, 13.393805198148023",,,,,,,,1961278.0
Ramlerstr. Ecke Brunnenstr.,autobus,A64,1961807_west,"52.54710869917004, 13.38914653586651",,,,,,,,1961921.0
U-Bhf. Gesundbrunnen,autobus,A64,1961808_west,"52.548660755358114, 13.387873629581087",,,,,,,,19611203.0
Prinzenallee Ecke Badstr.,autobus,A64,1961809_west,"52.552305008833024, 13.381468211411605",,,,,,,,1961906.0
Schwedenstr. Ecke Exerzierstr.,autobus,A64,1961810_west,"52.55376624875929, 13.377160797243135",,,,,,,,19611058.0
Schulstr. Ecke Exerzierstr.,autobus,A64,1961811_west,"52.55396008849384, 13.371500780047201",,,,,,,,19611053.0
Reinickendorferstr. Ecke Schulstr.,autobus,A64,1961812_west,"52.55154134842798, 13.367385622374945",,,,,,,,1961956.0
Leopoldplatz,autobus,A64,1961813_west,"52.54647397037027, 13.359233475022176",,,,,,,,1961701.0
Tegelerstr. Ecke Trifstr.,autobus,A64,1961814_west,"52.543256497451154, 13.356263568406057",,,,,,,,19611156.0
Augustenburgerplatz,autobus,A64,1961815_west,"52.542186362228115, 13.34942313975666",,,,,,,,196168.0
Seestr. Ecke Afrikanischestr.,autobus,A64,1961816_west,"52.54624597,13.34402165",,52.54624597,13.34402165,100,Seestr. Ecke Afrikanischestr.,1967531_west,['A64'],
Transvaalstr. Ecke Africkanischestr.,autobus,A64,1961817_west,"52.55033805772127, 13.339109780046835",,,,,,,,19611182.0
Nachtigalplatz,autobus,A64,1961818_west,"52.55708816298035, 13.333841766869467",,,,,,,,1961802.0
Goebelplatz,autobus,A65,1961819_west,"52.53812718171093, 13.27991414794248",,,,,,,,1961407.0
Kurt-Schumacher-Damme,autobus,A65,1961820_west,"52.53963663,13.29506456",,52.53963663,13.29506456,98,Kurt-Schumacher-Damm,1967539_west,['A65'],
Bhf. Jungfernheide,autobus,A65,1961821_west,"52.530138785889896, 13.296018817180764",,,,,,,,1961130.0
Landgericht,autobus,A65,1961822_west,"52.52698925988807, 13.297167647658592",,,,,,,,1961679.0
Luisenplatz,autobus,A65,1961824_west,"52.52005408723936, 13.2995133852506",,,,,,,,1961729.0
Bhf. Westend,autobus,A65,1961825_west,"52.51866044969405, 13.28427669582671",,,,,,,,1961171.0
Königin-Elisabethstr.,autobus,A65,1961826_west,"52.5100262651791, 13.281782266209204",,,,,,,,1961662.0
U-Bhf. Kaiserdamm,autobus,A65,1961827_west,"52.50999451351762, 13.28180313022396",,,,,,,,19611209.0
Masurenallee,autobus,A65,1961828_west,"52.50642938866968, 13.280405207863838",,,,,,,,1961778.0
Rathenauplatz,autobus,A65,1961829_west,"52.49476692,13.28558323",,52.49476692,13.28558323,100,Rathenauplatz,1967543_west,['A65'],
Bhf. Hohenzollerndamm,autobus,A65,1961830_west,"52.48832716566947, 13.301436926268025",,,,,,,,1961129.0
U-Bhf. Heidelbergplatz,autobus,A65,1961831_west,"52.48042873572808, 13.31278632857391",,,,,,,,19611207.0
Bundesplatz,autobus,A65,1961832_west,"52.478678991134835, 13.32860278411238",,,,,,,,1961231.0
Innsbruckerplatz,autobus,A65,1961833_west,"52.478545508234895, 13.34405868604117",,,,,,,,1961549.0
Bhf. Schöneberg,autobus,A65,1961834_west,"52.47997403855305, 13.352576760698511",,,,,,,,1961153.0
Alt-Tempelhof Ecke Tempelhoferdamm,autobus,A65,1961835_west,"52.465964306830664, 13.38558297633417",,,,,,,,196133.0
Hermannstr. Ecke Silbersteinstr.,autobus,A65,1961836_west,"52.46644333,13.43195485",,52.46644333,13.43195485,100,Hermannstr. Ecke Silbersteinstr.,1967550_west,['A65'],
Bhf. Neukölln,autobus,A65,1961837_west,"52.46969499227434, 13.44169179465082",,,,,,,,1961146.0
Bhf. Sonnenallee,autobus,A65,1961838_west,"52.473861610807525, 13.455874121666916",,,,,,,,1961158.0
"Doppel-Süd, Berlepschstr.",autobus,A66,1961839_west,"52.42115285,13.22668877",,52.42115285,13.22668877,100,"Doppel-Süd, Berlepschstr.",1967553_west,['A66'],
Andreezeile,autobus,A66,1961840_west,"52.41046140348477, 13.267143098688617",,,,,,,,196156.0
Machnowerstr. Ecke Berlepschstr.,autobus,A66,1961841_west,"52.42978244,13.25704467",,52.42978244,13.25704467,100,Machnowerstr. Ecke Berlepschstr.,1967555_west,['A66'],
Rathaus Zehlendorf,autobus,A66,1961842_west,"52.433207520111885, 13.259531923613192",,,,,,,,1961942.0
Clayallee Ecke Berlinerstr.,autobus,A66,1961843_west,"52.43506128,13.26046905",,52.43506128,13.26046905,100,Clayallee Ecke Berlinerstr.,1967556_west,['A66'],
Schützallee Ecke Onkel-Tomstr.,autobus,A66,1961844_west,"52.44062631,13.25517791",,52.44062631,13.25517791,98,Schützallee Ecke Onkel-Tom-Str.,1967557_west,['A66'],
U-Bhf. Onkel-Toms-Hütte,autobus,A66,1961845_west,"52.45007713,13.25127259",,52.45007713,13.25127259,100,U-Bhf. Onkel-Toms-Hütte,1967558_west,['A66'],
"Jerusalems-Kirche, Lindenstr.",autobus,A67,1961846_west,"52.507080658279015, 13.398349137947935",,,,,,,,1961558.0
Moritzplatz,autobus,A67,1961847_west,"52.50387355,13.40998333",,52.50387355,13.40998333,100,Moritzplatz,1967561_west,['A67'],
Oranienplatz,autobus,A67,1961848_west,"52.50232371,13.41551013",,52.50232371,13.41551013,100,Oranienplatz,1967562_west,['A67'],
U-Bhf. Kottbusser Tor,autobus,A67,1961849_west,"52.49912276,13.41824117",,52.49912276,13.41824117,100,U-Bhf. Kottbusser Tor,1967563_west,['A67'],
Kottbusser Brücke,autobus,A67,1961850_west,"52.496030844936435, 13.420070402767054",,,,,,,,1961632.0
Hohenstaufenplatz,autobus,A67,1961851_west,"52.49085480753271, 13.423419999335453",,,,,,,,1961527.0
Hermannplatz,autobus,A67,1961852_west,"52.48778872855567, 13.425393480017616",,,,,,,,1961501.0
Reuterstr.,autobus,A67,1961853_west,"52.48654240757135, 13.428977740572138",,,,,,,,1961960.0
Fuldastr.,autobus,A67,1961854_west,"52.483802510465225, 13.435884392882318",,,,,,,,1961380.0
Erkstr.,autobus,A67,1961855_west,"52.48167227551806, 13.440052048368255",,,,,,,,1961326.0
Hertzbergplatz,autobus,A67,1961856_west,"52.47748711,13.44859816",,52.47748711,13.44859816,100,Hertzbergplatz,1967566_west,['A67'],
Bhf. Sonnenallee,autobus,A67,1961857_west,"52.473861610807525, 13.455874121666916",,,,,,,,1961158.0
Dammweg,autobus,A67,1961858_west,"52.47025948,13.46464808",,52.47025948,13.46464808,90,Dammweg Ecke Sonnenallee,1967568_west,['A67'],
Neuköllnischeallee,autobus,A67,1961859_west,"52.468152065072715, 13.460620591028498",,,,,,,,1961813.0
Am Oberhafen,autobus,A67,1961860_west,"52.465017297775326, 13.450594183790596",,,,,,,,196145.0
U-Bhf. Grenzallee,autobus,A67,1961861_west,"52.46369510254238, 13.444231731166557",,,,,,,,19611204.0
Clayallee Ecke Königin-Luisestr.,autobus,A68,1961862_west,"52.46044681,13.27489827",,52.46044681,13.27489827,98,Clayallee Ecke Königin-Luise-Str.,1967575_west,['A68'],
Vogelsang,autobus,A68,1961863_west,"52.45939482396207, 13.280296976660761",,,,,,,,19611250.0
Thielallee/Pacelliallee,autobus,A68,1961864_west,"52.4581615,13.28707255",,52.4581615,13.28707255,100,Thielallee/Pacelliallee,1967576_west,['A68'],
U-Bhf. Dahlem-Dorf,autobus,A68,1961865_west,"52.4580707,13.28970695",,52.4580707,13.28970695,100,U-Bhf. Dahlem-Dorf,1967577_west,['A68'],
Arnimallee,autobus,A68,1961866_west,"52.45789379,13.2995702",,52.45789379,13.2995702,100,Arnimallee,1967578_west,['A68'],
Botanischer Garten,autobus,A68,1961867_west,"52.4585988,13.30343606",,52.4585988,13.30343606,100,Botanischer Garten,1967579_west,['A68'],
Lepsiusstr.,autobus,A68,1961868_west,"52.45883024,13.31559907",,52.45883024,13.31559907,100,Lepsiusstr.,1967580_west,['A68'],
Rathaus Steglitz,autobus,A68,1961869_west,"52.45563377647203, 13.321050784344678",,,,,,,,1961937.0
Breitestr.,autobus,A68,1961870_west,"52.45435057,13.32830751",,52.45435057,13.32830751,90,Breitestr. Ecke Albrechtstr.,1967582_west,['A68'],
Bergstr.,autobus,A68,1961871_west,"52.458183734651705, 13.329753854060407",,,,,,,,196191.0
Bergstr. Ecke Bismarckstr.,autobus,A68,1961872_west,"52.45863817204511, 13.33931462421719",,,,,,,,196193.0
Munsterdamm Ecke Grazerdamm,autobus,A68,1961873_west,"52.45901976387901, 13.34874691531987",,,,,,,,1961795.0
Alboinstr. Ecke Arnulfstr.,autobus,A68,1961874_west,"52.455767812500675, 13.36990459867346",,,,,,,,19618.0
Attilaplatz,autobus,A68,1961875_west,"52.45590179888225, 13.376512495751076",,,,,,,,196164.0
Tempehoferdamm Ecke Friedrich-Karlstr.,autobus,A68,1961876_west,"52.45581545,13.3839506",,52.45581545,13.3839506,99,Tempehoferdamm Ecke Friedrich-Karl-Str.,1967587_west,['A68'],
Kaiserin-Augustastr. Ecke Tempelhoferdamm,autobus,A68,1961877_west,"52.45934921,13.38451635",,52.45934921,13.38451635,99,Kaiserin-Augusta-Str. Ecke Tempelhoferdamm,1967588_west,['A68'],
Alt-Tempelhof Ecke Tempelhoferdamm,autobus,A68,1961878_west,"52.46596431,13.38558298",,52.46596431,13.38558298,100,Alt-Tempelhof Ecke Tempelhoferdamm,1967589_west,['A68'],
Bhf. Tempelhof,autobus,A68,1961879_west,"52.47084694,13.38563812",,52.47084694,13.38563812,100,Bhf. Tempelhof,1967590_west,['A68'],
Eichkamp,autobus,A69,1961880_west,"52.48939301,13.26062776",,52.48939301,13.26062776,90,"Eichkamp, Dauerwaldweg",1967591_west,['A69'],
Trabenerstr.,autobus,A69,1961881_west,"52.49310178577124, 13.275431330442801",,,,,,,,19611180.0
Bhf. Halensee,autobus,A69,1961882_west,"52.496865585452014, 13.289557340809273",,,,,,,,1961124.0
Joachim-Friedrichstr. Ecke Kurfürstendamm,autobus,A69,1961883_west,"52.49799091,13.29617608",,52.49799091,13.29617608,99,Joachim-Friedrich-Str. Ecke Kurfürstendamm,1967594_west,['A69'],
Wilmersdorferstr. Ecke Kurfürstendamm,autobus,A69,1961884_west,"52.50002845,13.30712512",,52.50002845,13.30712512,100,Wilmersdorferstr. Ecke Kurfürstendamm,1967595_west,['A69'],
Leibnizstr. Ecke Kurfürstendamm,autobus,A69,1961885_west,"52.500647891248605, 13.313040549353639",,,,,,,,1961691.0
Bleibtreustr. Ecke Kurfürstendamm,autobus,A69,1961886_west,"52.50160347596025, 13.319464110729676",,,,,,,,1961191.0
Uhlandstr. Ecke Kurfürstendamm,autobus,A69,1961887_west,"52.50253243,13.32528045",,52.50253243,13.32528045,100,Uhlandstr. Ecke Kurfürstendamm,1967597_west,['A69'],
Joachimstalerstr. Ecke Kurfürstendamm,autobus,A69,1961888_west,"52.50384853,13.33128219",,52.50384853,13.33128219,100,Joachimstalerstr. Ecke Kurfürstendamm,1967598_west,['A69'],
Nürnbergerstr. Ecke Kurfürstenstr.,autobus,A69,1961889_west,"52.50513952,13.34119156",,52.50513952,13.34119156,100,Nürnbergerstr. Ecke Kurfürstenstr.,1967599_west,['A69'],
Nettelbeckstr.,autobus,A69,1961890_west,"52.501073025698915, 13.346723829543516",,,,,,,,1961807.0
Lützowplatz,autobus,A69,1961891_west,"52.50502902,13.35182287",,52.50502902,13.35182287,100,Lützowplatz,1967601_west,['A69'],
Tiergartenstr.,autobus,A69,1961892_west,"52.50960312,13.35132089",,52.50960312,13.35132089,100,Tiergartenstr.,1967602_west,['A69'],
Großer Stern,autobus,A69,1961893_west,"52.51452472,13.34993319",,52.51452472,13.34993319,100,Großer Stern,1967603_west,['A69'],
Kongreßhalle,autobus,A69,1961894_west,"52.51763253,13.36319698",,52.51763253,13.36319698,100,Kongreßhalle,1967604_west,['A69'],
Bhf. Wollankstr.,autobus,A70,1961895_west,"52.56453849,13.39342027",,52.56453849,13.39342027,100,Bhf. Wollankstr.,1967606_west,['A70'],
Osloerstr.,autobus,A70,1961896_west,"52.55587669510938, 13.38424421097371",,,,,,,,1961844.0
Badstr.,autobus,A70,1961897_west,"52.55228040855936, 13.381394276023574",,,,,,,,196171.0
Wiesenstr.,autobus,A70,1961898_west,"52.54763571080132, 13.373871074090278",,,,,,,,19611307.0
Bhf. Wedding,autobus,A70,1961899_west,"52.544296601785504, 13.369913083294957",,,,,,,,1961170.0
Weddingplatz,autobus,A70,1961900_west,"52.54113612364086, 13.368501029385115",,,,,,,,19611281.0
Am Nordhafen,autobus,A70,1961901_west,"52.53868315849872, 13.363248409190426",,,,,,,,196144.0
Rathenowerstr.,autobus,A70,1961902_west,"52.52677998083022, 13.355183467556872",,,,,,,,1961944.0
Turmstr./Rathenowerstr.,autobus,A70,1961903_west,"52.52675955,13.35531376",,52.52675955,13.35531376,95,Turmstr. Ecke Rathenowerstr.,1967612_west,['A70'],
Krankenhaus Moabit,autobus,A70,1961904_west,"52.52631363859675, 13.347762408358612",,,,,,,,1961643.0
Stromstr.,autobus,A70,1961905_west,"52.52631690374401, 13.343146315837002",,,,,,,,19611136.0
Rathaus Tiergarten,autobus,A70,1961906_west,"52.52649086,13.33835898",,52.52649086,13.33835898,100,Rathaus Tiergarten,1967614_west,['A70'],
Waldstr./Gotzkowskystr.,autobus,A70,1961907_west,"52.52721622,13.33052451",,52.52721622,13.33052451,100,Waldstr./Gotzkowskystr.,1967615_west,['A70'],
Reuchlinstr.,autobus,A70,1961908_west,"52.5278079827492, 13.324842775070394",,,,,,,,1961959.0
"Wiebestr., Strassenbahnhof",autobus,A70,1961909_west,"52.53066666255053, 13.319314794959219",,,,,,,,19611301.0
Bhf. Wilhelmsruh,autobus,A71,1961910_west,"52.58102921945559, 13.363635067647111",,,,,,,,1961172.0
Lindauerstr.,autobus,A71,1961911_west,"52.573378512244474, 13.359026284637647",,,,,,,,1961717.0
Emmentalerstr.,autobus,A71,1961912_west,"52.570420696850896, 13.360956869321077",,,,,,,,1961320.0
"Schäfersee, Pankowerallee",autobus,A71,1961913_west,"52.56403099,13.3641715",,52.56403099,13.3641715,100,"Schäfersee, Pankowerallee",1967620_west,['A71'],
"Letteplatz, Strassenbahnhof",autobus,A71,1961914_west,"52.56410522486749, 13.371107480641978",,,,,,,,1961706.0
Provinzstr./Pankowerallee,autobus,A71,1961915_west,"52.56468777,13.3780631",,52.56468777,13.3780631,100,Provinzstr./Pankowerallee,1967621_west,['A71'],
Ritterlandweg,autobus,A71,1961916_west,"52.56036399935592, 13.36907949823327",,,,,,,,1961969.0
Prinzenallee/Soldinerstr.,autobus,A71,1961917_west,"52.55871759464676, 13.386248511741826",,,,,,,,1961907.0
Osloerstr.,autobus,A71,1961918_west,"52.55587669510938, 13.38424421097371",,,,,,,,1961844.0
Badstr./Prinzenallee,autobus,A71,1961919_west,"52.55231378388406, 13.381413167559051",,,,,,,,196172.0
Bhf. Gesundbrunnen,autobus,A71,1961920_west,"52.5487386,13.38774585",,52.5487386,13.38774585,100,Bhf. Gesundbrunnen,1967624_west,['A71'],
Ramlerstr.,autobus,A71,1961921_west,"52.547125761071456, 13.389174502621508",,,,,,,,1961920.0
Rügenerstr.,autobus,A71,1961922_west,"52.544791277773946, 13.391067616355128",,,,,,,,1961989.0
Usedomerstr.,autobus,A71,1961923_west,"52.54111445,13.39377149",,52.54111445,13.39377149,90,Usedomerstr. Ecke Brunnenstr.,1967625_west,['A71'],
Bernauerstr./Brunnenstr.,autobus,A71,1961924_west,"52.53829557,13.39602377",,52.53829557,13.39602377,95,Bernauerstr. Ecke Brunnenstr.,1967626_west,['A71'],
Bernauerstr. Ecke Wollinerstr.,autobus,A71,1961925_west,"52.539825749774046, 13.4015229935377",,,,,,,,1961103.0
Alt-Reinickendorf Ecke Rödernallee,autobus,A72,1961926_west,"52.57586051,13.34776598",,52.57586051,13.34776598,100,Alt-Reinickendorf Ecke Rödernallee,1967628_west,['A72'],
Lindauerstr. Ecke Residenzstr.,autobus,A72,1961927_west,"52.57332806,13.35899004",,52.57332806,13.35899004,100,Lindauerstr. Ecke Residenzstr.,1967629_west,['A72'],
Pankowerallee Ecke Residenzstr.,autobus,A72,1961928_west,"52.56383592,13.36428766",,52.56383592,13.36428766,100,Pankowerallee Ecke Residenzstr.,1967630_west,['A72'],
Luise-Schröder-Platz,autobus,A72,1961929_west,"52.5575702,13.36547078",,52.5575702,13.36547078,100,Luise-Schröder-Platz,1967631_west,['A72'],
Nauenerplatz,autobus,A72,1961930_west,"52.55155262,13.36737073",,52.55155262,13.36737073,100,Nauenerplatz,1967632_west,['A72'],
Weddingplatz,autobus,A72,1961931_west,"52.54113612364086, 13.368501029385115",,,,,,,,19611281.0
Rathenowerstr. Ecke Perlebergerstr.,autobus,A72,1961932_west,"52.53252487206442, 13.350617083748922",,,,,,,,1961945.0
Turmstr. Ecke Stromstr.,autobus,A72,1961933_west,"52.52631574,13.34320006",,52.52631574,13.34320006,100,Turmstr. Ecke Stromstr.,1967635_west,['A72'],
Waldstr. Ecke Turmstr.,autobus,A72,1961934_west,"52.52720084,13.33052493",,52.52720084,13.33052493,100,Waldstr. Ecke Turmstr.,1967636_west,['A72'],
Wiebestr. Ecke Kaiserin-Augusta-Allee,autobus,A72,1961935_west,"52.52580214,13.31797917",,52.52580214,13.31797917,100,Wiebestr. Ecke Kaiserin-Augusta-Allee,1967637_west,['A72'],
Tauroggenerstr. Ecke Osnabrückerstr.,autobus,A72,1961936_west,"52.525838744600904, 13.301852064700281",,,,,,,,19611153.0
Landgericht,autobus,A72,1961937_west,"52.52698926,13.29716765",,52.52698926,13.29716765,100,Landgericht,1967639_west,['A72'],
Jakob-Kaiser-Platz,autobus,A72,1961938_west,"52.536739701449115, 13.293604878938678",,,,,,,,1961555.0
Quellweg Ecke Nonnendammallee,autobus,A72,1961939_west,"52.53669973748767, 13.268424095389383",,,,,,,,1961916.0
"Nonnendammallee, Siemensstadt",autobus,A72,1961940_west,"52.537063326963775, 13.262285169635492",,,,,,,,1961820.0
Bhf. Zoo,autobus,A73,1961941_west,"52.50623278,13.33236208",,52.50623278,13.33236208,100,Bhf. Zoo,1967644_west,['A73'],
Wittenbergplatz,autobus,A73,1961942_west,"52.50188939,13.34269788",,52.50188939,13.34269788,100,Wittenbergplatz,1967645_west,['A73'],
Motzstr.,autobus,A73,1961943_west,"52.49712618,13.34610186",,52.49712618,13.34610186,90,Motzstr. Ecke Martin-Luther-Str.,1967646_west,['A73'],
Grunewaldstr.,autobus,A73,1961944_west,"52.48907804007202, 13.345000249198607",,,,,,,,1961439.0
Rathaus Schöneberg,autobus,A73,1961945_west,"52.48515474,13.3450866",,52.48515474,13.3450866,100,Rathaus Schöneberg,1967648_west,['A73'],
Hauptstr. Ecke Dominicusstr.,autobus,A73,1961946_west,"52.48178378,13.34841821",,52.48178378,13.34841821,100,Hauptstr. Ecke Dominicusstr.,1967649_west,['A73'],
Bhf. Schöneberg,autobus,A73,1961947_west,"52.47997403855305, 13.352576760698511",,,,,,,,1961153.0
Bhf. Papestr.,autobus,A73,1961948_west,"52.473987789402614, 13.36343102988242",,,,,,,,1961148.0
Berlinickeplatz,autobus,A73,1961949_west,"52.46607292094852, 13.378516406213421",,,,,,,,196199.0
Alt-Tempelhof Ecke Tempelhoferdamm,autobus,A73,1961950_west,"52.465964306830664, 13.38558297633417",,,,,,,,196133.0
Rohdestr. Ecke Germaniastr.,autobus,A73,1961951_west,"52.46204583,13.40444418",,52.46204583,13.40444418,100,Rohdestr. Ecke Germaniastr.,1967654_west,['A73'],
Gottlieb-Dunkelstr. Ecke Tempelhoferweg,autobus,A73,1961952_west,"52.46048678,13.41798392",,52.46048678,13.41798392,99,Gottlieb-Dunkel-Str. Ecke Tempelhoferweg,1967655_west,['A73'],
Britzerdamm Ecke Gradestr.,autobus,A73,1961953_west,"52.45262468,13.43859023",,52.45262468,13.43859023,100,Britzerdamm Ecke Gradestr.,1967656_west,['A73'],
Buschkrug Alle Ecke Blaschko-Allee,autobus,A73,1961954_west,"52.452544,13.45216035",,52.452544,13.45216035,100,Buschkrug Alle Ecke Blaschko-Allee,1967658_west,['A73'],
Königin-Elisabethstr.,autobus,A74,1961955_west,"52.5100262651791, 13.281782266209204",,,,,,,,1961662.0
Spandauerdamm,autobus,A74,1961956_west,"52.51838421,13.28007696",,52.51838421,13.28007696,100,Spandauerdamm,1967660_west,['A74'],
Klausenerplatz,autobus,A74,1961957_west,"52.51924427298945, 13.291948741419509",,,,,,,,1961605.0
Schlossstr. Ecke Seelingstr.,autobus,A74,1961958_west,"52.51569807,13.2963013",,52.51569807,13.2963013,100,Schlossstr. Ecke Seelingstr.,1967662_west,['A74'],
Kaiser-Friedrichstr.,autobus,A74,1961959_west,"52.50678666128108, 13.302343266081147",,,,,,,,1961571.0
Stuttgarterplatz,autobus,A74,1961960_west,"52.50551610729052, 13.302923303561508",,,,,,,,19611139.0
Fehrbellinerplatz,autobus,A74,1961961_west,"52.49040638965375, 13.314204217177087",,,,,,,,1961342.0
Martin-Lutherstr. Ecke Grunewaldstr.,autobus,A74,1961962_west,"52.4891017368616, 13.34492200742072",,,,,,,,1961772.0
Rathaus Schöneberg,autobus,A74,1961963_west,"52.48515473887597, 13.345086596743203",,,,,,,,1961932.0
Hauptstr. (Schöneberg),autobus,A74,1961964_west,"52.48187232,13.34827038",,52.48187232,13.34827038,100,Hauptstr. (Schöneberg),1967671_west,['A74'],
Bhf. Papestr.,autobus,A74,1961965_west,"52.473987789402614, 13.36343102988242",,,,,,,,1961148.0
Bosestr.,autobus,A74,1961966_west,"52.46315599068398, 13.369986279678812",,,,,,,,1961202.0
Eythstr.,autobus,A74,1961967_west,"52.45972284,13.3664283",,52.45972284,13.3664283,100,Eythstr.,1967674_west,['A74'],
Munsterdamm Ecke Steglitzerdamm,autobus,A75,1961968_west,"52.45003045,13.34670287",,52.45003045,13.34670287,100,Munsterdamm Ecke Steglitzerdamm,1967675_west,['A75'],
Bergstr. Ecke Bismarckstr.,autobus,A75,1961969_west,"52.45863817204511, 13.33931462421719",,,,,,,,196193.0
Lauenburgerplatz,autobus,A75,1961970_west,"52.46198584,13.33927388",,52.46198584,13.33927388,100,Lauenburgerplatz,1967677_west,['A75'],
Kaisereiche,autobus,A75,1961971_west,"52.46896806,13.33261489",,52.46896806,13.33261489,100,Kaisereiche,1967678_west,['A75'],
Innsbruckerplatz,autobus,A75,1961972_west,"52.478545508234895, 13.34405868604117",,,,,,,,1961549.0
Hauptstr. Ecke Dominicusstr.,autobus,A75,1961973_west,"52.48178377611229, 13.348418210727631",,,,,,,,1961290.0
Kaiser-Wilhelm-Platz,autobus,A75,1961974_west,"52.486329247981715, 13.35655627172785",,,,,,,,1961572.0
U-Bhf. Bülowstr.,autobus,A75,1961975_west,"52.49787469517453, 13.362124599310649",,,,,,,,19611193.0
Am Karlsbad,autobus,A75,1961976_west,"52.50551053,13.36801582",,52.50551053,13.36801582,100,Am Karlsbad,1967683_west,['A75'],
Askanischerplatz,autobus,A75,1961977_west,"52.50447897,13.38229547",,52.50447897,13.38229547,100,Askanischerplatz,1967684_west,['A75'],
U-Bhf. Kochstr.,autobus,A75,1961978_west,"52.50669824,13.39050322",,52.50669824,13.39050322,100,U-Bhf. Kochstr.,1967685_west,['A75'],
Oranienstr.,autobus,A75,1961979_west,"52.50708473,13.39830086",,52.50708473,13.39830086,90,Lindenstr. Ecke Oranienstr.,1967686_west,['A75'],
U-Bhf. Moritzplatz,autobus,A75,1961980_west,"52.503669,13.41055755",,52.503669,13.41055755,100,U-Bhf. Moritzplatz,1967687_west,['A75'],
Skalitzerstr.,autobus,A75,1961981_west,"52.49920062327321, 13.426780617093764",,,,,,,,19611087.0
Spreewaldplatz,autobus,A75,1961982_west,"52.49746663,13.43173833",,52.49746663,13.43173833,100,Spreewaldplatz,1967688_west,['A75'],
Wiener Brücke,autobus,A75,1961983_west,"52.49588477409083, 13.43650068505988",,,,,,,,19611302.0
Blohmstr. Ecke Wünsdorferstr.,autobus,A76,1961984_west,"52.388693095651256, 13.394328971164002",,,,,,,,1961192.0
Bhf. Lichtenrade,autobus,A76,1961985_west,"52.386683297852706, 13.395506929836833",,,,,,,,1961135.0
Marienfelderstr. Ecke Lichtenraderdamm,autobus,A76,1961986_west,"52.392477747609426, 13.40668482049751",,,,,,,,1961766.0
Goethestr. Ecke Lichtenraderdamm,autobus,A76,1961987_west,"52.40441063,13.40618736",,52.40441063,13.40618736,100,Goethestr. Ecke Lichtenraderdamm,1967693_west,['A76'],
Buckowerchaussee Ecke Lichtenraderdamm,autobus,A76,1961988_west,"52.41457113,13.40120395",,52.41457113,13.40120395,100,Buckowerchaussee Ecke Lichtenraderdamm,1967694_west,['A76'],
Rennbahn,autobus,A76,1961989_west,"52.43151989,13.39150823",,52.43151989,13.39150823,100,Rennbahn,1967696_west,['A76'],
Alt-Mariendorf Ecke Tempelhoferdamm,autobus,A76,1961990_west,"52.44016235770067, 13.387229967555644",,,,,,,,196125.0
Kaiserstr. Ecke Mariendorferdamm,autobus,A76,1961991_west,"52.44556072681654, 13.38580316499979",,,,,,,,1961579.0
Burgemeisterstr. Ecke Tempelhoferdamm,autobus,A76,1961992_west,"52.4570129343595, 13.383915410725029",,,,,,,,1961233.0
Alt-Tempelhof Ecke Tempelhoferdamm,autobus,A76,1961993_west,"52.465964306830664, 13.38558297633417",,,,,,,,196133.0
U-Bhf. Tempelhof,autobus,A76,1961994_west,"52.4698750992553, 13.38558705982547",,,,,,,,19611231.0
Thuyring,autobus,A76,1961995_west,"52.47483046693383, 13.385744435858946",,,,,,,,19611173.0
Flughafen Tempelhof,autobus,A76,1961996_west,"52.48504444099743, 13.386014416287884",,,,,,,,1961354.0
Platz der Luftbrücke,autobus,A76,1961997_west,"52.48500811314645, 13.385984513056924",,,,,,,,1961881.0
Daimlerstr.,autobus,A77,1961998_west,"52.42164623,13.38550236",,52.42164623,13.38550236,90,"Marienfelde, Daimlerstr. Ecke Hollabergweg",1967714_west,['A77'],
Bhf. Marienfelde,autobus,A77,1961999_west,"52.42342246533686, 13.374664175181172",,,,,,,,1961144.0
Körtingstr.,autobus,A77,19611000_west,"52.43481849058747, 13.378266822562516",,,,,,,,1961675.0
Mariendorferdamm,autobus,A77,19611001_west,"52.445604468950826, 13.385816551199863",,,,,,,,1961759.0
Kaiserstr. Ecke Mariendorferdamm,autobus,A77,19611002_west,"52.44556072681654, 13.38580316499979",,,,,,,,1961579.0
Markgrafenstr. Ecke Mariendorferdamm,autobus,A77,19611003_west,"52.445553184518396, 13.385808538094254",,,,,,,,1961769.0
Burgemeisterstr. Ecke Tempelhoferdamm,autobus,A77,19611004_west,"52.4570129343595, 13.383915410725029",,,,,,,,1961233.0
Rathaus Tempelhof,autobus,A77,19611005_west,"52.46300094221747, 13.385342238118488",,,,,,,,1961939.0
Alt-Tempelhof Ecke Tempelhoferdamm,autobus,A77,19611006_west,"52.465964306830664, 13.38558297633417",,,,,,,,196133.0
U-Bhf. Tempelhof,autobus,A77,19611007_west,"52.4698750992553, 13.38558705982547",,,,,,,,19611231.0
Thuyring,autobus,A77,19611008_west,"52.47483046693383, 13.385744435858946",,,,,,,,19611173.0
Paradestr.,autobus,A77,19611009_west,"52.478185540036016, 13.385794074394854",,,,,,,,1961868.0
Flughafen Tempelhof,autobus,A77,19611010_west,"52.48504444099743, 13.386014416287884",,,,,,,,1961354.0
Platz der Luftbrücke,autobus,A77,19611011_west,"52.48500811314645, 13.385984513056924",,,,,,,,1961881.0
Bhf. Zoo,autobus,AS1,19611012_west,"52.507029532025605, 13.333220118900503",,,,,,,,1961177.0
U-Bhf. Ernst-Reuter-Platz,autobus,AS1,19611013_west,"52.51164603099566, 13.322290858670174",,,,,,,,19611197.0
Cauerstr.,autobus,AS1,19611014_west,"52.51470519737728, 13.315222708879112",,,,,,,,1961249.0
Luisenplatz,autobus,AS1,19611015_west,"52.52005408723936, 13.2995133852506",,,,,,,,1961729.0
Fürstenbrunnerweg,autobus,AS1,19611016_west,"52.518378845111386, 13.280184750778325",,,,,,,,1961381.0
Schloss Ruhwald,autobus,AS1,19611017_west,"52.521567840298836, 13.260569641184494",,,,,,,,19611042.0
U-Bhf. Ruhleben,autobus,AS1,19611018_west,"52.52596833151868, 13.241478578696297",,,,,,,,19611221.0
Teltowerstr.,autobus,AS1,19611019_west,"52.52691807826059, 13.215807069988056",,,,,,,,19611160.0
Rathaus Spandau,autobus,AS1,19611020_west,"52.534578361518356, 13.199490942441287",,,,,,,,1961935.0
Hafenplatz,autobus,AS1,19611021_west,"52.54215888169655, 13.206044861619935",,,,,,,,1961457.0
Lynastr.,autobus,AS1,19611022_west,"52.54898935768741, 13.210225795636823",,,,,,,,1961736.0
Klinkeplatz,autobus,AS1,19611023_west,"52.555551464661846, 13.198549783852652",,,,,,,,1961615.0
Hohenzollernring,autobus,AS1,19611024_west,"52.55569430282622, 13.207589665448262",,,,,,,,1961531.0
Bhf. Zoo,autobus,AS2,19611025_west,"52.507029532025605, 13.333220118900503",,,,,,,,1961177.0
Hardenbergstr.,autobus,AS2,19611026_west,"52.506154057324025, 13.33242747094564",,,,,,,,1964454.0
"Rankeplatz, Bundeshaus",autobus,AS2,19611027_west,"52.4977881279831, 13.330731790169496",,,,,,,,1961923.0
Berlinerstr.,autobus,AS2,19611028_west,"52.48732335019939, 13.330965094326162",,,,,,,,196196.0
Bundesplatz,autobus,AS2,19611029_west,"52.478678991134835, 13.32860278411238",,,,,,,,1961231.0
"Schlossstr., Wilhelm-Schreiber-Platz",autobus,AS2,19611030_west,"52.46497175478016, 13.328534991548652",,,,,,,,19611048.0
Canovastr.,autobus,AS2,19611031_west,"52.46306323889937, 13.342852729949465",,,,,,,,1961245.0
Attilaplatz,autobus,AS2,19611032_west,"52.45590179888225, 13.376512495751076",,,,,,,,196164.0
Mariendorferdamm,autobus,AS2,19611033_west,"52.445604468950826, 13.385816551199863",,,,,,,,1961759.0
Alt-Mariendorf,autobus,AS2,19611034_west,"52.44015553185248, 13.387328254903215",,,,,,,,196124.0
"Tauernallee, Adlermühle",autobus,AS2,19611035_west,"52.42337464834511, 13.396185392179197",,,,,,,,19611151.0
Buckowerchaussee,autobus,AS2,19611036_west,"52.414558044256225, 13.401161035852658",,,,,,,,1961223.0
"Lichtenrade, Goethestr.",autobus,AS2,19611037_west,"52.40437993547595, 13.406198387437845",,,,,,,,1961712.0
Goltzstr.,autobus,AS2,19611038_west,"52.38667572084441, 13.407934498494095",,,,,,,,1961413.0
Bhf. Lichtenrade,autobus,AS2,19611039_west,"52.386683297852706, 13.395506929836833",,,,,,,,1961135.0
"Lichtenrade, Blohmstr. Ecke Wünsdorferstr.",autobus,AS2,19611040_west,"52.38867704828861, 13.394344156462488",,,,,,,,1961711.0
Bhf. Zoo,autobus,AS3,19611041_west,"52.507029532025605, 13.333220118900503",,,,,,,,1961177.0
Hardenbergstr.,autobus,AS3,19611042_west,"52.506154057324025, 13.33242747094564",,,,,,,,1964454.0
Rankeplatz/Bundeshaus,autobus,AS3,19611043_west,"52.497826190133736, 13.330710978777121",,,,,,,,1961924.0
U-Bhf. Fehrbellinerplatz,autobus,AS3,19611044_west,"52.490390927187676, 13.31417745809863",,,,,,,,19611199.0
Bhf. Hohenzollerndamm,autobus,AS3,19611045_west,"52.48832716566947, 13.301436926268025",,,,,,,,1961129.0
"Berkaerstr., Elsterplatz",autobus,AS3,19611046_west,"52.479592141367654, 13.285296936169493",,,,,,,,196195.0
Roseneck,autobus,AS3,19611047_west,"52.47580089902253, 13.282411270445099",,,,,,,,1961974.0
Pücklerstr.,autobus,AS3,19611048_west,"52.468566643885005, 13.27835662512682",,,,,,,,1961854.0
Königin-Luisestr.,autobus,AS3,19611049_west,"52.46046250414625, 13.274837141314253",,,,,,,,1961664.0
U-Bhf. Oskar-Helene-Heim,autobus,AS3,19611050_west,"52.450279005868815, 13.270361987159156",,,,,,,,19611219.0
Sundgauerstr.,autobus,AS3,19611051_west,"52.4455796617832, 13.267631906214019",,,,,,,,19611145.0
Winfriedstr.,autobus,AS3,19611052_west,"52.437562011852606, 13.269450173477841",,,,,,,,19611326.0
Clayallee/Teltowerdamm,autobus,AS3,19611053_west,"52.4350547405869, 13.260361762838802",,,,,,,,1961260.0
Rathaus Zehlendorf,autobus,AS3,19611054_west,"52.433207520111885, 13.259531923613192",,,,,,,,1961942.0
Gleisdreieck,u-bahn,A I,19611055_west,"52.49952,13.37409",Q678372,,,,,,,1961401.0
Bülowstr.,u-bahn,A I,19611056_west,"52.497552777778,13.363419444444",Q374881,,,,,,,1961242.0
Nollendorfplatz,u-bahn,A I,19611057_west,"52.499166666667,13.353888888889",Q571039,,,,,,,1961819.0
Wittenbergplatz,u-bahn,A I,19611058_west,"52.501944444444,13.343055555556",Q692727,,,,,,,19611336.0
Zoologischer Garten,u-bahn,A I,19611059_west,"52.5058669,13.3330236",Q4024764,,,,,,,19611359.0
Ernst-Reuter-Platz,u-bahn,A I,19611060_west,"52.511944444444,13.322222222222",Q658361,,,,,,,1961330.0
Deutsche Oper (Bismarckstr.),u-bahn,A I,19611061_west,"52.511944444444,13.310555555556",Q869501,,,,,,,1961280.0
Sophie-Charlotte-Platz,u-bahn,A I,19611062_west,"52.510833333333,13.296666666667",Q657879,,,,,,,19611091.0
Kaiserdamm (Messedamm),u-bahn,A I,19611063_west,"52.51,13.2822",Q656409,,,,,,,1961574.0
Reichskanzlerplatz,u-bahn,A I,19611064_west,"52.509722222222,13.273055555556",Q657857,,,,,,,1961951.0
Kottbusser Tor,u-bahn,A II,19611065_west,"52.499166666667,13.418055555556",Q819768,,,,,,,1961634.0
Prinzenstr.,u-bahn,A II,19611066_west,"52.498333333333,13.406111111111",Q689797,,,,,,,1961908.0
Hallesches Tor,u-bahn,A II,19611067_west,"52.497777777778,13.391111111111",Q658302,,,,,,,1961463.0
Möckernbrücke,u-bahn,A II,19611068_west,"52.499166666667,13.382777777778",Q704716,,,,,,,1961798.0
Gleisdreieck,u-bahn,A II,19611069_west,"52.49952,13.37409",Q678372,,,,,,,1961401.0
Kurfürstenstr.,u-bahn,A II,19611070_west,"52.5,13.361944444444",Q690203,,,,,,,1961651.0
Nollendorfplatz,u-bahn,A II,19611071_west,"52.499166666667,13.353888888889",Q571039,,,,,,,1961819.0
Wittenbergplatz,u-bahn,A II,19611072_west,"52.501944444444,13.343055555556",Q692727,,,,,,,19611336.0
Augsburgerstr.,u-bahn,A II,19611073_west,"52.500556,13.336389",Q667035,,,,,,,196166.0
Spichernstr. (Bundesallee),u-bahn,A II,19611074_west,"52.496388888889,13.330555555556",Q667046,,,,,,,19611100.0
Hohenzollernplatz,u-bahn,A II,19611075_west,"52.493888888889,13.325",Q571570,,,,,,,1961530.0
Fehrbellinerplatz,u-bahn,A II,19611076_west,"52.490277777778,13.314444444444",Q663245,,,,,,,1961344.0
Heidelbergerplatz,u-bahn,A II,19611077_west,"52.479808333333,13.313236111111",Q21777872,,,,,,,1961490.0
Rüdesheimerplatz,u-bahn,A II,19611078_west,"52.473333333333,13.314444444444",Q167147,,,,,,,1961988.0
Breitenbachplatz,u-bahn,A II,19611079_west,"52.466388888889,13.308055555556",Q571339,,,,,,,1961210.0
Podbielskiallee,u-bahn,A II,19611080_west,"52.464444444444,13.296388888889",Q571324,,,,,,,1961885.0
Dahlem-Dorf,u-bahn,A II,19611081_west,"52.456944444444,13.289444444444",Q668585,,,,,,,1961267.0
Thielplatz,u-bahn,A II,19611082_west,"52.451111111111,13.282222222222",Q571331,,,,,,,19611170.0
Oskar-Helene-Heim,u-bahn,A II,19611083_west,"52.450277777778,13.269722222222",Q681336,,,,,,,1961843.0
Onkel Toms Hütte,u-bahn,A II,19611084_west,"52.450277777778,13.253333333333",Q389214,,,,,,,1961833.0
Krumme Lanke,u-bahn,A II,19611085_west,"52.443333333333,13.241388888889",Q663945,,,,,,,1961649.0
Deutsche Oper (Bismarckstr.),u-bahn,A III,19611086_west,"52.511944444444,13.310555555556",Q869501,,,,,,,1961280.0
Richard-Wagner-Platz,u-bahn,A III,19611087_west,"52.5175,13.306388888889",Q662201,,,,,,,1961963.0
Schlesisches Tor,u-bahn,B I,19611088_west,"52.500833333333,13.441666666667",Q602282,,,,,,,19611040.0
Görlitzer Bahnhof (Oranienstr.),u-bahn,B I,19611089_west,"52.4992,13.428",Q597759,,,,,,,1961451.0
Kottbusser Tor,u-bahn,B I,19611090_west,"52.499166666667,13.418055555556",Q819768,,,,,,,1961634.0
Prinzenstr.,u-bahn,B I,19611091_west,"52.498333333333,13.406111111111",Q689797,,,,,,,1961908.0
Hallesches Tor,u-bahn,B I,19611092_west,"52.497777777778,13.391111111111",Q658302,,,,,,,1961463.0
Möckernbrücke,u-bahn,B I,19611093_west,"52.499166666667,13.382777777778",Q704716,,,,,,,1961798.0
Gleisdreieck,u-bahn,B I,19611094_west,"52.49952,13.37409",Q678372,,,,,,,1961401.0
Kurfürstenstr.,u-bahn,B I,19611095_west,"52.5,13.361944444444",Q690203,,,,,,,1961651.0
Nollendorfplatz,u-bahn,B I,19611096_west,"52.499166666667,13.353888888889",Q571039,,,,,,,1961819.0
Wittenbergplatz,u-bahn,B I,19611097_west,"52.501944444444,13.343055555556",Q692727,,,,,,,19611336.0
Zoologischer Garten,u-bahn,B I,19611098_west,"52.5058669,13.3330236",Q4024764,,,,,,,19611359.0
Ernst-Reuter-Platz,u-bahn,B I,19611099_west,"52.511944444444,13.322222222222",Q658361,,,,,,,1961330.0
Deutsche Oper (Bismarckstr.),u-bahn,B I,19611100_west,"52.511944444444,13.310555555556",Q869501,,,,,,,1961280.0
Sophie-Charlotte-Platz,u-bahn,B I,19611101_west,"52.510833333333,13.296666666667",Q657879,,,,,,,19611091.0
Kaiserdamm (Messedamm),u-bahn,B I,19611102_west,"52.51,13.2822",Q656409,,,,,,,1961574.0
Reichskanzlerplatz,u-bahn,B I,19611103_west,"52.509722222222,13.273055555556",Q657857,,,,,,,1961951.0
Neu-Westend,u-bahn,B I,19611104_west,"52.515555555556,13.261111111111",Q656431,,,,,,,1961809.0
Olympia-Stadion,u-bahn,B I,19611105_west,"52.517222222222,13.25",Q656441,,,,,,,1961831.0
Ruhleben,u-bahn,B I,19611106_west,"52.525555555556,13.241388888889",Q656401,,,,,,,1961981.0
Schlesisches Tor,u-bahn,B II,19611107_west,"52.500833333333,13.441666666667",Q602282,,,,,,,19611040.0
Görlitzer Bahnhof (Oranienstr.),u-bahn,B II,19611108_west,"52.4992,13.428",Q597759,,,,,,,1961451.0
Kottbusser Tor,u-bahn,B II,19611109_west,"52.499166666667,13.418055555556",Q819768,,,,,,,1961634.0
Prinzenstr.,u-bahn,B II,19611110_west,"52.498333333333,13.406111111111",Q689797,,,,,,,1961908.0
Hallesches Tor,u-bahn,B II,19611111_west,"52.497777777778,13.391111111111",Q658302,,,,,,,1961463.0
Möckernbrücke,u-bahn,B II,19611112_west,"52.499166666667,13.382777777778",Q704716,,,,,,,1961798.0
Gleisdreieck,u-bahn,B II,19611113_west,"52.49952,13.37409",Q678372,,,,,,,1961401.0
Kurfürstenstr.,u-bahn,B II,19611114_west,"52.5,13.361944444444",Q690203,,,,,,,1961651.0
Nollendorfplatz,u-bahn,B II,19611115_west,"52.499166666667,13.353888888889",Q571039,,,,,,,1961819.0
Wittenbergplatz,u-bahn,B II,19611116_west,"52.501944444444,13.343055555556",Q692727,,,,,,,19611336.0
Augsburgerstr.,u-bahn,B II,19611117_west,"52.500556,13.336389",Q667035,,,,,,,196166.0
Hohenzollernplatz,u-bahn,B II,19611118_west,"52.493888888889,13.325",Q571570,,,,,,,1961530.0
Fehrbellinerplatz,u-bahn,B II,19611119_west,"52.490277777778,13.314444444444",Q663245,,,,,,,1961344.0
Heidelbergerplatz,u-bahn,B II,19611120_west,"52.479808333333,13.313236111111",Q21777872,,,,,,,1961490.0
Rüdesheimerplatz,u-bahn,B II,19611121_west,"52.473333333333,13.314444444444",Q167147,,,,,,,1961988.0
Breitenbachplatz,u-bahn,B II,19611122_west,"52.466388888889,13.308055555556",Q571339,,,,,,,1961210.0
Podbielskiallee,u-bahn,B II,19611123_west,"52.464444444444,13.296388888889",Q571324,,,,,,,1961885.0
Dahlem-Dorf,u-bahn,B II,19611124_west,"52.456944444444,13.289444444444",Q668585,,,,,,,1961267.0
Thielplatz,u-bahn,B II,19611125_west,"52.451111111111,13.282222222222",Q571331,,,,,,,19611170.0
Oskar-Helene-Heim,u-bahn,B II,19611126_west,"52.450277777778,13.269722222222",Q681336,,,,,,,1961843.0
Onkel Toms Hütte,u-bahn,B II,19611127_west,"52.450277777778,13.253333333333",Q389214,,,,,,,1961833.0
Krumme Lanke,u-bahn,B II,19611128_west,"52.443333333333,13.241388888889",Q663945,,,,,,,1961649.0
Nollendorfplatz,u-bahn,B III,19611129_west,"52.499166666667,13.353888888889",Q571039,,,,,,,1961819.0
Viktoria-Luise-Platz,u-bahn,B III,19611130_west,"52.496161111111,13.342702777778",Q178685,,,,,,,19611248.0
Bayerischerplatz,u-bahn,B III,19611131_west,"52.488333333333,13.340277777778",Q668574,,,,,,,196183.0
Rathaus Schöneberg,u-bahn,B III,19611132_west,"52.483116666667,13.341930555556",Q570926,,,,,,,1961934.0
Innsbruckerplatz (Hauptstr.),u-bahn,B III,19611133_west,"52.4786,13.3439",Q10275871,,,,,,,1961552.0
Tegel,u-bahn,C I,19611134_west,"52.58944,13.28389",Q656090,,,,,,,19611155.0
Borsigwerke,u-bahn,C I,19611135_west,"52.5819,13.2907",Q525185,,,,,,,1961201.0
Holzhauserstr.,u-bahn,C I,19611136_west,"52.575833333333,13.296111111111",Q557566,,,,,,,1961535.0
Seidelstr. (Flughafen Tegel),u-bahn,C I,19611137_west,"52.571111,13.302778",Q557582,,,,,,,19611081.0
Scharnweberstr. (Eichborndamm),u-bahn,C I,19611138_west,"52.566944444444,13.312777777778",Q557586,,,,,,,19611033.0
Kurt-Schumacher-Platz,u-bahn,C I,19611139_west,"52.563555555556,13.326572222222",Q555916,,,,,,,1961659.0
Afrikanischestr.,u-bahn,C I,19611140_west,"52.560027777778,13.334633333333",Q559239,,,,,,,19614.0
Rehberge,u-bahn,C I,19611141_west,"52.5567,13.3412",Q253850,,,,,,,1961947.0
Seestr.,u-bahn,C I,19611142_west,"52.55056,13.35194",Q554391,,,,,,,19611079.0
Leopoldplatz,u-bahn,C I,19611143_west,"52.5465,13.3591",Q1960809,,,,,,,1961702.0
Bahnhof Wedding,u-bahn,C I,19611144_west,"52.5425,13.366111",Q4018733,,,,,,,196176.0
Reinickendorferstr.,u-bahn,C I,19611145_west,"52.539911111111,13.370377777778",Q559249,,,,,,,1961955.0
Bahnhof Friedrichstr. (Stadtbahn),u-bahn,C I,19611146_west,"52.520111111111,13.388305555556",Q3753274,,,,,,,196174.0
Kochstr.,u-bahn,C I,19611147_west,"52.505897222222,13.390611111111",Q201849,,,,,,,1961622.0
Hallesches Tor,u-bahn,C I,19611148_west,"52.497777777778,13.391111111111",Q658302,,,,,,,1961463.0
Mehringdamm,u-bahn,C I,19611149_west,"52.493888888889,13.388333333333",Q657905,,,,,,,1961781.0
Gneisenaustr.,u-bahn,C I,19611150_west,"52.491388888889,13.395555555556",Q668618,,,,,,,1961405.0
Südstern,u-bahn,C I,19611151_west,"52.489444444444,13.407777777778",Q656081,,,,,,,19611149.0
Hermannplatz,u-bahn,C I,19611152_west,"52.48629,13.42455",Q658929,,,,,,,1961503.0
Rathaus Neukölln,u-bahn,C I,19611153_west,"52.481666666667,13.434166666667",Q628770,,,,,,,1961930.0
Karl-Marxstr.,u-bahn,C I,19611154_west,"52.476111111111,13.439166666667",Q519494,,,,,,,1961587.0
Neukölln (Südring),u-bahn,C I,19611155_west,"52.469444,13.442222",Q21272767,,,,,,,1961812.0
Grenzallee,u-bahn,C I,19611156_west,"52.463333333333,13.443888888889",Q571836,,,,,,,1961428.0
Mehringdamm,u-bahn,C II,19611157_west,"52.493888888889,13.388333333333",Q657905,,,,,,,1961781.0
Flughafen,u-bahn,C II,19611158_west,"52.485556, 13.385833",Q557582,,,,,,,1961352.0
Paradestr.,u-bahn,C II,19611159_west,"52.478055555556,13.386111111111",Q557543,,,,,,,1961867.0
Tempelhof (Südring),u-bahn,C II,19611160_west,"52.47075,13.385361111111",Q3983109,,,,,,,19611166.0
Gesundbrunnen,u-bahn,D,19611161_west,"52.548611,13.389444",Q3761416,,,,,,,1961397.0
Voltastr.,u-bahn,D,19611162_west,"52.542093,13.393022",Q663308,,,,,,,19611251.0
Moritzplatz,u-bahn,D,19611163_west,"52.503611111111,13.410833333333",Q374225,,,,,,,1961793.0
Kottbusser Tor,u-bahn,D,19611164_west,"52.499166666667,13.418055555556",Q819768,,,,,,,1961634.0
Kottbusserdamm (Schönleinstr.),u-bahn,D,19611165_west,"52.493055555556,13.421944444444",Q666868,,,,,,,1961633.0
Hermannplatz,u-bahn,D,19611166_west,"52.48629,13.42455",Q658929,,,,,,,1961503.0
Boddinstr.,u-bahn,D,19611167_west,"52.48,13.425277777778",Q819495,,,,,,,1961194.0
Leinestr.,u-bahn,D,19611168_west,"52.472777777778,13.428333333333",Q668563,,,,,,,1961693.0
Gesundbrunnen,s-bahn,KBS 100,19611169_west,"52.548611111111,13.389444444444",Q111239092,,,,,,,1961396.0
Wedding,s-bahn,KBS 100,19611170_west,"52.5425,13.3661",,52.5425,13.3661,100,Wedding,19671086_west,['KBS 100'],
Putlitzstr.,s-bahn,KBS 100,19611171_west,"52.536,13.344",,52.536,13.344,100,Putlitzstr.,19671087_west,['KBS 100'],
Beusselstr.,s-bahn,KBS 100,19611172_west,"52.53444444,13.32916667",,52.53444444,13.32916667,100,Beusselstr.,19671088_west,['KBS 100'],
Jungfernheide,s-bahn,KBS 100,19611173_west,"52.53035,13.299433333333",Q110977325,,,,,,,1961569.0
Westend,s-bahn,KBS 100,19611174_west,"52.5181,13.2844",,52.5181,13.2844,100,Westend,19671090_west,['KBS 100'],
Witzleben,s-bahn,KBS 100,19611175_west,"52.5078,13.2836",,52.5078,13.2836,100,Witzleben,19671091_west,['KBS 100'],
Westkreuz,s-bahn,KBS 100,19611176_west,"52.5011,13.2839",Q678125,,,,,,,19611296.0
Halensee,s-bahn,KBS 100,19611177_west,"52.4961,13.2906",Q800476,,,,,,,1961462.0
Hohenzollerndamm,s-bahn,KBS 100,19611178_west,"52.4885,13.3004",Q800503,,,,,,,1961529.0
Schmargendorf,s-bahn,KBS 100,19611179_west,"52.479672222222,13.312441666667",Q302810,,,,,,,19611050.0
Wilmersdorf,s-bahn,KBS 100,19611180_west,"52.477658333333,13.328525",Q464094,,,,,,,19611320.0
Innsbruckerplatz,s-bahn,KBS 100,19611181_west,"52.4786,13.3439",Q111263876,,,,,,,1961550.0
Schöneberg,s-bahn,KBS 100,19611182_west,"52.4794,13.3517",Q543855,,,,,,,19611062.0
Papestr.,s-bahn,KBS 100,19611183_west,"52.4756,13.3644",Q111323139,,,,,,,1961866.0
Tempelhof,s-bahn,KBS 100,19611184_west,"52.4708,13.3854",Q111264368,,,,,,,19611165.0
Hermannstr.,s-bahn,KBS 100,19611185_west,"52.4675,13.431111111111",Q111263802,,,,,,,1961504.0
Neukölln,s-bahn,KBS 100,19611186_west,"52.469166666667,13.441666666667",Q111325412,,,,,,,1961811.0
Sonnenallee,s-bahn,KBS 100,19611187_west,"52.473,13.4558",,52.473,13.4558,100,Sonnenallee,19671103_west,['KBS 100'],
Wilmersdorf,s-bahn,KBS 100a,19611188_west,"52.477658333333,13.328525",Q464094,,,,,,,19611320.0
Innsbruckerplatz,s-bahn,KBS 100a,19611189_west,"52.4786,13.3439",Q111263876,,,,,,,1961550.0
Schöneberg,s-bahn,KBS 100a,19611190_west,"52.4794,13.3517",Q543855,,,,,,,19611062.0
Papestr.,s-bahn,KBS 100a,19611191_west,"52.4756,13.3644",Q111323139,,,,,,,1961866.0
Tempelhof,s-bahn,KBS 100a,19611192_west,"52.4708,13.3854",Q111264368,,,,,,,19611165.0
Hermannstr.,s-bahn,KBS 100a,19611193_west,"52.4675,13.431111111111",Q111263802,,,,,,,1961504.0
Neukölln,s-bahn,KBS 100a,19611194_west,"52.469166666667,13.441666666667",Q111325412,,,,,,,1961811.0
Köllnische Heide,s-bahn,KBS 100a,19611195_west,"52.4694,13.4675",Q800505,,,,,,,1961660.0
Baumschulenweg,s-bahn,KBS 100a,19611196_west,"52.4675,13.489722",Q324336,,,,,,,196182.0
Schöneweide,s-bahn,KBS 100a,19611197_west,"52.455,13.509444444444",Q111323931,,,,,,,19611065.0
Betriebsbahnhof Schöneweide,s-bahn,KBS 100a,19611198_west,"52.44676,13.52391",Q4526101,,,,,,,1961108.0
Adlershof,s-bahn,KBS 100a,19611199_west,"52.434722222222,13.541388888889",Q323551,,,,,,,19612.0
Grünau,s-bahn,KBS 100a,19611200_west,"52.4122,13.5746",Q111307258,,,,,,,1961442.0
Gartenfeld,s-bahn,KBS 100c,19611201_west,"52.54695,13.24882",Q96080469,,,,,,,1961385.0
Siemensstadt,s-bahn,KBS 100c,19611202_west,"52.53923,13.26365",Q96080453,,,,,,,19611084.0
Wernerwerk,s-bahn,KBS 100c,19611203_west,"52.534863,13.27599",Q96077001,,,,,,,19611294.0
Jungfernheide,s-bahn,KBS 100c,19611204_west,"52.53035,13.299433333333",Q110977325,,,,,,,1961569.0
Spandau West,s-bahn,KBS 101,19611205_west,"52.5347,13.1958",Q111325678,,,,,,,19611095.0
Spandau,s-bahn,KBS 101,19611206_west,"52.532, 13.2089",Q800491,,,,,,,19611094.0
Pichelsberg,s-bahn,KBS 101,19611207_west,"52.5103,13.2271",Q800488,,,,,,,1961877.0
Olympiastadion,s-bahn,KBS 101,19611208_west,"52.511,13.2416",Q800506,,,,,,,1961832.0
Heerstr.,s-bahn,KBS 101,19611209_west,"52.5086,13.2586",Q800502,,,,,,,1961487.0
Eichkamp,s-bahn,KBS 101,19611210_west,"52.4987,13.2702",Q800504,,,,,,,1961311.0
Westkreuz,s-bahn,KBS 101,19611211_west,"52.5011,13.2839",Q678125,,,,,,,19611296.0
Charlottenburg,s-bahn,KBS 101,19611212_west,"52.504722222222,13.303333333333",Q111326217,,,,,,,1961252.0
Savignyplatz,s-bahn,KBS 101,19611213_west,"52.5051746,13.3190659",Q554382,,,,,,,19611028.0
Zoologischer Garten,s-bahn,KBS 101,19611214_west,"52.507222222222,13.3325",Q111326238,,,,,,,19611358.0
Tiergarten,s-bahn,KBS 101,19611215_west,"52.5144,13.3365",Q572112,,,,,,,19611176.0
Bellevue,s-bahn,KBS 101,19611216_west,"52.52,13.348055555556",Q374018,,,,,,,196186.0
Lehrter Stadtbahnhof,s-bahn,KBS 101,19611217_west,"52.5253,13.3694",Q821299,,,,,,,1961690.0
Friedrichstr.,s-bahn,KBS 101,19611218_west,"52.52027777777778,13.386944444444444",Q111219456,,,,,,,1961375.0
Wannsee,s-bahn,KBS 102,19611219_west,"52.4214,13.1792",Q111325896,,,,,,,19611269.0
Nikolassee,s-bahn,KBS 102,19611220_west,"52.4317,13.1933",Q637052,,,,,,,1961815.0
Grunewald,s-bahn,KBS 102,19611221_west,"52.4892,13.2614",Q457266,,,,,,,1961438.0
Westkreuz,s-bahn,KBS 102,19611222_west,"52.5011,13.2839",Q678125,,,,,,,19611296.0
Charlottenburg,s-bahn,KBS 102,19611223_west,"52.504722222222,13.303333333333",Q111326217,,,,,,,1961252.0
Savignyplatz,s-bahn,KBS 102,19611224_west,"52.5051746,13.3190659",Q554382,,,,,,,19611028.0
Zoologischer Garten,s-bahn,KBS 102,19611225_west,"52.507222222222,13.3325",Q111326238,,,,,,,19611358.0
Tiergarten,s-bahn,KBS 102,19611226_west,"52.5144,13.3365",Q572112,,,,,,,19611176.0
Bellevue,s-bahn,KBS 102,19611227_west,"52.52,13.348055555556",Q374018,,,,,,,196186.0
Lehrter Stadtbahnhof,s-bahn,KBS 102,19611228_west,"52.5253,13.3694",Q821299,,,,,,,1961690.0
Friedrichstr.,s-bahn,KBS 102,19611229_west,"52.52027777777778,13.386944444444444",Q111219456,,,,,,,1961375.0
Spandau West,s-bahn,KBS 103a,19611230_west,"52.5347,13.1958",Q111325678,,,,,,,19611095.0
Spandau,s-bahn,KBS 103a,19611231_west,"52.532, 13.2089",Q800491,,,,,,,19611094.0
Siemensstadt-Fürstenbrunn,s-bahn,KBS 103a,19611232_west,"52.528,13.2695",Q18747940,,,,,,,19611085.0
Jungfernheide,s-bahn,KBS 103a,19611233_west,"52.53035,13.299433333333",Q110977325,,,,,,,1961569.0
Zehlendorf,s-bahn,KBS 104a,19611234_west,"52.4309,13.2584",Q737962,,,,,,,19611349.0
Düppel-Kleinmachnow,s-bahn,KBS 104a,19611235_west,"52.421388888889,13.226666666667",Q44763529,,,,,,,1961299.0
Gesundbrunnen,s-bahn,KBS 104,19611236_west,"52.548611111111,13.389444444444",Q111239092,,,,,,,1961396.0
Humboldthain,s-bahn,KBS 104,19611237_west,"52.5451,13.3796",Q481276,,,,,,,1961541.0
Friedrichstr.,s-bahn,KBS 104,19611238_west,"52.52027777777778,13.386944444444444",Q111219456,,,,,,,1961375.0
Anhalter Bahnhof,s-bahn,KBS 104,19611239_west,"52.503055555556,13.381944444444",Q111324573,,,,,,,196157.0
Großgörschenstr.,s-bahn,KBS 104,19611240_west,"52.4922745,13.3678588",Q21776726,,,,,,,1961437.0
Schöneberg,s-bahn,KBS 104,19611241_west,"52.4794,13.3517",Q543855,,,,,,,19611062.0
Friedenau,s-bahn,KBS 104,19611242_west,"52.47,13.341",Q800471,,,,,,,1961362.0
Feuerbachstr.,s-bahn,KBS 104,19611243_west,"52.463611111111,13.332777777778",Q800501,,,,,,,1961346.0
Steglitz,s-bahn,KBS 104,19611244_west,"52.4562,13.3216",Q111264179,,,,,,,19611118.0
Botanischer Garten,s-bahn,KBS 104,19611245_west,"52.44806,13.30722",Q800498,,,,,,,1961204.0
Lichterfelde West,s-bahn,KBS 104,19611246_west,"52.4433,13.2947",Q111327103,,,,,,,1961716.0
Sundgauerstr.,s-bahn,KBS 104,19611247_west,"52.436291,13.273772",Q800513,,,,,,,19611144.0
Zehlendorf,s-bahn,KBS 104,19611248_west,"52.4309,13.2584",Q737962,,,,,,,19611349.0
Lindenthalerallee,s-bahn,KBS 104,19611249_west,"52.4375,13.2325",Q315891,,,,,,,1961723.0
Schlachtensee,s-bahn,KBS 104,19611250_west,"52.4401,13.2153",Q800509,,,,,,,19611039.0
Nikolassee,s-bahn,KBS 104,19611251_west,"52.4317,13.1933",Q637052,,,,,,,1961815.0
Wannsee,s-bahn,KBS 104,19611252_west,"52.4214,13.1792",Q111325896,,,,,,,19611269.0
Heiligensee,s-bahn,KBS 105,19611253_west,"52.6247,13.2292",Q800475,,,,,,,1961491.0
Schulzendorf (b Tegel),s-bahn,KBS 105,19611254_west,"52.6128,13.2462",Q800487,,,,,,,19611054.0
Tegel,s-bahn,KBS 105,19611255_west,"52.5886,13.2894",Q800493,,,,,,,19611154.0
Eichbornstr.,s-bahn,KBS 105,19611256_west,"52.5776,13.3169",Q800500,,,,,,,1961306.0
Wittenau (Kremmener Bahn),s-bahn,KBS 105,19611257_west,"52.597013,13.334329",Q111264319,,,,,,,19611332.0
Reinickendorf,s-bahn,KBS 105,19611258_west,"52.5779,13.3506",Q800496,,,,,,,1961954.0
Schönholz,s-bahn,KBS 105,19611259_west,"52.5714,13.3814",Q800490,,,,,,,19611069.0
Wollankstr.,s-bahn,KBS 105,19611260_west,"52.5651525,13.3923627",Q800515,,,,,,,19611339.0
Gesundbrunnen,s-bahn,KBS 105,19611261_west,"52.548611111111,13.389444444444",Q111239092,,,,,,,1961396.0
Humboldthain,s-bahn,KBS 105,19611262_west,"52.5451,13.3796",Q481276,,,,,,,1961541.0
Friedrichstr.,s-bahn,KBS 105,19611263_west,"52.52027777777778,13.386944444444444",Q111219456,,,,,,,1961375.0
Anhalter Bahnhof,s-bahn,KBS 105,19611264_west,"52.503055555556,13.381944444444",Q111324573,,,,,,,196157.0
Yorckstr.,s-bahn,KBS 105,19611265_west,"52.491777777778,13.372141666667",Q21776729,,,,,,,19611344.0
Papestr.,s-bahn,KBS 105,19611266_west,"52.4756,13.3644",Q111323139,,,,,,,1961866.0
Priesterweg,s-bahn,KBS 105,19611267_west,"52.4601,13.3563",Q800508,,,,,,,1961905.0
Mariendorf,s-bahn,KBS 105,19611268_west,"52.4478,13.3609",Q800497,,,,,,,1961758.0
Marienfelde,s-bahn,KBS 105,19611269_west,"52.4242,13.3747",Q800485,,,,,,,1961763.0
Buckower Ch.,s-bahn,KBS 105,19611270_west,"52.4103,13.3829",Q800499,,,,,,,1961222.0
Lichtenrade,s-bahn,KBS 105,19611271_west,"52.3876,13.3963",Q6543354,,,,,,,1961710.0
Frohnau,s-bahn,KBS 106,19611272_west,"52.6325,13.2902",Q800472,,,,,,,1961379.0
Hermsdorf,s-bahn,KBS 106,19611273_west,"52.6178,13.3069",Q263189,,,,,,,1961507.0
Waidmannslust,s-bahn,KBS 106,19611274_west,"52.6064,13.321",Q800492,,,,,,,19611253.0
Wittenau (Nordbahn),s-bahn,KBS 106,19611275_west,"52.597013,13.334329",Q111264319,,,,,,,19611333.0
Wilhelmsruh,s-bahn,KBS 106,19611276_west,"52.5814,13.3631",Q800495,,,,,,,19611317.0
Schönholz,s-bahn,KBS 106,19611277_west,"52.5714,13.3814",Q800490,,,,,,,19611069.0
Wollankstr.,s-bahn,KBS 106,19611278_west,"52.5651525,13.3923627",Q800515,,,,,,,19611339.0
Gesundbrunnen,s-bahn,KBS 106,19611279_west,"52.548611111111,13.389444444444",Q111239092,,,,,,,1961396.0
Humboldthain,s-bahn,KBS 106,19611280_west,"52.5451,13.3796",Q481276,,,,,,,1961541.0
Friedrichstr.,s-bahn,KBS 106,19611281_west,"52.52027777777778,13.386944444444444",Q111219456,,,,,,,1961375.0
Anhalter Bahnhof,s-bahn,KBS 106,19611282_west,"52.503055555556,13.381944444444",Q111324573,,,,,,,196157.0
Yorckstr.,s-bahn,KBS 106,19611283_west,"52.491777777778,13.372141666667",Q21776729,,,,,,,19611344.0
Papestr.,s-bahn,KBS 106,19611284_west,"52.4756,13.3644",Q111323139,,,,,,,1961866.0
Priesterweg,s-bahn,KBS 106,19611285_west,"52.4601,13.3563",Q800508,,,,,,,1961905.0
Südende,s-bahn,KBS 106,19611286_west,"52.4481,13.3536",Q800511,,,,,,,19611147.0
Lankwitz,s-bahn,KBS 106,19611287_west,"52.4386,13.3417",Q800481,,,,,,,1961684.0
Lichterfelde Ost,s-bahn,KBS 106,19611288_west,"52.43,13.3289",Q111311299,,,,,,,1961714.0
Lichterfelde Süd,s-bahn,KBS 106,19611289_west,"52.41,13.3086",Q800482,,,,,,,1961715.0
Kladow,ferry,Wannsee<>Kladow (Betrieb durch Stern und Kreisschiffahrt),19611290_west,"52.45151499,13.14796194",,52.45151499,13.14796194,100,Kladow,19671212_west,['Wannsee<>Kladow (Betrieb durch Stern und Kreisschiffahrt)'],
Wannsee,ferry,Wannsee<>Kladow (Betrieb durch Stern und Kreisschiffahrt),19611291_west,"52.42192802,13.17581596",,52.42192802,13.17581596,100,Wannsee,19671213_west,['Wannsee<>Kladow (Betrieb durch Stern und Kreisschiffahrt)'],
