stop_name,type,line_name,stop_id,location,identifier,latitude,longitude,match_score,matched_name,matched_stop_id,matched_historical_lines,location_from
Daimlerstr.,tram,15,19640_west,"52.42636276,13.37438168",,52.42636276,13.37438168,90,Großbeerenstr. Ecke Daimlerstr.,19651_west,['15'],
Körtingstr.,tram,15,19642_west,"52.43481353,13.37831564",,52.43481353,13.37831564,90,Körtingstr. Ecke Großbeerenstr.,19652_west,['15'],
Mariendorferdamm,tram,15,19643_west,"52.44016815,13.38730997",,52.44016815,13.38730997,90,Mariendorferdamm Ecke Alt-Mariendorf,19653_west,['15'],
Imbrosweg,tram,15,19644_west,"52.44352627,13.39862544",,52.44352627,13.39862544,90,Imbrosweg Ecke Rixdorferstr.,19654_west,['15'],
Mariendorfer Friedhof,tram,15,19645_west,"52.44953069256824, 13.404755931664896",,,,,,,,1964776.0
Industriestr.,tram,15,19646_west,"52.45533607,13.40989571",,52.45533607,13.40989571,90,Industriestr. Ecke Gottlieb-Dunkel-Str.,19656_west,['15'],
Germaniastr.,tram,15,19647_west,"52.46053987,13.41805889",,52.46053987,13.41805889,90,Germaniastr. Ecke Gottlieb-Dunkel-Str.,19657_west,['15'],
Frauenklinik,tram,15,19648_west,"52.46394991,13.42750955",,52.46394991,13.42750955,90,"Frauenklinik, Mariendorferweg",19658_west,['15'],
Hermannstr.,tram,15,19649_west,"52.46276073,13.43439092",,52.46276073,13.43439092,90,Hermannstr./Britzerdamm,19659_west,['15'],
U-Bhf. Neukölln,tram,15,196410_west,"52.46965568,13.44161494",,52.46965568,13.44161494,100,U-Bhf. Neukölln,196510_west,['15'],
Richardstr.,tram,15,196411_west,"52.47098038,13.44634551",,52.47098038,13.44634551,90,Richardstr. Ecke Braunschweigerstr.,196511_west,['15'],
Saalestr. Ecke Sonnenallee,tram,15,196412_west,"52.47384843,13.45589857",,52.47384843,13.45589857,100,Saalestr. Ecke Sonnenallee,196512_west,['15'],
Dammweg,tram,15,196413_west,"52.47028918,13.46461967",,52.47028918,13.46461967,90,Dammweg Ecke Sonnenallee,196513_west,['15'],
Schulenburgpark,tram,15,196414_west,"52.46666061,13.47029259",,52.46666061,13.47029259,100,Schulenburgpark,196514_west,['15'],
Gradestr. Ecke Tempelhoferweg,tram,47,196415_west,"52.45253932,13.43305683",,52.45253932,13.43305683,100,Gradestr. Ecke Tempelhoferweg,196515_west,['47'],
U-Bhf. Blaschko-Allee,tram,47,196416_west,"52.45247429,13.44902591",,52.45247429,13.44902591,98,U-Bhf. Blaschkoallee,196516_west,['47'],
Buschkrug,tram,47,196417_west,"52.44824572,13.45392578",,52.44824572,13.45392578,90,Onkel-Herse-Str. Ecke Buschkrugallee,196518_west,['47'],
Onkel-Herse-Str.,tram,47,196418_west,"52.44824572,13.45392578",,52.44824572,13.45392578,90,Onkel-Herse-Str. Ecke Buschkrugallee,196518_west,['47'],
Parachimerallee Ecke Buschkrugallee,tram,47,196419_west,"52.44543069,13.45497615",,52.44543069,13.45497615,99,Parchimerallee Ecke Buschkrugallee,196519_west,['47'],
Grünerweg Ecke Buschkrugallee,tram,47,196420_west,"52.44256249,13.45634565",,52.44256249,13.45634565,100,Grünerweg Ecke Buschkrugallee,196520_west,['47'],
Krankenhaus Neukölln,tram,47,196421_west,"52.43977054,13.45935906",,52.43977054,13.45935906,100,Krankenhaus Neukölln,196521_west,['47'],
Johannisthalerchaussee Ecke Rudowerstr.,tram,47,196422_west,"52.43431775,13.46904333",,52.43431775,13.46904333,99,Johannisthaler Chaussee Ecke Rudowerstr.,196522_west,['47'],
Wildmeisterdamm Ecke Neuköllnerstr.,tram,47,196423_west,"52.42577675,13.48323925",,52.42577675,13.48323925,100,Wildmeisterdamm Ecke Neuköllnerstr.,196523_west,['47'],
Stubenrauchstr.,tram,47,196424_west,"52.42416862,13.48544348",,52.42416862,13.48544348,90,Stubenrauchstr. Ecke Neuköllnerstr.,196524_west,['47'],
Köpenickerstr. Ecke Neuköllnerstr.,tram,47,196425_west,"52.41693184,13.49408867",,52.41693184,13.49408867,100,Köpenickerstr. Ecke Neuköllnerstr.,196525_west,['47'],
Richard-Wagner-Platz,tram,53,196427_west,"52.51757062,13.30624812",,52.51757062,13.30624812,100,Richard-Wagner-Platz,196529_west,['53'],
Luisenplatz,tram,53,196428_west,"52.51951940474329, 13.300024347605849",,,,,,,,1964740.0
Klausenerplatz,tram,53,196429_west,"52.519202008553854, 13.291867366490655",,,,,,,,1964609.0
Kirschenallee,tram,53,196431_west,"52.52038534,13.26714901",,52.52038534,13.26714901,90,Kirschenallee Ecke Spandauerdamm,196532_west,['53'],
Schloss Ruhwald,tram,53,196432_west,"52.52160139428261, 13.260396465216335",,,,,,,,19641100.0
U-Bhf. Ruhleben,tram,53,196433_west,"52.52595777,13.24137187",,52.52595777,13.24137187,100,U-Bhf. Ruhleben,196534_west,['53'],
Teltowerstr.,tram,53,196434_west,"52.52649488,13.21644671",,52.52649488,13.21644671,90,Teltowerstr. Ecke Ruhlebenerstr.,196535_west,['53'],
Freiheit,tram,53,196435_west,"52.53269779,13.20751844",,52.53269779,13.20751844,100,Freiheit,196536_west,['53'],
"Spandau, Markt",tram,53,196436_west,"52.53784349532438, 13.204135429364628",,,,,,,,19641172.0
Hafenplatz,tram,53,196437_west,"52.542292547760184, 13.206201126048732",,,,,,,,1964441.0
Lynastr. Ecke Neuendorferstr.,tram,53,196438_west,"52.54898037,13.21025253",,52.54898037,13.21025253,98,Lynarstr. Ecke Neuendorferstr.,196539_west,['53'],
Hohenzollernring,tram,53,196439_west,"52.55534806923232, 13.198657615343986",,,,,,,,1964522.0
Hakenfelde,tram,53,196440_west,"52.57886009874865, 13.210057800310379",,,,,,,,1964444.0
Richard-Wagner-Platz,tram,54,196441_west,"52.517570616857, 13.306248118529135",,,,,,,,19641005.0
Luisenplatz,tram,54,196442_west,"52.51951940474329, 13.300024347605849",,,,,,,,1964740.0
Klausenerplatz,tram,54,196443_west,"52.51920201,13.29186737",,52.51920201,13.29186737,100,Klausenerplatz,196544_west,['54'],
Kirschenallee,tram,54,196445_west,"52.52037354122697, 13.267241546337495",,,,,,,,1964605.0
Schloss Ruhwald,tram,54,196446_west,"52.52160458,13.26039687",,52.52160458,13.26039687,93,Schloß Ruhwald,196546_west,['54'],
U-Bhf. Ruhleben,tram,54,196447_west,"52.52595776615238, 13.241371866188729",,,,,,,,19641305.0
Teltowerstr.,tram,54,196448_west,"52.52691412538678, 13.215987693499372",,,,,,,,19641242.0
Freiheit,tram,54,196449_west,"52.53269778633445, 13.207518439639045",,,,,,,,1964345.0
"Spandau, Markt",tram,54,196450_west,"52.53784349532438, 13.204135429364628",,,,,,,,19641172.0
Hafenplatz,tram,54,196451_west,"52.542292547760184, 13.206201126048732",,,,,,,,1964441.0
Hohenzollernring,tram,54,196453_west,"52.55534806923232, 13.198657615343986",,,,,,,,1964522.0
Johannesstift,tram,54,196454_west,"52.56762416524039, 13.191782610265674",,,,,,,,1964564.0
Bhf. Zoo,tram,55,196455_west,"52.50719346,13.33262988",,52.50719346,13.33262988,100,Bhf. Zoo,196555_west,['55'],
U-Bhf. Ernst-Reuter-Platz,tram,55,196456_west,"52.51159182,13.32257153",,52.51159182,13.32257153,95,Ernst-Reuter-Platz,196556_west,['55'],
Richard-Wagner-Platz,tram,55,196457_west,"52.517570616857, 13.306248118529135",,,,,,,,19641005.0
Luisenplatz,tram,55,196458_west,"52.52039497,13.29942701",,52.52039497,13.29942701,100,Luisenplatz,196559_west,['55'],
Osnabrückerstr.,tram,55,196459_west,"52.52651985,13.29732033",,52.52651985,13.29732033,90,Osnabrückerstr. Ecke Tegelerweg,196560_west,['55'],
Jakob-Kaiser-Platz,tram,55,196460_west,"52.53674528,13.29357089",,52.53674528,13.29357089,100,Jakob-Kaiser-Platz,196561_west,['55'],
Quellweg,tram,55,196461_west,"52.53662795,13.26837045",,52.53662795,13.26837045,90,Quellweg Ecke Nonnendammallee,196562_west,['55'],
Paulsternstr.,tram,55,196462_west,"52.54412196,13.24701046",,52.54412196,13.24701046,90,Paulsternstr. Ecke Gartenfelderstr.,196563_west,['55'],
Zitadellenweg,tram,55,196463_west,"52.53777974,13.21728515",,52.53777974,13.21728515,90,Zitadellenweg Ecke Am Juliusturm,196564_west,['55'],
Carl-Schurz-Str. Ecke Am Juliusturm,tram,55,196464_west,"52.53954502,13.20555083",,52.53954502,13.20555083,100,Carl-Schurz-Str. Ecke Am Juliusturm,196565_west,['55'],
Hafenplatz,tram,55,196465_west,"52.542292547760184, 13.206201126048732",,,,,,,,1964441.0
Hohenzollernring,tram,55,196466_west,"52.55534806923232, 13.198657615343986",,,,,,,,1964522.0
Hakenfelde,tram,55,196467_west,"52.57886009874865, 13.210057800310379",,,,,,,,1964444.0
"Bhf. Zoo, Kantstr.",tram,75,196468_west,"52.50528855,13.33160349",,52.50528855,13.33160349,95,"Zoo, Kantstr.",196569_west,['75'],
Wilmersdorferstr.,tram,75,196469_west,"52.5066945,13.30667544",,52.5066945,13.30667544,90,Wilmersdorferstr. Ecke Kantstr.,196571_west,['75'],
Amtsgericht,tram,75,196470_west,"52.50682618,13.29739145",,52.50682618,13.29739145,100,Amtsgericht,196572_west,['75'],
Messedamm,tram,75,196471_west,"52.50641938570246, 13.280392436943686",,,,,,,,1964800.0
Theodor-Heuss-Platz,tram,75,196472_west,"52.50948066,13.2725977",,52.50948066,13.2725977,100,Theodor-Heuss-Platz,196574_west,['75'],
Preußenallee Ecke Heerstr.,tram,75,196473_west,"52.50860475001898, 13.259426682955176",,,,,,,,1964947.0
Reichssportfeldstr.,tram,75,196474_west,"52.507514731015824, 13.242086696344282",,,,,,,,1964994.0
Stößenseebrücke,tram,75,196475_west,"52.508894368243524, 13.217475972829826",,,,,,,,19641222.0
Pichelsdorferstr.,tram,75,196476_west,"52.51311471,13.19691856",,52.51311471,13.19691856,90,Pichelsdorferstr. Ecke Heerstr.,196578_west,['75'],
"Weverstr., Strassenbahnhof",tram,75,196477_west,"52.51946975407937, 13.19781896484702",,,,,,,,19641385.0
Seeburgerstr.,tram,75,196478_west,"52.52919074855153, 13.195613280527734",,,,,,,,19641142.0
Rathaus Spandau,tram,75,196479_west,"52.53488081670858, 13.199058849732252",,,,,,,,1964980.0
"Spandau, Markt",tram,75,196480_west,"52.5378435,13.20413543",,52.5378435,13.20413543,100,"Spandau, Markt",196581_west,['75'],
Hafenplatz,tram,75,196481_west,"52.54229255,13.20620113",,52.54229255,13.20620113,100,Hafenplatz,196582_west,['75'],
Hohenzollernring,tram,75,196482_west,"52.55534806923232, 13.198657615343986",,,,,,,,1964522.0
Hakenfelde,tram,75,196483_west,"52.5788601,13.2100578",,52.5788601,13.2100578,100,Hakenfelde,196584_west,['75'],
Wilmersdorferstr.,tram,76,196485_west,"52.506692000645316, 13.306692426875525",,,,,,,,19641408.0
Amtsgericht,tram,76,196486_west,"52.50682617853116, 13.297391449613752",,,,,,,,196463.0
Messedamm,tram,76,196487_west,"52.50641939,13.28039244",,52.50641939,13.28039244,100,Messedamm,196589_west,['76'],
Theodor-Heuss-Platz,tram,76,196488_west,"52.509480655270494, 13.272597697619275",,,,,,,,19641252.0
Preußenallee Ecke Heerstr.,tram,76,196489_west,"52.50859211,13.25931279",,52.50859211,13.25931279,100,Preußenallee Ecke Heerstr.,196591_west,['76'],
Reichssportfeldstr.,tram,76,196490_west,"52.50751473,13.2420867",,52.50751473,13.2420867,90,Reichssportfeldstr. Ecke Heerstr.,196592_west,['76'],
Stößenseebrücke,tram,76,196491_west,"52.50889437,13.21747597",,52.50889437,13.21747597,100,Stößenseebrücke,196593_west,['76'],
Pichelsdorferstr.,tram,76,196492_west,"52.51307046642958, 13.196871153391022",,,,,,,,1964918.0
"Weverstr., Strassenbahnhof",tram,76,196493_west,"52.51946975407937, 13.19781896484702",,,,,,,,19641385.0
Seeburgerstr.,tram,76,196494_west,"52.52914199,13.19558478",,52.52914199,13.19558478,90,Seeburgerstr. Ecke Klosterstr.,196595_west,['76'],
Rathaus Spandau,tram,76,196495_west,"52.53488082,13.19905885",,52.53488082,13.19905885,100,Rathaus Spandau,196596_west,['76'],
"Spandau, Markt",tram,76,196496_west,"52.53784349532438, 13.204135429364628",,,,,,,,19641172.0
Hafenplatz,tram,76,196497_west,"52.542292547760184, 13.206201126048732",,,,,,,,1964441.0
Hohenzollernring Ecke Schönwalderallee,tram,76,196498_west,"52.55536761,13.19859324",,52.55536761,13.19859324,89,Hohenzollernring Ecke Schönwalderstr.,196599_west,['76'],
Johannesstift,tram,76,196499_west,"52.56762417,13.19178261",,52.56762417,13.19178261,100,Johannesstift,1965100_west,['76'],
Mehringplatz,tram,95,1964100_west,"52.4979249057416, 13.39108106831653",,,,,,,,1964798.0
Zossenerstr. Ecke Blücherstr.,tram,95,1964101_west,"52.49622054069677, 13.395106811633234",,,,,,,,19641452.0
Urban-Krankenhaus,tram,95,1964103_west,"52.493469358698874, 13.406245116325284",,,,,,,,19641330.0
Hermannplatz,tram,95,1964104_west,"52.487085572732276, 13.424752445258537",,,,,,,,1964487.0
Hertzbergplatz,tram,95,1964106_west,"52.4773735457893, 13.448843811492495",,,,,,,,1964496.0
Dammweg Ecke Sonnenallee,tram,95,1964108_west,"52.4702891791955, 13.464619670250386",,,,,,,,1964252.0
Schulenburgpark,tram,95,1964109_west,"52.466660612786704, 13.470292593214328",,,,,,,,19641112.0
Lindenstr.,tram,96,1964111_west,"52.50708787,13.39827979",,52.50708787,13.39827979,90,Lindenstr. Ecke Kochstr.,1965101_west,['96'],
Mehringplatz,tram,96,1964112_west,"52.49792491,13.39108107",,52.49792491,13.39108107,100,Mehringplatz,1965102_west,['96'],
Yorckstr.,tram,96,1964113_west,"52.4928889,13.38767014",,52.4928889,13.38767014,90,Yorckstr. Ecke Mehringdamm,1965103_west,['96'],
U-Bhf. Flughafen,tram,96,1964114_west,"52.48477998,13.38596223",,52.48477998,13.38596223,100,U-Bhf. Flughafen,1965104_west,['96'],
Adolf-Scheidt-Platz,tram,96,1964115_west,"52.47819486,13.37836902",,52.47819486,13.37836902,100,Adolf-Scheidt-Platz,1965105_west,['96'],
Berlinickeplatz,tram,96,1964116_west,"52.46632968,13.37814469",,52.46632968,13.37814469,100,Berlinickeplatz,1965106_west,['96'],
Attilaplatz,tram,96,1964117_west,"52.45549834,13.37561964",,52.45549834,13.37561964,100,Attilaplatz,1965107_west,['96'],
Ringstr. Ecke Attilastr.,tram,96,1964118_west,"52.44731185,13.36209225",,52.44731185,13.36209225,100,Ringstr. Ecke Attilastr.,1965108_west,['96'],
"Lankwitz, Kirche",tram,96,1964119_west,"52.43629411,13.34577794",,52.43629411,13.34577794,100,"Lankwitz, Kirche",1965109_west,['96'],
Seydlitzstr. Ecke Kaiser-Wilhelm-Str.,tram,96,1964120_west,"52.43194429,13.33814378",,52.43194429,13.33814378,100,Seydlitzstr. Ecke Kaiser-Wilhelm-Str.,1965110_west,['96'],
Kranoldplatz,tram,96,1964121_west,"52.42782085,13.32657579",,52.42782085,13.32657579,100,Kranoldplatz,1965111_west,['96'],
Ostpreußendamm Ecke Morgensternstr.,tram,96,1964122_west,"52.42589579,13.31710731",,52.42589579,13.31710731,100,Ostpreußendamm Ecke Morgensternstr.,1965112_west,['96'],
Giesendorferstr. Ecke Ostpreußendamm,tram,96,1964123_west,"52.42400572,13.31441951",,52.42400572,13.31441951,99,Giesensdorferstr. Ecke Ostpreußendamm,1965113_west,['96'],
Wismarerstr. Ecke Ostpreußendamm,tram,96,1964124_west,"52.41786193949108, 13.305195152904869",,,,,,,,19641416.0
Goerzallee,tram,96,1964125_west,"52.41785382,13.28703404",,52.41785382,13.28703404,90,"Lichterfelde, Goerzallee",1965114_west,['96'],
Otto-Suhr-Allee Ecke Cauerstr.,autobus,A1,1964127_west,"52.51467908,13.31513688",,52.51467908,13.31513688,100,Otto-Suhr-Allee Ecke Cauerstr.,1965118_west,['A1'],
Kurfürstendamm Ecke Konstanzerstr.,autobus,A1,1964128_west,"52.500616418341856, 13.313034562695215",,,,,,,,1964657.0
U-Bhf. Fehrbellinerplatz,autobus,A1,1964129_west,"52.490390927187676, 13.31417745809863",,,,,,,,19641281.0
Detmolderstr. Ecke Blissestr.,autobus,A1,1964130_west,"52.47879433,13.32028118",,52.47879433,13.32028118,100,Detmolderstr. Ecke Blissestr.,1965123_west,['A1'],
Breitenbachplatz,autobus,A1,1964131_west,"52.467219717443385, 13.309473490660878",,,,,,,,1964184.0
Botanischer Garten,autobus,A1,1964132_west,"52.458598799471524, 13.303436055459807",,,,,,,,1964177.0
Pacelli/Theilallee,autobus,A1,1964133_west,"52.45824694622199, 13.287066614446184",,,,,,,,1964888.0
U-Bhf. Oskar-Helene-Heim,autobus,A1,1964135_west,"52.450279005868815, 13.270361987159156",,,,,,,,19641300.0
Potsdamerstr. Ecke Clayallee,autobus,A1,1964136_west,"52.43505825484917, 13.260457172181738",,,,,,,,1964928.0
Rathaus Zehlendorf,autobus,A1,1964137_west,"52.433207520111885, 13.259531923613192",,,,,,,,1964985.0
Beeskowdamm Ecke Goerzallee,autobus,A1,1964138_west,"52.40988367033843, 13.273529095833517",,,,,,,,196498.0
Wismarerstr. Ecke Lindenstr.,autobus,A1,1964139_west,"52.41787520476881, 13.305204497252257",,,,,,,,19641415.0
Bhf. Zoo,autobus,A2,1964141_west,"52.507029532025605, 13.333220118900503",,,,,,,,1964147.0
Berlinerstr. Ecke Bundesallee,autobus,A2,1964143_west,"52.48735367071187, 13.33100210517226",,,,,,,,1964111.0
Bundesplatz,autobus,A2,1964144_west,"52.478678991134835, 13.32860278411238",,,,,,,,1964209.0
Friedrich-Wilhelm-Platz,autobus,A2,1964145_west,"52.47128806242274, 13.328362126543809",,,,,,,,1964351.0
Bergstr. Ecke Bismarckstr.,autobus,A2,1964147_west,"52.45863817,13.33931462",,52.45863817,13.33931462,100,Bergstr. Ecke Bismarckstr.,1965142_west,['A2'],
Steglitzerdamm Ecke Halskestr.,autobus,A2,1964149_west,"52.45002165,13.34670705",,52.45002165,13.34670705,100,Steglitzerdamm Ecke Halskestr.,1965143_west,['A2'],
"Lankwitz, Kirche",autobus,A2,1964151_west,"52.43629186979271, 13.345745387354132",,,,,,,,1964691.0
Havensteinstr. Ecke Gallwitzstr.,autobus,A2,1964152_west,"52.43194849,13.34634331",,52.43194849,13.34634331,88,Havensteinstr. Ecke Gallwitzallee,1965146_west,['A2'],
Lerbacherweg Ecke Tautenbergstr.,autobus,A2,1964153_west,"52.42568639,13.34759454",,52.42568639,13.34759454,90,Lerbacherweg,1965147_west,['A2'],
Trippsteinstr.,autobus,A2,1964154_west,"52.41708279,13.34765431",,52.41708279,13.34765431,90,Trippsteinstrase Ecke Frankenhauserstr.,1965148_west,['A2'],
Rathaus Zehlendorf,autobus,A3,1964155_west,"52.433207520111885, 13.259531923613192",,,,,,,,1964985.0
U-Bhf. Oskar-Helene-Heim,autobus,A3,1964157_west,"52.450279005868815, 13.270361987159156",,,,,,,,19641300.0
U-Bhf. Onkel-Toms-Hütte,autobus,A3,1964158_west,"52.45007713385221, 13.251272593463492",,,,,,,,19641299.0
U-Bhf. Krumme Lanke,autobus,A3,1964159_west,"52.44361298127498, 13.241006428124264",,,,,,,,19641293.0
Bhf. Lindenthalerallee,autobus,A3,1964160_west,"52.43102570943782, 13.229881678326638",,,,,,,,1964136.0
Schopenhauer-Strasse Ecke Spanischeallee,autobus,A3,1964162_west,"52.43394923,13.21204795",,52.43394923,13.21204795,92,Schopenhauerstr. Ecke Spanischeallee,1965157_west,['A3'],
Am Beelitzhof,autobus,A3,1964164_west,"52.43221622,13.1866838",,52.43221622,13.1866838,90,Am Beelitzhof Ecke Kronprinzessinnenweg,1965159_west,['A3'],
Bhf. Wannsee,autobus,A3,1964165_west,"52.42151302311533, 13.17810256503659",,,,,,,,1964144.0
Am Großen Wannsee Ecke Königstr.,autobus,A3,1964166_west,"52.420496581432594, 13.167192967572669",,,,,,,,196448.0
Pfaueninsel-Chaussee Ecke Königstr.,autobus,A3,1964167_west,"52.4188399,13.15300828",,52.4188399,13.15300828,98,Pfaueninselchaussee Ecke Königstr.,1965162_west,['A3'],
Rathaus Wannsee,autobus,A3,1964168_west,"52.418440129670444, 13.148872492834737",,,,,,,,1964984.0
"Stölpchensee, Wilhelmplatz",autobus,A3,1964169_west,"52.41240583089011, 13.141644518533106",,,,,,,,19641220.0
"Haselhorst, Kirche",autobus,A10,1964170_west,"52.54682818,13.23706589",,52.54682818,13.23706589,100,"Haselhorst, Kirche",1965202_west,['A10'],
Paulsternstr.,autobus,A10,1964171_west,"52.54415774195884, 13.247126131065503",,,,,,,,1964909.0
Verwaltungs-Gebäude,autobus,A10,1964172_west,"52.53706333,13.26228517",,52.53706333,13.26228517,94,Verwaltungs-Gebaüde,1965204_west,['A10'],
Spandauerdamm,autobus,A10,1964173_west,"52.51838420899177, 13.280076964056246",,,,,,,,19641173.0
U-Bhf. Kaiserdamm,autobus,A10,1964174_west,"52.50999451351762, 13.28180313022396",,,,,,,,19641290.0
Amtsgericht,autobus,A10,1964175_west,"52.50682617853116, 13.297391449613752",,,,,,,,196462.0
Kurfürstendamm Ecke Joachimsthalerstr.,autobus,A10,1964176_west,"52.503834218422035, 13.331254318798976",,,,,,,,1964656.0
Henriettenplatz,autobus,A10,1964177_west,"52.49701780222877, 13.290339505649852",,,,,,,,1964485.0
Elsterplatz,autobus,A10,1964178_west,"52.47977982878401, 13.285507613099716",,,,,,,,1964299.0
Hundekehlestr.,autobus,A10,1964179_west,"52.47548162130776, 13.290308772196097",,,,,,,,1964537.0
U-Bhf. Thielplatz,autobus,A10,1964181_west,"52.45104521,13.28173642",,52.45104521,13.28173642,100,U-Bhf. Thielplatz,1965215_west,['A10'],
Dahlemerweg,autobus,A10,1964182_west,"52.44179805042347, 13.282699371472702",,,,,,,,1964247.0
Teltowerdamm,autobus,A10,1964183_west,"52.43504474561002, 13.2604425311939",,,,,,,,19641240.0
Behring-Krankenhaus,autobus,A10,1964184_west,"52.42410895,13.25176454",,52.42410895,13.25176454,100,Behring-Krankenhaus,1965220_west,['A10'],
Lupsteinerweg,autobus,A10,1964185_west,"52.40951067,13.25160884",,52.40951067,13.25160884,90,Lupsteinerweg Ecke Sachtlebenstr.,1965221_west,['A10'],
Saargemünderstr.,autobus,A11,1964186_west,"52.45093246,13.27071876",,52.45093246,13.27071876,90,Saargemünderstr. Ecke Clayallee,1965222_west,['A11'],
U-Bhf. Oskar-Helene-Heim,autobus,A11,1964187_west,"52.450279005868815, 13.270361987159156",,,,,,,,19641300.0
Ihnestr.,autobus,A11,1964188_west,"52.4483117,13.27633996",,52.4483117,13.27633996,90,Ihnestr. Ecke Garystr.,1965224_west,['A11'],
Corrensplatz,autobus,A11,1964189_west,"52.44601401,13.28426468",,52.44601401,13.28426468,100,Corrensplatz,1965225_west,['A11'],
Unter Den Eichen Ecke Habelschwerdter-Allee,autobus,A11,1964190_west,"52.44574706,13.29356835",,52.44574706,13.29356835,96,Unter den Eichen Ecke Habelschwendterallee,1965226_west,['A11'],
Bhf. Lichterfelde-West,autobus,A11,1964191_west,"52.44397675869793, 13.295628699942629",,,,,,,,1964135.0
Ringstr.,autobus,A11,1964192_west,"52.439772810020266, 13.300175076283422",,,,,,,,19641011.0
Wiesenbaude,autobus,A11,1964193_west,"52.430495242672045, 13.31180861060395",,,,,,,,19641392.0
Ostpreußendamm Ecke Wilhelmstr.,autobus,A11,1964194_west,"52.43080142626057, 13.317503639070004","nan, nan, nan",,,,,,,1964883.0
Marienstr.,autobus,A11,1964195_west,"52.42946322,13.32166308",,52.42946322,13.32166308,90,Marienstr. Ecke Königsbergerstr.,1965231_west,['A11'],
Kranoldplatz,autobus,A11,1964197_west,"52.42777476,13.32647358",,52.42777476,13.32647358,100,Kranoldplatz,1965233_west,['A11'],
Langestr.,autobus,A11,1964198_west,"52.42401446,13.33313155",,52.42401446,13.33313155,90,Langestr. Ecke Lorenzstr.,1965234_west,['A11'],
Hildburghauserstr.,autobus,A11,1964199_west,"52.41661432,13.33818246",,52.41661432,13.33818246,90,Hildburghauserstr. Ecke Mariannenstr.,1965235_west,['A11'],
Stadtilmerweg,autobus,A11,1964200_west,"52.41507278,13.34597485",,52.41507278,13.34597485,100,Stadtilmerweg,1965236_west,['A11'],
"Marienfelde, Alt-Marienfelde",autobus,A11,1964201_west,"52.41210781,13.3627336",,52.41210781,13.3627336,98,"Marienelde, Alt-Marienfelde",1965237_west,['A11'],
Gartenstr. Ecke Bernauerstr.,autobus,A12,1964202_west,"52.53343698,13.38751889",,52.53343698,13.38751889,100,Gartenstr. Ecke Bernauerstr.,1965238_west,['A12'],
Grenzstr.,autobus,A12,1964203_west,"52.541822798579034, 13.378147647725354",,,,,,,,1964406.0
U-Bhf. Leopold-Platz,autobus,A12,1964204_west,"52.54640033,13.3590968",,52.54640033,13.3590968,100,U-Bhf. Leopold-Platz,1965240_west,['A12'],
U-Bhf. Seestr.,autobus,A12,1964205_west,"52.550315408708514, 13.352298502985231",,,,,,,,19641309.0
Bristolstr.,autobus,A12,1964206_west,"52.55830889,13.35117448",,52.55830889,13.35117448,90,Bristolstr. Ecke Barfusstr.,1965242_west,['A12'],
Emmentalerstr.,autobus,A12,1964207_west,"52.5675354709663, 13.351240165364471",,,,,,,,1964301.0
Lindauerstr.,autobus,A12,1964208_west,"52.573378512244474, 13.359026284637647",,,,,,,,1964725.0
Eichborndamm Ecke Alt-Wittenau,autobus,A12,1964210_west,"52.591828552976516, 13.32639160518794",,,,,,,,1964287.0
Cyclopstr.,autobus,A12,1964211_west,"52.60208376924525, 13.32483857919441",,,,,,,,1964242.0
Zabel-Krüger-Damm,autobus,A12,1964212_west,"52.60786610541416, 13.323845802997752",,,,,,,,19641435.0
Almutstr. Ecke Berlinerstr.,autobus,A12,1964213_west,"52.6148697,13.31706314",,52.6148697,13.31706314,100,Almutstr. Ecke Berlinerstr.,1965249_west,['A12'],
Hermsdorferdamm Ecke Berlinerstr.,autobus,A12,1964214_west,"52.62241093,13.31288776",,52.62241093,13.31288776,100,Hermsdorferdamm Ecke Berlinerstr.,1965250_west,['A12'],
Zeltingerplatz,autobus,A12,1964215_west,"52.63352257,13.29039813",,52.63352257,13.29039813,93,Zeitingerplatz,1965251_west,['A12'],
Donnersmarckplatz,autobus,A12,1964216_west,"52.62982465046043, 13.28047497184123",,,,,,,,1964268.0
Leopoldplatz,autobus,A12S,1964218_west,"52.54647397037027, 13.359233475022176",,,,,,,,1964708.0
U-Bhf. Seestr.,autobus,A12S,1964219_west,"52.550315408708514, 13.352298502985231",,,,,,,,19641309.0
Barfusstr.,autobus,A12S,1964220_west,"52.558311542070335, 13.351189355013176",,,,,,,,196490.0
Emmentalerstr.,autobus,A12S,1964221_west,"52.5675354709663, 13.351240165364471",,,,,,,,1964301.0
Lindauerstr.,autobus,A12S,1964222_west,"52.573378512244474, 13.359026284637647",,,,,,,,1964725.0
Oranienburgerstr.,autobus,A12S,1964223_west,"52.59544415987805, 13.333037366087483",,,,,,,,1964861.0
Rathaus Reinickendorf,autobus,A12S,1964224_west,"52.59178549505881, 13.326377240287412",,,,,,,,1964977.0
Cyclopstr.,autobus,A12S,1964225_west,"52.60208376924525, 13.32483857919441",,,,,,,,1964242.0
Zabel-Krüger-Damm,autobus,A12S,1964226_west,"52.60786610541416, 13.323845802997752",,,,,,,,19641435.0
Schildowerstr.,autobus,A12S,1964227_west,"52.61770172749746, 13.315782291969848",,,,,,,,19641094.0
Oswinsteig,autobus,A12S,1964229_west,"52.62619860014992, 13.31169555587102",,,,,,,,1964884.0
Hohefeldstr.,autobus,A12S,1964230_west,"52.62626276180117, 13.299374608466762",,,,,,,,1964510.0
Im Fischgrund,autobus,A12S,1964231_west,"52.62964256060701, 13.294346609144698",,,,,,,,1964544.0
Zeltingerplatz,autobus,A12S,1964232_west,"52.633501673257435, 13.290447049862035",,,,,,,,19641439.0
Alt-Heiligensee,autobus,A13,1964233_west,"52.60616921042186, 13.210646859320935",,,,,,,,196424.0
Am Dachsbau,autobus,A13,1964234_west,"52.60656467,13.2298245",,52.60656467,13.2298245,90,Am Dachsbau Ecke Heiligenseestr.,1965255_west,['A13'],
Gabelung,autobus,A13,1964235_west,"52.59988613,13.25204129",,52.59988613,13.25204129,100,Gabelung,1965256_west,['A13'],
U-Bhf. Tegel,autobus,A13,1964237_west,"52.589503132547385, 13.283630715732999",,,,,,,,19641313.0
Bernauerstr.,autobus,A13,1964238_west,"52.57629905299874, 13.294692761311245",,,,,,,,1964117.0
Krankenhaus Tegel-Süd,autobus,A13,1964239_west,"52.57573398,13.27874933",,52.57573398,13.27874933,100,Krankenhaus Tegel-Süd,1965260_west,['A13'],
Strasse Nach Saatwinkel,autobus,A13,1964240_west,"52.56775987,13.25791205",,52.56775987,13.25791205,90,Strasse nach Saatwinkel Ecke Bernauerstr.,1965261_west,['A13'],
Paulsternstr.,autobus,A13,1964241_west,"52.54415774195884, 13.247126131065503",,,,,,,,1964909.0
Daumstr.,autobus,A13,1964242_west,"52.53927882,13.23206301",,52.53927882,13.23206301,90,Daumstr. Ecke Am Juliusturm,1965263_west,['A13'],
Rathaus Spandau,autobus,A13,1964244_west,"52.534578361518356, 13.199490942441287",,,,,,,,1964979.0
Päwesinerweg,autobus,A13,1964246_west,"52.52631959,13.18186001",,52.52631959,13.18186001,90,Päwesinerweg Ecke Seeburgerstr.,1965267_west,['A13'],
Heerstr. Ecke Wilhelmstr.,autobus,A13,1964247_west,"52.51662458,13.1790223",,52.51662458,13.1790223,100,Heerstr. Ecke Wilhelmstr.,1965268_west,['A13'],
Weinmeisterhornweg,autobus,A13,1964248_west,"52.50924681744358, 13.180314851039075",,,,,,,,19641370.0
Alt-Heiligensee,autobus,A14,1964249_west,"52.60174637,13.21022269",,52.60174637,13.21022269,90,"Heiligensee, Alt-Heiligensee",1965270_west,['A14'],
Mattenbuder Pfadchaussee Ecke Hennigsdorferstr.,autobus,A14,1964250_west,"52.61696711,13.22053385",,52.61696711,13.22053385,89,Mattenbuder Pfad Ecke Henningsdorferstr.,1965271_west,['A14'],
Ruppinerchaussee Ecke Hennigsdorferstr.,autobus,A14,1964251_west,"52.626468,13.22755031",,52.626468,13.22755031,99,Ruppinerchaussee Ecke Henningsdorferstr.,1965272_west,['A14'],
Ruppinerchaussee & Schulzendorferstr.,autobus,A14,1964252_west,"52.61441645,13.24489068",,52.61441645,13.24489068,95,Schulzendorferstr. Ecke Ruppinerchaussee,1965273_west,['A14'],
U-Bhf. Tegel,autobus,A14,1964254_west,"52.589503132547385, 13.283630715732999",,,,,,,,19641313.0
Ziekowstr. Ecke Gorkistr.,autobus,A14,1964255_west,"52.59058636,13.29210637",,52.59058636,13.29210637,100,Ziekowstr. Ecke Gorkistr.,1965276_west,['A14'],
Alt-Wittenau Ecke Eichborndamm,autobus,A14,1964256_west,"52.59187977745068, 13.32645957736823",,,,,,,,196438.0
Tessenowstr. Ecke Roedernallee,autobus,A14,1964257_west,"52.58314996,13.34369472",,52.58314996,13.34369472,100,Tessenowstr. Ecke Roedernallee,1965278_west,['A14'],
Aroserallee,autobus,A14,1964258_west,"52.57376245122369, 13.351970705456408",,,,,,,,196473.0
Kopenhagenerstr.,autobus,A14,1964259_west,"52.574260461143574, 13.359154742049908",,,,,,,,1964628.0
Pankowerallee,autobus,A14,1964260_west,"52.564667911185886, 13.378087639243981",,,,,,,,1964895.0
Pankstr.,autobus,A14,1964261_west,"52.55229407958284, 13.38145934777098",,,,,,,,1964898.0
U-Bhf. Gesundbrunnen,autobus,A14,1964262_west,"52.548660755358114, 13.387873629581087",,,,,,,,19641285.0
Rügenerstr.,autobus,A14,1964263_west,"52.544791277773946, 13.391067616355128",,,,,,,,19641039.0
Lübarserstr. Ecke Eichhorsterweg,autobus,A15,1964264_west,"52.60279735,13.33575475",,52.60279735,13.33575475,98,Lübarserstr. Ecke Eichorsterweg,1965287_west,['A15'],
Cyclopstr. Ecke Oranienburgerstr.,autobus,A15,1964265_west,"52.59750985,13.33255807",,52.59750985,13.33255807,100,Cyclopstr. Ecke Oranienburgerstr.,1965288_west,['A15'],
Alt-Wittenau Ecke Eichborndamm,autobus,A15,1964266_west,"52.59187977745068, 13.32645957736823",,,,,,,,196438.0
Holzhauserstr.,autobus,A15,1964268_west,"52.58199553,13.30545455",,52.58199553,13.30545455,90,Holzhauserstr. Ecke Breitenbachstr.,1965291_west,['A15'],
Borsigwalderweg,autobus,A15,1964269_west,"52.58481078,13.2979383",,52.58481078,13.2979383,90,Borsigwalderweg Ecke Ecke Conradstr.,1965292_west,['A15'],
Gorkistr.,autobus,A15,1964270_west,"52.59056318,13.29198781",,52.59056318,13.29198781,90,Gorkistr. Ecke Ziekowstr.,1965293_west,['A15'],
U-Bhf. Tegel,autobus,A15,1964271_west,"52.589503132547385, 13.283630715732999",,,,,,,,19641313.0
Hermsdorferdamm Ecke Karolinenstr.,autobus,A15,1964272_west,"52.5999637,13.28132933",,52.5999637,13.28132933,100,Hermsdorferdamm Ecke Karolinenstr.,1965295_west,['A15'],
Schulzendorferstr.,autobus,A15,1964273_west,"52.61057476279662, 13.295480649416259",,,,,,,,19641115.0
Bhf. Hermsdorf,autobus,A15,1964274_west,"52.61953939324446, 13.30416069232153",,,,,,,,1964129.0
Dominikus-Krankenhaus,autobus,A15,1964275_west,"52.62619652,13.29449567",,52.62619652,13.29449567,100,Dominikus Krankenhaus,1965297_west,['A15'],
Donnersmarckplatz,autobus,A15,1964276_west,"52.6301505,13.28045133",,52.6301505,13.28045133,100,Donnersmarckplatz,1965298_west,['A15'],
Zeltingerplatz,autobus,A15,1964277_west,"52.633501673257435, 13.290447049862035",,,,,,,,19641439.0
Am Pilz,autobus,A15,1964278_west,"52.64251497,13.30090805",,52.64251497,13.30090805,100,Am Pilz,1965300_west,['A15'],
"Frohnau, Invalidensiedlung",autobus,A15,1964279_west,"52.65584642,13.29035793",,52.65584642,13.29035793,90,Invalidensiedlung,1965301_west,['A15'],
Osloerstr.,autobus,A16,1964280_west,"52.55587669510938, 13.38424421097371",,,,,,,,1964870.0
Louise-Schroeder-Platz,autobus,A16,1964281_west,"52.55713317342601, 13.365513694540711",,,,,,,,1964735.0
U-Bhf. Seestr.,autobus,A16,1964282_west,"52.550315408708514, 13.352298502985231",,,,,,,,19641309.0
Virchow-Krankenhaus,autobus,A16,1964283_west,"52.54371513062133, 13.339317916518894",,,,,,,,19641341.0
Fennstr. Ecke Tegelerstr.,autobus,A16,1964284_west,"52.53794452,13.36161806",,52.53794452,13.36161806,100,Fennstr. Ecke Tegelerstr.,1965306_west,['A16'],
Wilsnackerstr. Ecke Turmstr.,autobus,A16,1964285_west,"52.52642382690729, 13.351705419616707",,,,,,,,19641412.0
Hansaplatz,autobus,A16,1964286_west,"52.5179343319099, 13.342038193257153",,,,,,,,1964452.0
Großer Stern,autobus,A16,1964287_west,"52.514524715463295, 13.349933192922938",,,,,,,,1964413.0
Lützowplatz,autobus,A16,1964288_west,"52.505029017314186, 13.351822867208506",,,,,,,,1964749.0
Nollendorfplatz,autobus,A16,1964289_west,"52.49968844,13.35308644",,52.49968844,13.35308644,100,Nollendorfplatz,1965311_west,['A16'],
Rathaus Schöneberg,autobus,A16,1964290_west,"52.48515473887597, 13.345086596743203",,,,,,,,1964978.0
Innsbruckerplatz,autobus,A16,1964291_west,"52.478545508234895, 13.34405868604117",,,,,,,,1964549.0
Bundesplatz,autobus,A16,1964292_west,"52.478678991134835, 13.32860278411238",,,,,,,,1964209.0
Wiesbadenerstr.,autobus,A16,1964293_west,"52.47164317,13.31958712",,52.47164317,13.31958712,90,Wiesbadenerstr. Ecke Südwestkorso,1965315_west,['A16'],
Breitenbachplatz,autobus,A16,1964294_west,"52.467219717443385, 13.309473490660878",,,,,,,,1964184.0
Englerallee,autobus,A16,1964295_west,"52.46361923,13.30489502",,52.46361923,13.30489502,100,Englerallee,1965317_west,['A16'],
"Grunewald, Fontanestr.",autobus,A17,1964296_west,"52.48728923,13.26380017",,52.48728923,13.26380017,100,"Grunewald, Fontanestr.",1965318_west,['A17'],
Hagenplatz,autobus,A17,1964297_west,"52.483382973651, 13.265818700272884",,,,,,,,1964442.0
Roseneck,autobus,A17,1964298_west,"52.47580089902253, 13.282411270445099",,,,,,,,19641020.0
Warnemünderstr.,autobus,A17,1964299_west,"52.47539404289092, 13.290313295533931",,,,,,,,19641358.0
U-Bhf. Rüdesheimerplatz,autobus,A17,1964300_west,"52.47292404,13.31439017",,52.47292404,13.31439017,100,U-Bhf. Rüdesheimerplatz,1965322_west,['A17'],
Friedrich-Wilhelm-Platz,autobus,A17,1964301_west,"52.47128806242274, 13.328362126543809",,,,,,,,1964351.0
Bundesallee Ecke Rheinstr.,autobus,A17,1964302_west,"52.46493423553767, 13.328438507021911",,,,,,,,1964207.0
Rathaus Steglitz,autobus,A17,1964303_west,"52.45563377647203, 13.321050784344678",,,,,,,,1964981.0
Stadtpark,autobus,A17,1964304_west,"52.44890556,13.33882767",,52.44890556,13.33882767,100,Stadtpark,1965326_west,['A17'],
Leonorenstr.,autobus,A17,1964305_west,"52.44442573429372, 13.338912596810317",,,,,,,,1964705.0
Stadion Lichterfelde,autobus,A17,1964306_west,"52.43867923,13.32505044",,52.43867923,13.32505044,100,Stadion Lichterfelde,1965328_west,['A17'],
Ostpreußendamm Ecke Wilhelmstr.,autobus,A17,1964307_west,"52.43080142626057, 13.317503639070004","nan, nan, nan",,,,,,,1964883.0
Oberhoferplatz,autobus,A17,1964309_west,"52.42410259117963, 13.328170432694991",,,,,,,,1964847.0
Saaleckplatz,autobus,A17,1964310_west,"52.41629158,13.32394196",,52.41629158,13.32394196,100,Saaleckplatz,1965332_west,['A17'],
Saargemünderstr.,autobus,A18,1964311_west,"52.450918082089416, 13.270922488527036",nan+ nan,,,,,,,19641081.0
U-Bhf. Oskar-Helene-Heim,autobus,A18,1964312_west,"52.450279005868815, 13.270361987159156",,,,,,,,19641300.0
Scharfestr.,autobus,A18,1964314_west,"52.43826689,13.26228604",,52.43826689,13.26228604,90,Scharfestr. Ecke Clayallee,1965336_west,['A18'],
Potsdamerstr. Ecke Berlinerstr.,autobus,A18,1964315_west,"52.435017683084915, 13.260481422857149",,,,,,,,1964927.0
Mittelstr.,autobus,A18,1964316_west,"52.43473692,13.24926053",,52.43473692,13.24926053,90,Mittelstr. Ecke Potsdamerstr.,1965338_west,['A18'],
Wolzogenstr.,autobus,A18,1964317_west,"52.43228424,13.23570972",,52.43228424,13.23570972,90,Wolzogenstr. Ecke Potsdamerchaussee,1965339_west,['A18'],
Benschallee,autobus,A18,1964318_west,"52.42959261918116, 13.22400013419735",,,,,,,,1964102.0
Waldfriedhof,autobus,A18,1964319_west,"52.42599573,13.20924605",,52.42599573,13.20924605,100,Waldfriedhof,1965341_west,['A18'],
Quantzstr.,autobus,A18,1964320_west,"52.42315874,13.20222949",,52.42315874,13.20222949,90,Quantzstr. Ecke Potsdamerchaussee,1965342_west,['A18'],
Kronprinzessinenweg,autobus,A18,1964321_west,"52.41994047416807, 13.17530094854083",,,,,,,,1964648.0
Am Grossen Wannsee,autobus,A18,1964322_west,"52.420496581432594, 13.167192967572669",,,,,,,,196446.0
Pfaueninsel-Chaussee,autobus,A18,1964323_west,"52.41883762088876, 13.153039190703318",,,,,,,,1964914.0
Rathaus Wannsee,autobus,A18,1964324_west,"52.418440129670444, 13.148872492834737",,,,,,,,1964984.0
Stölpchensee,autobus,A18,1964325_west,"52.40943024,13.14381795",,52.40943024,13.14381795,100,Stölpchensee,1965347_west,['A18'],
Kohlhasenbrück,autobus,A18,1964326_west,"52.399386850068794, 13.141401147548066",,,,,,,,1964625.0
Roseneck,autobus,A19,1964327_west,"52.47580089902253, 13.282411270445099",,,,,,,,19641020.0
Hagenplatz,autobus,A19,1964328_west,"52.48338297,13.2658187",,52.48338297,13.2658187,100,Hagenplatz,1965350_west,['A19'],
Erdenerstr.,autobus,A19,1964329_west,"52.49053761,13.27635675",,52.49053761,13.27635675,90,Erdenerstr. Ecke Königsallee,1965351_west,['A19'],
Henriettenplatz,autobus,A19,1964330_west,"52.49701780222877, 13.290339505649852",,,,,,,,1964485.0
Wilmersdorferstr.,autobus,A19,1964331_west,"52.499967660537735, 13.306987838785277",,,,,,,,19641407.0
Olivaerplatz,autobus,A19,1964332_west,"52.50060275704949, 13.313110622018645",,,,,,,,1964854.0
Joachimstalerstr. Ecke Kurfürstendamm,autobus,A19,1964333_west,"52.503848526250394, 13.331282191682005",,,,,,,,1964562.0
Breitscheidplatz,autobus,A19,1964334_west,"52.504438063129996, 13.33564615707506",,,,,,,,1964187.0
Wittenbergplatz,autobus,A19,1964335_west,"52.50188939146253, 13.342697883756577",,,,,,,,19641420.0
Nollendorfplatz,autobus,A19,1964336_west,"52.49968843634292, 13.353086438468269",,,,,,,,1964839.0
Bautzenerstr. Ecke Yorckstr.,autobus,A19,1964338_west,"52.49266114,13.37093569",,52.49266114,13.37093569,100,Bautzenerstr. Ecke Yorckstr.,1965360_west,['A19'],
Katzbachstr.,autobus,A19,1964339_west,"52.491584280543336, 13.376725460315825",,,,,,,,1964595.0
Mehringdamm,autobus,A19,1964340_west,"52.49293918,13.3877203",,52.49293918,13.3877203,100,Mehringdamm,1965362_west,['A19'],
Flughafen,autobus,A19,1964341_west,"52.470965141866394, 13.385641462324475",,,,,,,,1964332.0
Tegelort,autobus,A20,1964342_west,"52.57056042,13.23019256",,52.57056042,13.23019256,90,"Tegelort, Almazeile",1965364_west,['A20'],
Gerlindeweg Ecke Friederikestr.,autobus,A20,1964343_west,"52.57564386,13.22896485",,52.57564386,13.22896485,100,Gerlindeweg Ecke Friederikestr.,1965365_west,['A20'],
Falkenplatz,autobus,A20,1964344_west,"52.58490938,13.22761993",,52.58490938,13.22761993,100,Falkenplatz,1965366_west,['A20'],
Mühlenstr.,autobus,A20,1964345_west,"52.59350028783369, 13.248862690560857",,,,,,,,1964821.0
Heiligenseestr.,autobus,A20,1964346_west,"52.59796193636089, 13.275098894138587",,,,,,,,1964475.0
Karolinenstr.,autobus,A20,1964347_west,"52.59678679,13.27666137",,52.59678679,13.27666137,90,Karolinenstr. Ecke Hermsdorferdamm,1965369_west,['A20'],
U-Bhf. Tegel,autobus,A20,1964348_west,"52.58950313,13.28363072",,52.58950313,13.28363072,100,U-Bhf. Tegel,1965370_west,['A20'],
Hatzfeldtallee,autobus,A20,1964349_west,"52.59193118,13.28613645",,52.59193118,13.28613645,90,Hatzfeldtallee Ecke Buddestr.,1965371_west,['A20'],
Martin-Luther-Friedhof,autobus,A20,1964350_west,"52.59837048,13.29834314",,52.59837048,13.29834314,89,Martin-Luther-Friedhaus,1965372_west,['A20'],
Freie Scholle,autobus,A20,1964351_west,"52.59985154,13.30173616",,52.59985154,13.30173616,100,Freie Scholle,1965373_west,['A20'],
Waldhornstr.,autobus,A20,1964352_west,"52.6028606,13.30810524",,52.6028606,13.30810524,90,Waldhornstr. Ecke Waidmannslusterdamm,1965374_west,['A20'],
Cyclopstr. Ecke Waidmannslusterdamm,autobus,A20,1964353_west,"52.6070063,13.31976899",,52.6070063,13.31976899,100,Cyclopstr. Ecke Waidmannslusterdamm,1965375_west,['A20'],
Oraniendamm Ecke Zabel-Krüger-Damm,autobus,A20,1964354_west,"52.60786095340787, 13.323810166873162",,,,,,,,1964865.0
Am Vierrutenberg Ecke Zabel-Krüger-Damm,autobus,A20,1964355_west,"52.61351518,13.34383031",,52.61351518,13.34383031,100,Am Vierrutenberg Ecke Zabel-Krüger-Damm,1965377_west,['A20'],
"Lübars, Dorfaue",autobus,A20,1964356_west,"52.62036688,13.35560142",,52.62036688,13.35560142,96,Lübars Dorfaue,1965378_west,['A20'],
Wentowsteig,autobus,A21,1964357_west,"52.59669616,13.35675334",,52.59669616,13.35675334,90,Wilhelmsruherdamm/Wentowsteig,1965379_west,['A21'],
Oranienburgerstr. Ecke Wilhelmsruherdamm,autobus,A21,1964358_west,"52.59547232,13.33299542",,52.59547232,13.33299542,100,Oranienburgerstr. Ecke Wilhelmsruherdamm,1965380_west,['A21'],
Alt-Wittenau Ecke Eichborndamm,autobus,A21,1964359_west,"52.59187978,13.32645958",,52.59187978,13.32645958,100,Alt-Wittenau Ecke Eichborndamm,1965381_west,['A21'],
Kienhorststr.,autobus,A21,1964360_west,"52.574659559210936, 13.31439977436834",,,,,,,,1964600.0
Scharnweberstr.,autobus,A21,1964361_west,"52.567891242257375, 13.31193029694028",,,,,,,,19641092.0
Kurt-Schumacher-Platz,autobus,A21,1964362_west,"52.563438249109005, 13.32713028618972",,,,,,,,1964666.0
Kaserne Südtor,autobus,A21,1964363_west,"52.5568597,13.30843424",,52.5568597,13.30843424,100,Kaserne Südtor,1965385_west,['A21'],
Heckerdamm,autobus,A21,1964364_west,"52.53962816572025, 13.295048454368684",,,,,,,,1964466.0
Olbersstr.,autobus,A21,1964365_west,"52.52929598515582, 13.296339498694374",,,,,,,,1964853.0
Luisenplatz,autobus,A21,1964366_west,"52.52005408723936, 13.2995133852506",,,,,,,,1964739.0
Kantstr.,autobus,A21,1964367_west,"52.50678795,13.30232027",,52.50678795,13.30232027,100,Kantstr.,1965389_west,['A21'],
Stuttgarterplatz,autobus,A21,1964368_west,"52.50551610729052, 13.302923303561508",,,,,,,,19641218.0
Amtsgericht Charlottenburg,autobus,A21,1964369_west,"52.50571853839105, 13.295347400894903",,,,,,,,196464.0
Kurfürstendamm Ecke Joachimsthalerstr.,autobus,A21,1964370_west,"52.503834218422035, 13.331254318798976",,,,,,,,1964656.0
Bhf. Hohenzollerndamm,autobus,A21,1964371_west,"52.488411167563925, 13.302041677512456",,,,,,,,1964130.0
U-Bhf. Fehrbellinerplatz,autobus,A21,1964372_west,"52.490390927187676, 13.31417745809863",,,,,,,,19641281.0
Wiebestr.,autobus,A24,1964373_west,"52.53119512537686, 13.319063771537584",,,,,,,,19641387.0
Gotzkowskystr.,autobus,A24,1964374_west,"52.527187214573765, 13.330550930001301",,,,,,,,1964397.0
Stromstr.,autobus,A24,1964375_west,"52.52631690374401, 13.343146315837002",,,,,,,,19641213.0
Rathenowerstr.,autobus,A24,1964376_west,"52.52673250798154, 13.355275614926985",,,,,,,,1964987.0
Alt-Moabit,autobus,A24,1964377_west,"52.524078460891005, 13.357069143313803",,,,,,,,196432.0
John-Foster-Dulles-Allee,autobus,A24,1964378_west,"52.517085214536316, 13.354609198247653",,,,,,,,1964568.0
Tiergartenstr.,autobus,A24,1964379_west,"52.50960312444174, 13.351320889801638",,,,,,,,19641262.0
Lützowplatz,autobus,A24,1964380_west,"52.505029017314186, 13.351822867208506",,,,,,,,1964749.0
Potsdamerstr. Ecke Schöneberger Ufer,autobus,A24,1964381_west,"52.50581887,13.3682481",,52.50581887,13.3682481,100,Potsdamerstr. Ecke Schöneberger Ufer,1965403_west,['A24'],
Hafenplatz,autobus,A24,1964382_west,"52.50392083524772, 13.375479875476426",,,,,,,,1964439.0
Askanischerplatz,autobus,A24,1964383_west,"52.50447897041404, 13.382295467838158",,,,,,,,196476.0
U-Bhf. Hallesches Tor,autobus,A24,1964384_west,"52.49791002,13.39130767",,52.49791002,13.39130767,100,U-Bhf. Hallesches Tor,1965406_west,['A24'],
Alexandrinenstr. Ecke Neuenburgerstr.,autobus,A24,1964385_west,"52.4994645,13.40038294",,52.4994645,13.40038294,100,Alexandrinenstr. Ecke Neuenburgerstr.,1965407_west,['A24'],
Gneisenaustr. Ecke Zossenerstr.,autobus,A24,1964386_west,"52.4915662,13.39439538",,52.4915662,13.39439538,100,Gneisenaustr. Ecke Zossenerstr.,1965408_west,['A24'],
Columbiadamm Ecke Friesenstr.,autobus,A24,1964387_west,"52.48396787,13.39436897",,52.48396787,13.39436897,100,Columbiadamm Ecke Friesenstr.,1965409_west,['A24'],
Flughafen,autobus,A24,1964388_west,"52.48430845,13.38587202",,52.48430845,13.38587202,90,Flughafen Tempelhof,1965410_west,['A24'],
Unionplatz,autobus,A25,1964389_west,"52.533059397499464, 13.337278814540305",,,,,,,,19641327.0
Gotzkowskybrücke,autobus,A25,1964390_west,"52.52381238362036, 13.329729120795239",,,,,,,,1964396.0
Hansaplatz,autobus,A25,1964391_west,"52.51793433,13.34203819",,52.51793433,13.34203819,100,Hansaplatz,1965413_west,['A25'],
U-Bhf. Ernst-Reuter-Platz,autobus,A25,1964392_west,"52.51164603099566, 13.322290858670174",,,,,,,,19641279.0
Bhf. Zoo,autobus,A25,1964393_west,"52.507029532025605, 13.333220118900503",,,,,,,,1964147.0
Pariserstr. Ecke Joachimstalerstr.,autobus,A25,1964394_west,"52.496062363528644, 13.330541387313303",,,,,,,,1964906.0
Berlinerstr. Ecke Bundesallee,autobus,A25,1964395_west,"52.48735367071187, 13.33100210517226",,,,,,,,1964111.0
Bundesplatz,autobus,A25,1964396_west,"52.478678991134835, 13.32860278411238",,,,,,,,1964209.0
Kaisereiche,autobus,A25,1964397_west,"52.46896806014468, 13.332614886077709",,,,,,,,1964577.0
Grazerplatz,autobus,A25,1964398_west,"52.46731774,13.34764981",,52.46731774,13.34764981,100,Grazerplatz,1965422_west,['A25'],
Attilaplatz,autobus,A25,1964399_west,"52.45590179888225, 13.376512495751076",,,,,,,,196477.0
Tempelhoferdamm Ecke Ordensmeisterstr.,autobus,A25,1964400_west,"52.45579861,13.38396352",,52.45579861,13.38396352,100,Tempelhoferdamm Ecke Ordensmeisterstr.,1965424_west,['A25'],
Britzerdamm Ecke Tempelhoferweg,autobus,A25,1964402_west,"52.44889761,13.43620385",,52.44889761,13.43620385,100,Britzerdamm Ecke Tempelhoferweg,1965426_west,['A25'],
U-Bhf. Parchimerallee,autobus,A25,1964403_west,"52.44570961,13.44989755",,52.44570961,13.44989755,100,U-Bhf. Parchimerallee,1965427_west,['A25'],
Loewenhardtdamm,autobus,A28,1964405_west,"52.4816579,13.37445329",,52.4816579,13.37445329,100,Loewenhardtdamm,1965429_west,['A28'],
Dudenstr.,autobus,A28,1964406_west,"52.48503402,13.37659343",,52.48503402,13.37659343,90,Dudenstr. Ecke Katzbachstr.,1965430_west,['A28'],
Kreuzbergstr.,autobus,A28,1964407_west,"52.48940625,13.37669525",,52.48940625,13.37669525,90,Kreuzbergstr. Ecke Katzbachstr.,1965431_west,['A28'],
Yorckstr.,autobus,A28,1964408_west,"52.49358813377981, 13.384967556749217",,,,,,,,19641433.0
Mehringdamm,autobus,A28,1964409_west,"52.49293917608851, 13.38772030059097",,,,,,,,1964795.0
Zossenerstr.,autobus,A28,1964410_west,"52.49160676567746, 13.394443897793668",,,,,,,,19641451.0
Südstern,autobus,A28,1964411_west,"52.48895865,13.4078138",,52.48895865,13.4078138,100,Südstern,1965435_west,['A28'],
Urban-Krankenhaus,autobus,A28,1964412_west,"52.493469358698874, 13.406245116325284",,,,,,,,19641329.0
U-Bhf. Prinzenstr.,autobus,A28,1964413_west,"52.49844154,13.40664384",,52.49844154,13.40664384,100,U-Bhf. Prinzenstr.,1965437_west,['A28'],
U-Bhf Kottbusser Tor,autobus,A28,1964414_west,"52.499051258453434, 13.418359009880978",,,,,,,,19641274.0
Oranienstr.,autobus,A28,1964415_west,"52.501310708954215, 13.419224612073883",,,,,,,,1964867.0
Waldemarstr.,autobus,A28,1964416_west,"52.50326279588436, 13.420631417701001",,,,,,,,19641345.0
Mariannenplatz,autobus,A28,1964417_west,"52.50228674,13.42408623",,52.50228674,13.42408623,100,Mariannenplatz,1965440_west,['A28'],
Manteuffelstr. Ecke Köpenickerstr.,autobus,A28,1964418_west,"52.50575155,13.43197089",,52.50575155,13.43197089,93,Köpenickerstr. Ecke Manteufelstr.,1965441_west,['A28'],
U-Bhf. Schlesisches Tor,autobus,A28,1964419_west,"52.5010842,13.44197126",,52.5010842,13.44197126,100,U-Bhf. Schlesisches Tor,1965442_west,['A28'],
Heckmannufer,autobus,A28,1964420_west,"52.49753811,13.44837791",,52.49753811,13.44837791,90,Heckmannufer Ecke Schlesischestr.,1965443_west,['A28'],
Roseneck,autobus,A29,1964421_west,"52.47580089902253, 13.282411270445099",,,,,,,,19641020.0
Berkaerstr.,autobus,A29,1964422_west,"52.4821153,13.28118174",,52.4821153,13.28118174,90,Berkaerstr. Ecke Teplitzerstr.,1965445_west,['A29'],
Bismarckplatz,autobus,A29,1964423_west,"52.49206454,13.28493897",,52.49206454,13.28493897,100,Bismarckplatz,1965447_west,['A29'],
Henriettenplatz,autobus,A29,1964424_west,"52.49701780222877, 13.290339505649852",,,,,,,,1964485.0
Wilmersdorferstr.,autobus,A29,1964426_west,"52.499967660537735, 13.306987838785277",,,,,,,,19641407.0
Olivaerplatz,autobus,A29,1964427_west,"52.50060275704949, 13.313110622018645",,,,,,,,1964854.0
Uhlandstr.,autobus,A29,1964428_west,"52.49368292097469, 13.323611381015645",,,,,,,,19641321.0
Joachimstalerstr.,autobus,A29,1964429_west,"52.50380704791941, 13.331281572821457",,,,,,,,1964561.0
Breitscheidplatz,autobus,A29,1964430_west,"52.504438063129996, 13.33564615707506",,,,,,,,1964187.0
Wittenbergplatz,autobus,A29,1964431_west,"52.50188939146253, 13.342697883756577",,,,,,,,19641420.0
Lutherstr.,autobus,A29,1964432_west,"52.50104544166847, 13.34692193817342",,,,,,,,1964742.0
Lützowstr.,autobus,A29,1964433_west,"52.5030789103706, 13.36561126569968",,,,,,,,1964750.0
Askanischerplatz,autobus,A29,1964435_west,"52.50447897041404, 13.382295467838158",,,,,,,,196476.0
U-Bhf. Kochstr.,autobus,A29,1964436_west,"52.50669823641868, 13.390503218886558",,,,,,,,19641291.0
Oranienplatz,autobus,A29,1964437_west,"52.50232370505019, 13.415510129463975",,,,,,,,1964866.0
Machandelweg,autobus,A31,1964438_west,"52.52483519555124, 13.24567177943413",,,,,,,,1964753.0
U-Bhf. Ruhleben,autobus,A31,1964439_west,"52.52596833151868, 13.241478578696297",,,,,,,,19641304.0
Friedhof Ruhleben,autobus,A31,1964440_west,"52.527735865422024, 13.231788317801291",,,,,,,,1964349.0
Kinderheim Ruhleben,autobus,A31,1964441_west,"52.52796709321304, 13.230713275419049",,,,,,,,1964603.0
Teltowerstr.,autobus,A31,1964442_west,"52.52691807826059, 13.215807069988056",,,,,,,,19641241.0
Grenadierstr.,autobus,A31,1964443_west,"52.530981925368565, 13.205371761701368",,,,,,,,1964404.0
Stresowplatz,autobus,A31,1964444_west,"52.53362878,13.20678183",,52.53362878,13.20678183,100,Stresowplatz,1965468_west,['A31'],
Breitestr. Ecke Charlottenstr.,autobus,A31,1964445_west,"52.53613613360638, 13.20450629947795",,,,,,,,1964183.0
Rathaus Spandau,autobus,A31,1964446_west,"52.534578361518356, 13.199490942441287",,,,,,,,1964979.0
Nauenerstr.,autobus,A31,1964447_west,"52.5340443007014, 13.18167584141312",,,,,,,,1964824.0
Egelpfuhlstr.,autobus,A31,1964448_west,"52.53353984351533, 13.169416926784528",,,,,,,,1964285.0
Magistratsweg,autobus,A31,1964449_west,"52.5331201414446, 13.158067208455051",,,,,,,,1964756.0
Spandauerstr.,autobus,A31,1964450_west,"52.535940922541684, 13.156793426342295",,,,,,,,19641176.0
Hackbuschstr.,autobus,A31,1964451_west,"52.53959925,13.15022902",,52.53959925,13.15022902,90,Hackbuschstr. Ecke Torweg,1965473_west,['A31'],
Heidebergplan,autobus,A31,1964452_west,"52.54107413,13.14733873",,52.54107413,13.14733873,100,Heidebergplan,1965474_west,['A31'],
Breitenbachplatz,autobus,A32,1964453_west,"52.46721972,13.30947349",,52.46721972,13.30947349,100,Breitenbachplatz,1965475_west,['A32'],
Gritznerstr.,autobus,A32,1964454_west,"52.46432401,13.31648845",,52.46432401,13.31648845,90,Gritznerstr. Ecke Schildhornstr.,1965476_west,['A32'],
Rathaus Steglitz,autobus,A32,1964456_west,"52.45563377647203, 13.321050784344678",,,,,,,,1964981.0
Kuhligkshofstr. Ecke Albrechtstr.,autobus,A32,1964457_west,"52.45647464,13.32266025",,52.45647464,13.32266025,100,Kuhligkshofstr. Ecke Albrechtstr.,1965479_west,['A32'],
Sedanstr.,autobus,A32,1964458_west,"52.45143415,13.33535514",,52.45143415,13.33535514,90,Sedanstr. Ecke Albrechtstr.,1965480_west,['A32'],
Stindestr.,autobus,A32,1964459_west,"52.44812942,13.34011389",,52.44812942,13.34011389,90,Stindestr. Ecke Albrechtstr.,1965481_west,['A32'],
Leonorenstr.,autobus,A32,1964460_west,"52.44442573429372, 13.338912596810317",,,,,,,,1964705.0
"Lankwitz, Kirche",autobus,A32,1964461_west,"52.43629186979271, 13.345745387354132",,,,,,,,1964691.0
Marchandstr.,autobus,A32,1964463_west,"52.42301789,13.35749781",,52.42301789,13.35749781,90,Marchandstraasse Ecke Malteserstr.,1965486_west,['A32'],
Marienfelderallee,autobus,A32,1964464_west,"52.42488059,13.37307043",,52.42488059,13.37307043,90,Bahnstr. Ecke Marienfelderallee,1965489_west,['A32'],
Stegerwaldstr.,autobus,A32,1964465_west,"52.42072124,13.3692666",,52.42072124,13.3692666,90,Stegerwaldstr. Ecke Marienfelderallee,1965488_west,['A32'],
Bhf. Marienfelde,autobus,A32,1964466_west,"52.42342246533686, 13.374664175181172",,,,,,,,1964137.0
Berlinickestr. Ecke Albrechtstr.,autobus,A33,1964467_west,"52.45613384,13.32388935",,52.45613384,13.32388935,100,Berlinickestr. Ecke Albrechtstr.,1965490_west,['A33'],
Klingsorstr.,autobus,A33,1964468_west,"52.45309021884074, 13.33121103955973",,,,,,,,1964614.0
Sedanstr.,autobus,A33,1964469_west,"52.45143021733514, 13.335289250392284",,,,,,,,19641140.0
Kaiserstr./Ringstr.,autobus,A33,1964472_west,"52.44448052,13.37222908",,52.44448052,13.37222908,91,Kaiser-/Ringstr.,1965495_west,['A33'],
Rathaus Mariendorf,autobus,A33,1964473_west,"52.44527453682428, 13.379492384246559",,,,,,,,1964975.0
"Spandau, Friedhof",autobus,A34,1964475_west,"52.55313629,13.17967445",,52.55313629,13.17967445,100,"Spandau, Friedhof",1965498_west,['A34'],
Askanierring Ecke Falkenhagenerstr.,autobus,A34,1964476_west,"52.5489265,13.1934827",,52.5489265,13.1934827,100,Askanierring Ecke Falkenhagenerstr.,1965500_west,['A34'],
Hafenplatz,autobus,A34,1964477_west,"52.50392083524772, 13.375479875476426",,,,,,,,1964439.0
Rathaus Spandau,autobus,A34,1964478_west,"52.534578361518356, 13.199490942441287",,,,,,,,1964979.0
Adamstr.,autobus,A34,1964480_west,"52.521029117218866, 13.19780699419913",,,,,,,,19642.0
Gatowerstr.,autobus,A34,1964482_west,"52.50926294,13.1803374",,52.50926294,13.1803374,90,Weinmeisterhornweg Ecke Gatowerstr.,1965506_west,['A34'],
Weinmeisterhornweg,autobus,A34,1964483_west,"52.50926294,13.1803374",,52.50926294,13.1803374,90,Weinmeisterhornweg Ecke Gatowerstr.,1965506_west,['A34'],
Ortsgrenze Gatow,autobus,A34,1964484_west,"52.4981601705565, 13.180014416479423",,,,,,,,1964868.0
"Gatow, Kirche",autobus,A34,1964485_west,"52.48684681,13.18215148",,52.48684681,13.18215148,100,"Gatow, Kirche",1965508_west,['A34'],
Großglienickerweg,autobus,A34,1964486_west,"52.483148805729485, 13.182630557348212",,,,,,,,1964414.0
Krankenhaus Hohengatow,autobus,A34,1964487_west,"52.470449875602235, 13.169391604448148",,,,,,,,1964639.0
Krankenhaus Havelhöhe,autobus,A34,1964488_west,"52.462919334280684, 13.15899083159388",,,,,,,,1964637.0
Alt-Kladow,autobus,A34,1964489_west,"52.45345793,13.14387535",,52.45345793,13.14387535,90,Alt-Kladow Ecke Kladowerdamm,1965512_west,['A34'],
Schwiezerhaus,autobus,A34,1964490_west,"52.46175022,13.1335788",,52.46175022,13.1335788,92,Schweizerhaus,1965513_west,['A34'],
Gutshof,autobus,A34,1964491_west,"52.47510904,13.12071054",,52.47510904,13.12071054,100,Gutshof,1965514_west,['A34'],
"Spandau, Friedhof",autobus,A35,1964492_west,"52.553136286584845, 13.179674445908985",,,,,,,,19641171.0
Rathaus Spandau,autobus,A35,1964494_west,"52.534578361518356, 13.199490942441287",,,,,,,,1964979.0
Wilhelmstr. Ecke Pichelsdorferstr.,autobus,A35,1964495_west,"52.51306304,13.19689712",,52.51306304,13.19689712,89,Heerstr. Ecke Pichelsdorferstr.,1965525_west,['A35'],
Adamstr.,autobus,A35,1964496_west,"52.52107038,13.19779651",,52.52107038,13.19779651,90,Adamstr. Ecke Pichelsdorferstr.,1965524_west,['A35'],
Gatowerstr.,autobus,A35,1964498_west,"52.489436255649245, 13.180387588417426",,,,,,,,1964373.0
Weinmeisterhornweg,autobus,A35,1964499_west,"52.50924681744358, 13.180314851039075",,,,,,,,19641370.0
Ortsgrenze Gatow,autobus,A35,1964500_west,"52.49816017,13.18001442",,52.49816017,13.18001442,100,Ortsgrenze Gatow,1965527_west,['A35'],
"Gatow, Kirche",autobus,A35,1964501_west,"52.48684680676539, 13.18215147844503",,,,,,,,1964372.0
Großglienickerweg,autobus,A35,1964502_west,"52.483148805729485, 13.182630557348212",,,,,,,,1964414.0
Krankenhaus Hohengatow,autobus,A35,1964503_west,"52.47044988,13.1693916",,52.47044988,13.1693916,100,Krankenhaus Hohengatow,1965530_west,['A35'],
Krankenhaus Havelhöhe,autobus,A35,1964504_west,"52.46291933,13.15899083",,52.46291933,13.15899083,100,Krankenhaus Havelhöhe,1965531_west,['A35'],
Alt-Kladow,autobus,A35,1964505_west,"52.454591413254434, 13.144488043956764",,,,,,,,196426.0
Krampnitzerweg,autobus,A35,1964506_west,"52.45224947,13.13839944",,52.45224947,13.13839944,90,Krampnitzerweg Ecke Sakrower Landstr.,1965533_west,['A35'],
Hottengrund,autobus,A35,1964507_west,"52.44597765000425, 13.126251393745859",,,,,,,,1964532.0
Altenheim Hottengrund,autobus,A35E,1964508_west,"52.44892367,13.11423775",,52.44892367,13.11423775,100,Altenheim Hottengrund,1965540_west,['A35E'],
Pottensteinerweg Ecke Selbitzerstr.,autobus,A35E,1964509_west,"52.45051486,13.12165202",,52.45051486,13.12165202,100,Pottensteinerweg Ecke Selbitzerstr.,1965538_west,['A35E'],
Selbitzerstr. Ecke Krampnitzerweg,autobus,A35E,1964510_west,"52.45315521778876, 13.122040068790739",,,,,,,,19641152.0
Sakrowerstr. Ecke Landstr.,autobus,A35E,1964511_west,"52.44931863754513, 13.13008109296192",,,,,,,,19641085.0
Alt-Kladow Ecke Kladowerdamm,autobus,A35E,1964512_west,"52.453456955410275, 13.143930501157236",,,,,,,,196427.0
Brixplatz,autobus,A4,1964513_west,"52.51950863,13.25638651",,52.51950863,13.25638651,90,"Neu-Westend, Brixplatz",1965165_west,['A4'],
Theodor-Heuss-Platz,autobus,A4,1964514_west,"52.50937134,13.27256472",,52.50937134,13.27256472,100,Theodor-Heuss-Platz,1965166_west,['A4'],
Messedamm,autobus,A4,1964515_west,"52.50446815,13.2794121",,52.50446815,13.2794121,100,Messedamm,1965167_west,['A4'],
Henriettenplatz,autobus,A4,1964516_west,"52.49701780222877, 13.290339505649852",,,,,,,,1964485.0
Hochmeisterplatz,autobus,A4,1964517_west,"52.49468638,13.30125468",,52.49468638,13.30125468,100,Hochmeisterplatz,1965169_west,['A4'],
U-Bhf. Fehrbellinerplatz,autobus,A4,1964518_west,"52.490390927187676, 13.31417745809863",,,,,,,,19641281.0
Bundesallee Ecke Badenischestr.,autobus,A4,1964519_west,"52.48612222,13.33105202",,52.48612222,13.33105202,98,Bundesallee Ecke Badenschestr.,1965172_west,['A4'],
Rathaus Schöneberg,autobus,A4,1964520_west,"52.48515473887597, 13.345086596743203",,,,,,,,1964978.0
Innsbruckerplatz,autobus,A4,1964521_west,"52.478545508234895, 13.34405868604117",,,,,,,,1964549.0
Kaiser-Wilhelm-Platz,autobus,A4,1964522_west,"52.486329247981715, 13.35655627172785",,,,,,,,1964575.0
U-Bhf. Flughafen,autobus,A4,1964523_west,"52.48488596,13.38599655",,52.48488596,13.38599655,100,U-Bhf. Flughafen,1965178_west,['A4'],
Columbiadamm,autobus,A4,1964524_west,"52.48398171737193, 13.394418749054523",,,,,,,,1964239.0
Kienitzerstr.,autobus,A4,1964525_west,"52.47761763,13.43849396",,52.47761763,13.43849396,90,Kienitzerstr. Ecke Karl-Marx-Str.,1965181_west,['A4'],
Sonnenallee Ecke Erkstr.,autobus,A4,1964526_west,"52.48167462,13.44010366",,52.48167462,13.44010366,100,Sonnenallee Ecke Erkstr.,1965182_west,['A4'],
Harzerstr.,autobus,A4,1964527_west,"52.48508524,13.44890845",,52.48508524,13.44890845,90,Harzerstr. Ecke Elsenstr.,1965183_west,['A4'],
Potsdamerstr. Ecke Fischerhüttenstr.,autobus,A48,1964528_west,"52.43574406,13.25604513",,52.43574406,13.25604513,95,"Zehlendorf, Potsdamerstr. Ecke Fischerhüttenstr.",1965541_west,['A48'],
Teltowerdamm,autobus,A48,1964529_west,"52.43504474561002, 13.2604425311939",,,,,,,,19641240.0
Sundgauerstr.,autobus,A48,1964530_west,"52.43838201264951, 13.271447959003352",,,,,,,,19641226.0
Dahlemerweg,autobus,A48,1964531_west,"52.44179805042347, 13.282699371472702",,,,,,,,1964247.0
Drakestr.,autobus,A48,1964532_west,"52.445733691746746, 13.293722374035292",,,,,,,,1964271.0
Hindenburgdamm,autobus,A48,1964533_west,"52.45352507850236, 13.315671490206539",,,,,,,,1964501.0
Rathaus Steglitz,autobus,A48,1964534_west,"52.45563377647203, 13.321050784344678",,,,,,,,1964981.0
Bundesallee Ecke Rheinstr.,autobus,A48,1964535_west,"52.46493423553767, 13.328438507021911",,,,,,,,1964207.0
Kaisereiche,autobus,A48,1964536_west,"52.46896806014468, 13.332614886077709",,,,,,,,1964577.0
Innsbruckerplatz,autobus,A48,1964537_west,"52.478545508234895, 13.34405868604117",,,,,,,,1964549.0
Kaiser-Wilhelm-Platz,autobus,A48,1964538_west,"52.486329247981715, 13.35655627172785",,,,,,,,1964575.0
U-Bhf. Bülowstr.,autobus,A48,1964540_west,"52.49787469517453, 13.362124599310649",,,,,,,,19641276.0
Lützowstr.,autobus,A48,1964541_west,"52.5030789103706, 13.36561126569968",,,,,,,,1964750.0
"Philharmonie, Tiergartenstr.",autobus,A48,1964542_west,"52.51075589,13.36887626",,52.51075589,13.36887626,95,Tiergartenstr./Philharmonie,1965554_west,['A48'],
Machandelweg,autobus,A5,1964543_west,"52.52483519555124, 13.24567177943413",,,,,,,,1964753.0
U-Bhf. Ruhleben,autobus,A5,1964544_west,"52.52596833151868, 13.241478578696297",,,,,,,,19641304.0
Friedhof Ruhleben,autobus,A5,1964545_west,"52.527735865422024, 13.231788317801291",,,,,,,,1964349.0
Teltowerstr. Ecke Charlottenburgerchaussee,autobus,A5,1964546_west,"52.52693840124093, 13.216003627032839",,,,,,,,19711081.0
Stresowplatz,autobus,A5,1964547_west,"52.53362877636616, 13.206781830760963",,,,,,,,19641212.0
Breitestr. Ecke Charlottenstr.,autobus,A5,1964548_west,"52.53613613360638, 13.20450629947795",,,,,,,,1964183.0
Rathaus Spandau,autobus,A5,1964549_west,"52.534578361518356, 13.199490942441287",,,,,,,,1964979.0
Falkenseerchaussee,autobus,A5,1964550_west,"52.54753513,13.18466337",,52.54753513,13.18466337,90,Falkenseerchaussee Ecke Zeppelinstr.,1965191_west,['A5'],
Viersenerstr.,autobus,A5,1964551_west,"52.54020417705652, 13.17462661157195",,,,,,,,19641337.0
Wolburgsweg,autobus,A5,1964552_west,"52.550616013150325, 13.16810722103831",,,,,,,,19641423.0
Stadtrandstr.,autobus,A5,1964553_west,"52.553426999619965, 13.153585430700852",,,,,,,,19641190.0
Waldkrankenhaus,autobus,A5,1964554_west,"52.56214543,13.15834009",,52.56214543,13.15834009,100,Waldkrankenhaus,1965192_west,['A5'],
Nervenklinik,autobus,A5,1964555_west,"52.5634133,13.15430729",,52.5634133,13.15430729,90,"Spandau, Landesnervenklinik",1965193_west,['A5'],
Roseneck,autobus,A50,1964556_west,"52.47580089902253, 13.282411270445099",,,,,,,,19641020.0
Elsterplatz,autobus,A50,1964557_west,"52.47977982878401, 13.285507613099716",,,,,,,,1964299.0
Forckenbeckstr.,autobus,A50,1964558_west,"52.48221132,13.29002747",,52.48221132,13.29002747,90,Forckenbeckstr. Ecke Hohenzollerndamm,1965556_west,['A50'],
Flinsbergerplatz,autobus,A50,1964559_west,"52.483689942018465, 13.29268111645926",,,,,,,,1964330.0
Seesenerstr. Ecke Hohenzollerndamm,autobus,A50,1964560_west,"52.48840466807734, 13.302168463754004",,,,,,,,19641147.0
U-Bhf. Fehrbellinerplatz,autobus,A50,1964561_west,"52.490390927187676, 13.31417745809863",,,,,,,,19641281.0
Emserplatz,autobus,A50,1964562_west,"52.492072890007414, 13.319251387534207",,,,,,,,1964303.0
Uhlandstr. Ecke Güntzelstr.,autobus,A50,1964563_west,"52.49152711,13.3232113",,52.49152711,13.3232113,100,Uhlandstr. Ecke Güntzelstr.,1965559_west,['A50'],
Bundesallee Ecke Tratenaustr.,autobus,A50,1964564_west,"52.49318663087416, 13.330848427020651",,,,,,,,1964208.0
Pragerplatz,autobus,A50,1964565_west,"52.49295457,13.3331504",,52.49295457,13.3331504,100,Pragerplatz,1965560_west,['A50'],
Bhf. Wannsee,autobus,A51,1964566_west,"52.42151302311533, 13.17810256503659",,,,,,,,1964144.0
Königstr./Kronprinzessinnenweg,autobus,A51,1964567_west,"52.41993325,13.17531239",,52.41993325,13.17531239,95,Königstr. Ecke Kronprinzessinnenweg,1965562_west,['A51'],
Am Grossen Wannsee,autobus,A51,1964568_west,"52.420496581432594, 13.167192967572669",,,,,,,,196446.0
Koblanckstr.,autobus,A51,1964569_west,"52.42616031178746, 13.1614370371839",,,,,,,,1967584.0
Colomierstr.,autobus,A51,1964570_west,"52.42928675585897, 13.164090298875724",,,,,,,,1964238.0
Krankenhaus Wannsee,autobus,A51,1964571_west,"52.43102764694952, 13.164964517227903",,,,,,,,1964644.0
Zum Heckeshorn,autobus,A51,1964572_west,"52.43498873,13.16171669",,52.43498873,13.16171669,86,Krankenhaus Heckeshorn,1965564_west,['A51'],
Krankenhaus Heckeshorn,autobus,A51,1964573_west,"52.43498873,13.16171669",,52.43498873,13.16171669,100,Krankenhaus Heckeshorn,1965564_west,['A51'],
"Marienfelde, Stadtrandsiedlung",autobus,A52,1964574_west,"52.40262128,13.35330799",,52.40262128,13.35330799,100,"Marienfelde, Stadtrandsiedlung",1965565_west,['A52'],
Alt-Marienfelde,autobus,A52,1964575_west,"52.4134161,13.36332925",,52.4134161,13.36332925,90,Alt-Marienfelde Ecke Merienfelderallee,1965566_west,['A52'],
Kettingerstr. Ecke Alt-Marienfelde,autobus,A52,1964576_west,"52.41325553402322, 13.395474358936553",,,,,,,,1964598.0
Bühlerweg,autobus,A52,1964578_west,"52.41733641,13.41295295",,52.41733641,13.41295295,100,Bühlerweg,1965569_west,['A52'],
Buckower Friedhof,autobus,A52,1964579_west,"52.42151537347778, 13.43036950960343",,,,,,,,1964204.0
Buckowerdamm,autobus,A52,1964580_west,"52.42368329841466, 13.436638725763267",,,,,,,,1964203.0
Grünerweg,autobus,A52,1964581_west,"52.42955863550208, 13.453590733350595",,,,,,,,1964424.0
Triftweg,autobus,A52,1964582_west,"52.43169737,13.45951197",,52.43169737,13.45951197,90,Triftweg Ecke Johannisthalerchaussee,1965573_west,['A52'],
Rudowerstr.,autobus,A52,1964583_west,"52.42964562,13.47798792",,52.42964562,13.47798792,90,Efeuweg Ecke Rudowerstr.,1965575_west,['A52'],
Efeuweg,autobus,A52,1964584_west,"52.42964562,13.47798792",,52.42964562,13.47798792,90,Efeuweg Ecke Rudowerstr.,1965575_west,['A52'],
Wildmeisterdamm,autobus,A52,1964585_west,"52.42576178,13.48322598",,52.42576178,13.48322598,90,Wildmeisterdamm Ecke Neuköllnerstr.,1965576_west,['A52'],
Köpenickerstr.,autobus,A52,1964586_west,"52.42288858,13.50912841",,52.42288858,13.50912841,90,Mimosenweg Ecke Köpenickerstr.,1965579_west,['A52'],
Friedhof Rudow,autobus,A52,1964587_west,"52.42113122,13.50319915",,52.42113122,13.50319915,100,Friedhof Rudow,1965578_west,['A52'],
Kanalstr.,autobus,A52,1964588_west,"52.43167573,13.49524803",,52.43167573,13.49524803,90,Stubenraustr. Ecke Kanalstr.,1965580_west,['A52'],
Mimosenweg,autobus,A52,1964589_west,"52.42288858,13.50912841",,52.42288858,13.50912841,90,Mimosenweg Ecke Köpenickerstr.,1965579_west,['A52'],
Stubenrauchstr. Ecke Kanalstr.,autobus,A52,1964590_west,"52.43167573,13.49524803",,52.43167573,13.49524803,96,Stubenraustr. Ecke Kanalstr.,1965580_west,['A52'],
Dreilindenstr.,autobus,A53,1964591_west,"52.42046329010259, 13.183323568986776",,,,,,,,1964273.0
"Zehlendorf, Hohenzollernplatz",autobus,A53,1964592_west,"52.43077157073312, 13.194032889185463",,,,,,,,19641438.0
Waldemarplatz,autobus,A53,1964594_west,"52.43775537,13.22018978",,52.43775537,13.22018978,100,Waldemarplatz,1965583_west,['A53'],
U-Bhf. Krumme Lanke,autobus,A53,1964596_west,"52.44361298,13.24100643",,52.44361298,13.24100643,100,U-Bhf. Krumme Lanke,1965585_west,['A53'],
Hartmannsweilerweg,autobus,A53,1964597_west,"52.43871188132932, 13.248833836243495",,,,,,,,1964456.0
Potsdamerstr. Ecke Fischerhüttenstr.,autobus,A53,1964598_west,"52.4357751453625, 13.256027995378796",,,,,,,,1964929.0
Teltowerdamm,autobus,A53,1964599_west,"52.43504474561002, 13.2604425311939",,,,,,,,19641240.0
Rathaus Zehlendorf,autobus,A53,1964600_west,"52.433207520111885, 13.259531923613192",,,,,,,,1964985.0
Knesebeckstr.,autobus,A53,1964601_west,"52.42892135,13.26769723",,52.42892135,13.26769723,90,Knesebeckstr. Ecke Seehofstr.,1965588_west,['A53'],
Jänickestr.,autobus,A53,1964602_west,"52.427213941734294, 13.271659447787256",,,,,,,,1964571.0
Dahlemerweg,autobus,A53,1964603_west,"52.42634636,13.27683264",,52.42634636,13.27683264,100,Dahlemerweg,1965589_west,['A53'],
Osteweg,autobus,A53,1964604_west,"52.42102198114528, 13.281135801011326",,,,,,,,1964879.0
4. Ring,autobus,A53,1964605_west,"52.42250631,13.28694906",,52.42250631,13.28694906,100,4. Ring,1965590_west,['A53'],
Luzernerstr.,autobus,A53,1964606_west,"52.42403869,13.29291061",,52.42403869,13.29291061,100,Luzernerstr.,1965591_west,['A53'],
Thunerplatz,autobus,A53,1964607_west,"52.42375896990032, 13.296184869051308",,,,,,,,19641256.0
Wiesenbaude,autobus,A53,1964608_west,"52.430495242672045, 13.31180861060395",,,,,,,,19641392.0
Ostpreußendamm Ecke Wilhelmstr.,autobus,A53,1964609_west,"52.43080142626057, 13.317503639070004","nan, nan, nan",,,,,,,1964883.0
Jungfernstieg,autobus,A53,1964610_west,"52.42812725440389, 13.325285480034943",,,,,,,,1964570.0
Bhf. Wannsee,autobus,A6,1964611_west,"52.42151302311533, 13.17810256503659",,,,,,,,1964144.0
Königstr.,autobus,A6,1964612_west,"52.41987226002477, 13.175332944592043",,,,,,,,1964677.0
Pfaueninsel-Chaussee,autobus,A6,1964613_west,"52.41883762088876, 13.153039190703318",,,,,,,,1964914.0
Rathaus Wannsee,autobus,A6,1964614_west,"52.418440129670444, 13.148872492834737",,,,,,,,1964984.0
Friedenstr.,autobus,A6,1964615_west,"52.41722225,13.13897505",,52.41722225,13.13897505,90,Friedenstr. Ecke Königstr.,1965198_west,['A6'],
Schäferberg,autobus,A6,1964616_west,"52.41562662,13.12630868",,52.41562662,13.12630868,100,Schäferberg,1965199_west,['A6'],
Nikolskoerweg,autobus,A6,1964617_west,"52.41402767,13.10923663",,52.41402767,13.10923663,90,Nikolskoerweg Ecke Königstr.,1965200_west,['A6'],
Glienicker Brücke,autobus,A6,1964618_west,"52.41347409,13.09123588",,52.41347409,13.09123588,100,Glienicker Brücke,1965201_west,['A6'],
"Roseneck, Hundekehl",autobus,A60,1964619_west,"52.47640250997692, 13.281611267179592",,,,,,,,19641021.0
Warnemünder/Berkaerstr.,autobus,A60,1964620_west,"52.47543626291202, 13.290288437340868",,,,,,,,19641359.0
Zappoter/Oeynhauserstr.,autobus,A60,1964621_west,"52.47331132628728, 13.298669291589876",,,,,,,,19641436.0
"Hamburgerstr., Rudolf-Mosse-Platz",autobus,A60,1964622_west,"52.475375170002664, 13.303566446005037",,,,,,,,1964450.0
U-Bhf. Heidelbergerplatz,autobus,A60,1964623_west,"52.48045045,13.3128356",,52.48045045,13.3128356,100,U-Bhf. Heidelbergerplatz,1965601_west,['A60'],
Brabanterplatz,autobus,A60,1964624_west,"52.48197504,13.31612866",,52.48197504,13.31612866,100,Brabanterplatz,1965602_west,['A60'],
Am Volkspark,autobus,A60,1964625_west,"52.48322207,13.32036834",,52.48322207,13.32036834,100,Am Volkspark,1965603_west,['A60'],
Berlinerstr. Ecke Brandenburgischestr.,autobus,A60,1964626_west,"52.48646559054497, 13.320388485889481",,,,,,,,1964110.0
Postamt,autobus,A60,1964627_west,"52.48905066,13.32277037",,52.48905066,13.32277037,100,Postamt,1965605_west,['A60'],
Güntzelstr.,autobus,A60,1964628_west,"52.49152414,13.32320274",,52.49152414,13.32320274,90,Güntzelstr. Ecke Uhlandstr.,1965606_west,['A60'],
Kurfürstendamm Ecke Uhlandstr.,autobus,A60,1964630_west,"52.50251711,13.32521539",,52.50251711,13.32521539,100,Kurfürstendamm Ecke Uhlandstr.,1965608_west,['A60'],
Kurfürstendamm Ecke Joachimstalerstr.,autobus,A60,1964631_west,"52.503861587707846, 13.33136802337261",,,,,,,,1964653.0
Breitscheidplatz,autobus,A60,1964632_west,"52.50443806,13.33564616",,52.50443806,13.33564616,100,Breitscheidplatz,1965610_west,['A60'],
Wittenbergplatz,autobus,A60,1964633_west,"52.50188939146253, 13.342697883756577",,,,,,,,19641420.0
Zobeltitzstr.,autobus,A61,1964634_west,"52.56961198,13.31256257",,52.56961198,13.31256257,90,Zobeltitzstr. Ecke Eichborndamm,1965612_west,['A61'],
"U-Bhf. Scharnweberstr., Sportplatz",autobus,A61,1964635_west,"52.56792223040469, 13.311949805424875",,,,,,,,19641307.0
Schillingstr.,autobus,A61,1964636_west,"52.5659521,13.32024014",,52.5659521,13.32024014,90,Schillingstr. Ecke Scharnweberstr.,1965614_west,['A61'],
U-Bhf. Kurt-Schumacher-Platz,autobus,A61,1964637_west,"52.56343825,13.32713029",,52.56343825,13.32713029,95,Kurt-Schumacher-Platz,1965615_west,['A61'],
Humboldtstr.,autobus,A61,1964638_west,"52.56924651,13.32987792",,52.56924651,13.32987792,90,Humboldtstr. Ecke Ollenhauerstr.,1965616_west,['A61'],
Sebastianfriedhof,autobus,A61,1964639_west,"52.5710025,13.33636094",,52.5710025,13.33636094,100,Sebastianfriedhof,1965617_west,['A61'],
Teichstr.,autobus,A61,1964640_west,"52.57438307,13.34770098",,52.57438307,13.34770098,90,Teichstr. Ecke Lindauerallee,1965618_west,['A61'],
Aroserallee,autobus,A61,1964641_west,"52.57378753,13.35197104",,52.57378753,13.35197104,90,Aroserallee Ecke Lindauerallee,1965619_west,['A61'],
Osloerstr. Ecke Schwedenstr.,autobus,A61,1964643_west,"52.55669669760979, 13.373827693395064","nan, nan",,,,,,,1964872.0
Pankstr. Ecke Badstr.,autobus,A61,1964645_west,"52.55227404,13.3813872",,52.55227404,13.3813872,100,Pankstr. Ecke Badstr.,1965623_west,['A61'],
Bhf. Gesundbrunnen,autobus,A61,1964646_west,"52.548738600413905, 13.387745851632966",,,,,,,,1964128.0
Usedomerstr. Ecke Brunnenstr.,autobus,A61,1964647_west,"52.54111444748482, 13.393771487382672",,,,,,,,19641332.0
Bernauerstr. Ecke Brunnenstr.,autobus,A61,1964648_west,"52.53829556916397, 13.396023771544826",,,,,,,,1964118.0
"Gartenplatz, Feldstr.",autobus,A61,1964649_west,"52.5385659,13.38400528",,52.5385659,13.38400528,90,Gartenplatz,1965627_west,['A61'],
Wittenau,autobus,A62,1964650_west,"52.59725578,13.332605",,52.59725578,13.332605,90,"Wittenau, Cyclopstr.",1965628_west,['A62'],
Alt-Wittenau,autobus,A62,1964651_west,"52.58969313,13.33418093",,52.58969313,13.33418093,90,Alt-Wittenau Ecke Oranienburgerstr.,1965629_west,['A62'],
Bonhoeffer-Heim,autobus,A62,1964652_west,"52.57940413,13.33327468",,52.57940413,13.33327468,100,Bonhoeffer-Heim,1965630_west,['A62'],
Auguste-Viktoria-Allee,autobus,A62,1964653_west,"52.569268504658915, 13.329801350092811",,,,,,,,196480.0
U-Bhf. Kurt-Schumacher-Platz,autobus,A62,1964654_west,"52.56338157214657, 13.32719915637487",,,,,,,,19641294.0
Saatwinklerdamm,autobus,A62,1964655_west,"52.54802938567344, 13.300569461587116",,,,,,,,19641082.0
Heckerdamm,autobus,A62,1964656_west,"52.53962816572025, 13.295048454368684",,,,,,,,1964466.0
Bhf. Jungfernheide,autobus,A62,1964657_west,"52.530138785889896, 13.296018817180764",,,,,,,,1964131.0
Luisenplatz,autobus,A62,1964658_west,"52.52005408723936, 13.2995133852506",,,,,,,,1964739.0
Richard-Wagner-Platz,autobus,A62,1964659_west,"52.517490990443804, 13.306397097578404",,,,,,,,19641004.0
Leibnizstr. Ecke Otto-Suhr-Allee,autobus,A62,1964660_west,"52.51466736,13.31516095",,52.51466736,13.31516095,100,Leibnizstr. Ecke Otto-Suhr-Allee,1965638_west,['A62'],
U-Bhf. Ernst-Reuter-Platz,autobus,A62,1964661_west,"52.51164603099566, 13.322290858670174",,,,,,,,19641279.0
Bhf. Zoo,autobus,A62,1964662_west,"52.507029532025605, 13.333220118900503",,,,,,,,1964147.0
Marburgerstr.,autobus,A62,1964663_west,"52.50374577,13.3376747",,52.50374577,13.3376747,90,Marburgerstr. Ecke Tauentzstr.,1965641_west,['A62'],
Wittenbergplatz,autobus,A62,1964664_west,"52.50188939146253, 13.342697883756577",,,,,,,,19641420.0
Radelandstr. Ecke Niederheideweg,autobus,A63,1964665_west,"52.56621908,13.15706778",,52.56621908,13.15706778,100,Radelandstr. Ecke Niederheideweg,1965643_west,['A63'],
Bötzowbahn,autobus,A63,1964666_west,"52.560942294746425, 13.171763262130519",,,,,,,,1964218.0
Kisselnallee Ecke Pionierstr.,autobus,A63,1964667_west,"52.556501057441956, 13.188670871494672",,,,,,,,1964606.0
Zweibrückerstr.,autobus,A63,1964668_west,"52.54677033,13.1887722",,52.54677033,13.1887722,90,Falkenseerchausee Ecke Zweibrückerstr.,1965645_west,['A63'],
Bezirksamt,autobus,A63,1964670_west,"52.54146443211212, 13.200850156157355",,,,,,,,1964124.0
Rathaus Spandau,autobus,A63,1964671_west,"52.534578361518356, 13.199490942441287",,,,,,,,1964979.0
Bhf. Spandau-West,autobus,A63,1964672_west,"52.53497194201396, 13.198460334945361",,,,,,,,1964142.0
Staakenerstr.,autobus,A63,1964673_west,"52.536487084911975, 13.190823566060091",,,,,,,,19641184.0
Viersenerstr.,autobus,A63,1964675_west,"52.54020417705652, 13.17462661157195",,,,,,,,19641337.0
Dyotzerstr.,autobus,A63,1964676_west,"52.541513574478394, 13.168806761501132",,,,,,,,1964276.0
Leuthingerweg,autobus,A63,1964677_west,"52.54180680726089, 13.163727103711182",,,,,,,,1964714.0
Strasse 393,autobus,A63,1964678_west,"52.54346134229288, 13.156333109553433",,,,,,,,19641204.0
Seegefelderweg,autobus,A63,1964679_west,"52.54974478,13.12896856",,52.54974478,13.12896856,90,Seegefelderweg (Stadtgrenze),1965650_west,['A63'],
Bernauerstr. Ecke Wollinerstr.,autobus,A64,1964680_west,"52.539825749774046, 13.4015229935377",,,,,,,,1964119.0
Demminerstr. Ecke Brunnenstr.,autobus,A64,1964681_west,"52.54111761,13.39374567",,52.54111761,13.39374567,100,Demminerstr. Ecke Brunnenstr.,1965652_west,['A64'],
U-Bhf. Gesundbrunnen,autobus,A64,1964683_west,"52.548660755358114, 13.387873629581087",,,,,,,,19641285.0
Prinzenallee Ecke Exerzierstr.,autobus,A64,1964684_west,"52.55227905779362, 13.381463018135523",,,,,,,,1964952.0
Schwedenstr. Ecke Exerzierstr.,autobus,A64,1964685_west,"52.55396009,13.37150078",,52.55396009,13.37150078,87,Schulstr. Ecke Exerzierstr.,1965657_west,['A64'],
Schulstr. Ecke Exerzierstr.,autobus,A64,1964686_west,"52.55396009,13.37150078",,52.55396009,13.37150078,100,Schulstr. Ecke Exerzierstr.,1965657_west,['A64'],
Reinickendorferstr. Ecke Schulstr.,autobus,A64,1964687_west,"52.55154134842798, 13.367385622374945",,,,,,,,1964998.0
Leopoldplatz,autobus,A64,1964688_west,"52.54647397,13.35923348",,52.54647397,13.35923348,100,Leopoldplatz,1965659_west,['A64'],
Antwerpenerstr. Ecke Luxemburgerstr.,autobus,A64,1964689_west,"52.54411217,13.35493853",,52.54411217,13.35493853,100,Antwerpenerstr. Ecke Luxemburgerstr.,1965660_west,['A64'],
Virchow Krankenhaus,autobus,A64,1964690_west,"52.54371513,13.33931792",,52.54371513,13.33931792,100,Virchow-Krankenhaus,1965661_west,['A64'],
Seestr.,autobus,A64,1964691_west,"52.546293624253636, 13.34397818008162",,,,,,,,19641150.0
Otawistr.,autobus,A64,1964692_west,"52.55252523,13.33695423",,52.55252523,13.33695423,90,Otawistr. Ecke Afrikanischestr.,1965663_west,['A64'],
Höllenderstr. Ecke Septimerstr.,autobus,A64,1964694_west,"52.56428064,13.33860259",,52.56428064,13.33860259,97,Holländerstr. Ecke Septimerstr.,1965665_west,['A64'],
Goebelplatz,autobus,A65,1964695_west,"52.53812718,13.27991415",,52.53812718,13.27991415,100,Goebelplatz,1965666_west,['A65'],
Kurt-Schumacher-Damm,autobus,A65,1964696_west,"52.539636633140965, 13.29506456252715",,,,,,,,1964665.0
Jakob-Kaiser-Platz,autobus,A65,1964697_west,"52.536739701449115, 13.293604878938678",,,,,,,,1964555.0
Spandauerdamm Ecke Stadtautobahn,autobus,A65,1964698_west,"52.51857668,13.2832422",,52.51857668,13.2832422,100,Spandauerdamm Ecke Stadtautobahn,1965669_west,['A65'],
Messedamm,autobus,A65,1964699_west,"52.50446814877144, 13.279412101845791",,,,,,,,1964799.0
Rathenauplatz,autobus,A65,1964700_west,"52.49561135,13.28657375",,52.49561135,13.28657375,100,Rathenauplatz,1965671_west,['A65'],
Hohenzollerndamm Ecke Stadtautobahn,autobus,A65,1964701_west,"52.48792296,13.30056111",,52.48792296,13.30056111,100,Hohenzollerndamm Ecke Stadtautobahn,1965672_west,['A65'],
Bundesplatz,autobus,A65,1964702_west,"52.478678991134835, 13.32860278411238",,,,,,,,1964209.0
Innsbruckerplatz,autobus,A65,1964703_west,"52.478545508234895, 13.34405868604117",,,,,,,,1964549.0
Oberlandstr. Ecke Germaniastr.,autobus,A65,1964706_west,"52.46346249,13.40208263",,52.46346249,13.40208263,100,Oberlandstr. Ecke Germaniastr.,1965681_west,['A65'],
Hermannstr. Ecke Silbersteinstr.,autobus,A65,1964707_west,"52.46642674,13.43196471",,52.46642674,13.43196471,98,Hermannstr. Ecke Silberstreinstr.,1965682_west,['A65'],
Karl-Marx-Str. Ecke Saalestr.,autobus,A65,1964708_west,"52.46972817,13.441591",,52.46972817,13.441591,100,Karl-Marx-Str. Ecke Saalestr.,1965683_west,['A65'],
Schulenburgpark,autobus,A65,1964709_west,"52.4665445725577, 13.470341233609716",,,,,,,,19641111.0
"Doppel-Süd, Berlepschstr.",autobus,A66,1964710_west,"52.42123797,13.22684635",,52.42123797,13.22684635,86,Düppel-Süd,1965685_west,['A66'],
Elsheimerstr. Ecke Berlepschstr.,autobus,A66,1964711_west,"52.42335989,13.23473134",,52.42335989,13.23473134,87,Fercherstr. Ecke Berlepschstr.,1965686_west,['A66'],
Andreezeile,autobus,A66,1964712_west,"52.41045731,13.26713203",,52.41045731,13.26713203,90,Andreezeile Ecke Teltowerdamm,1965687_west,['A66'],
Machnowerstr. Ecke Berlepschstr.,autobus,A66,1964713_west,"52.42335989,13.23473134",,52.42335989,13.23473134,87,Fercherstr. Ecke Berlepschstr.,1965686_west,['A66'],
Rathaus Zehlendorf,autobus,A66,1964714_west,"52.433207520111885, 13.259531923613192",,,,,,,,1964985.0
Clayallee Ecke Berlinerstr.,autobus,A66,1964715_west,"52.435061281531794, 13.260469051198768",,,,,,,,1964235.0
Schützallee Ecke Onkel-Tom-Str.,autobus,A66,1964716_west,"52.44062659,13.25520351",,52.44062659,13.25520351,100,Schützallee Ecke Onkel-Tom-Str.,1965690_west,['A66'],
U-Bhf. Onkel-Toms-Hütte,autobus,A66,1964717_west,"52.45007713,13.25127259",,52.45007713,13.25127259,100,U-Bhf. Onkel-Toms-Hütte,1965691_west,['A66'],
Moritzplatz,autobus,A67,1964719_west,"52.50382794,13.41018325",,52.50382794,13.41018325,100,Moritzplatz,1965693_west,['A67'],
Oranienplatz,autobus,A67,1964720_west,"52.50232371,13.41551013",,52.50232371,13.41551013,100,Oranienplatz,1965694_west,['A67'],
U-Bhf. Kottbusser Tor,autobus,A67,1964721_west,"52.49912276,13.41824117",,52.49912276,13.41824117,100,U-Bhf. Kottbusser Tor,1965695_west,['A67'],
Kottbusser Brücke,autobus,A67,1964722_west,"52.49603084,13.4200704",,52.49603084,13.4200704,100,Kottbusser Brücke,1965696_west,['A67'],
Hohenstaufenplatz,autobus,A67,1964723_west,"52.49085480753271, 13.423419999335453",,,,,,,,1964518.0
Hermannplatz,autobus,A67,1964724_west,"52.48778872855567, 13.425393480017616",,,,,,,,1964486.0
Reuterstr.,autobus,A67,1964725_west,"52.48654240757135, 13.428977740572138",,,,,,,,19641003.0
Fuldastr.,autobus,A67,1964726_west,"52.483802510465225, 13.435884392882318",,,,,,,,1964360.0
Erkstr.,autobus,A67,1964727_west,"52.48167227551806, 13.440052048368255",,,,,,,,1964307.0
Hertzbergplatz,autobus,A67,1964728_west,"52.477487105395774, 13.448598156816837",,,,,,,,1964495.0
Bhf. Sonnenallee,autobus,A67,1964729_west,"52.473861610807525, 13.455874121666916",,,,,,,,1964141.0
Dammweg,autobus,A67,1964730_west,"52.47029082500845, 13.464688258814357",,,,,,,,1964250.0
Neuköllnischeallee,autobus,A67,1964731_west,"52.468152065072715, 13.460620591028498",,,,,,,,1964835.0
Am Oberhafen,autobus,A67,1964732_west,"52.4650173,13.45059418",,52.4650173,13.45059418,100,Am Oberhafen,1965702_west,['A67'],
U-Bhf. Grenzallee,autobus,A67,1964733_west,"52.4636951,13.44423173",,52.4636951,13.44423173,100,U-Bhf. Grenzallee,1965703_west,['A67'],
Onkel-Herse-Str. Ecke Buschkrugallee,autobus,A67,1964734_west,"52.4482658,13.45393194",,52.4482658,13.45393194,99,Onkel-Herse-Str. Eke Buschkrugallee,1965705_west,['A67'],
Parchimerallee Ecke Buschkrugallee,autobus,A67,1964735_west,"52.44508591,13.45520007",,52.44508591,13.45520007,100,Parchimerallee Ecke Buschkrugallee,1965706_west,['A67'],
Otto-Wels-Ring,autobus,A67,1964736_west,"52.43499737,13.45373288",,52.43499737,13.45373288,90,Otto-Wels-Ring Ecke Str. 454,1965707_west,['A67'],
Clayallee Ecke Königin-Luise-Str.,autobus,A68,1964737_west,"52.46044681,13.27489827",,52.46044681,13.27489827,100,Clayallee Ecke Königin-Luise-Str.,1965708_west,['A68'],
Thielallee/Pacelliallee,autobus,A68,1964738_west,"52.458161495962216, 13.28707254649315",,,,,,,,19641254.0
U-Bhf. Dahlem-Dorf,autobus,A68,1964739_west,"52.4580707,13.28970695",,52.4580707,13.28970695,100,U-Bhf. Dahlem-Dorf,1965710_west,['A68'],
Arnimallee,autobus,A68,1964740_west,"52.45776572,13.29858724",,52.45776572,13.29858724,90,Arnimallee Ecke Königin-Luise-Str.,1965711_west,['A68'],
Botanischer Garten,autobus,A68,1964741_west,"52.4585988,13.30343606",,52.4585988,13.30343606,100,Botanischer Garten,1965712_west,['A68'],
Lepsiusstr.,autobus,A68,1964742_west,"52.45878275,13.31560706",,52.45878275,13.31560706,90,Lepsiusstr. Ecke Grunewaldstr.,1965713_west,['A68'],
Rathaus Steglitz,autobus,A68,1964743_west,"52.45563377647203, 13.321050784344678",,,,,,,,1964981.0
Breitestr. Ecke Albrechtstr.,autobus,A68,1964744_west,"52.45436072,13.3282961",,52.45436072,13.3282961,100,Breitestr. Ecke Albrechtstr.,1965715_west,['A68'],
Bismarckstr. Ecke Bergstr.,autobus,A68,1964745_west,"52.45863794,13.33929802",,52.45863794,13.33929802,100,Bismarckstr. Ecke Bergstr.,1965716_west,['A68'],
Munsterdamm Ecke Bergstr.,autobus,A68,1964746_west,"52.45910801,13.34873117",,52.45910801,13.34873117,100,Munsterdamm Ecke Bergstr.,1965717_west,['A68'],
Attilaplatz,autobus,A68,1964748_west,"52.45590179888225, 13.376512495751076",,,,,,,,196477.0
Tempehoferdamm Ecke Friedrich-Karl-Str.,autobus,A68,1964749_west,"52.45579853,13.38396054",,52.45579853,13.38396054,99,Tempelhoferdamm Ecke Friedrich-Karl-Str.,1965720_west,['A68'],
Kaiserin-Augusta-Str. Ecke Tempelhoferdamm,autobus,A68,1964750_west,"52.45936602,13.38446422",,52.45936602,13.38446422,90,Kaiserin-Augusta-Str.,1965721_west,['A68'],
Alt-Tempelhof Ecke Tempelhoferdamm,autobus,A68,1964751_west,"52.465964306830664, 13.38558297633417",nan+ nan+ nan,,,,,,,196436.0
Bhf. Tempelhof,autobus,A68,1964752_west,"52.47084694496318, 13.385638120230526",,,,,,,,1964143.0
Eichkamp,autobus,A69,1964753_west,"52.48991827,13.25954128",,52.48991827,13.25954128,100,Eichkamp,1965724_west,['A69'],
Trabenerstr.,autobus,A69,1964754_west,"52.49735494,13.28272174",,52.49735494,13.28272174,90,Trabenerstr. Ecke Halenseestr.,1965725_west,['A69'],
Henriettenplatz,autobus,A69,1964755_west,"52.4970178,13.29033951",,52.4970178,13.29033951,100,Henriettenplatz,1965726_west,['A69'],
Wilmersdorferstr. Ecke Kurfürstendamm,autobus,A69,1964757_west,"52.50011662,13.30701429",,52.50011662,13.30701429,100,Wilmersdorferstr. Ecke Kurfürstendamm,1965728_west,['A69'],
Bleibtreustr. Ecke Kurfürstendamm,autobus,A69,1964759_west,"52.50160348,13.31946411",,52.50160348,13.31946411,100,Bleibtreustr. Ecke Kurfürstendamm,1965730_west,['A69'],
Uhlandstr. Ecke Kurfürstendamm,autobus,A69,1964760_west,"52.50253243,13.32528045",,52.50253243,13.32528045,100,Uhlandstr. Ecke Kurfürstendamm,1965731_west,['A69'],
Joachimstalerstr. Ecke Kurfürstendamm,autobus,A69,1964761_west,"52.503848526250394, 13.331282191682005",,,,,,,,1964562.0
Nürnbergerstr. Ecke Kurfürstenstr.,autobus,A69,1964762_west,"52.50512043,13.34120096",,52.50512043,13.34120096,100,Nürnbergerstr. Ecke Kurfürstenstr.,1965733_west,['A69'],
An Der Urania,autobus,A69,1964763_west,"52.50313264,13.34990933",,52.50313264,13.34990933,100,An der Urania,1965734_west,['A69'],
Lützowplatz,autobus,A69,1964764_west,"52.50502902,13.35182287",,52.50502902,13.35182287,100,Lützowplatz,1965735_west,['A69'],
Tiergartenstr.,autobus,A69,1964765_west,"52.50956693,13.35136665",,52.50956693,13.35136665,90,Tiergartenstr. Ecke Klingelhöferstr.,1965736_west,['A69'],
Großer Stern,autobus,A69,1964766_west,"52.51452472,13.34993319",,52.51452472,13.34993319,100,Großer Stern,1965737_west,['A69'],
Kongreßhalle,autobus,A69,1964767_west,"52.51763253,13.36319698",,52.51763253,13.36319698,100,Kongreßhalle,1965738_west,['A69'],
Moltkebrücke,autobus,A69,1964768_west,"52.52163755,13.36922927",,52.52163755,13.36922927,100,Moltkebrücke,1965740_west,['A69'],
Bhf. Wollankstr.,autobus,A70,1964769_west,"52.56453849178735, 13.393420272477442",,,,,,,,1964146.0
Osloerstr.,autobus,A70,1964770_west,"52.55587669510938, 13.38424421097371",,,,,,,,1964870.0
Badstr.,autobus,A70,1964771_west,"52.55228040855936, 13.381394276023574",,,,,,,,196481.0
Wiesenstr.,autobus,A70,1964772_west,"52.54760177,13.37388377",,52.54760177,13.37388377,90,Wiesenstr. Ecke Pankstr.,1965745_west,['A70'],
Ravenestr. Ecke Reinickdorferstr.,autobus,A70,1964773_west,"52.54285307,13.36977037",,52.54285307,13.36977037,95,Ravenéstr. Ecke Reinickendorferstr.,1965746_west,['A70'],
Weddingplatz,autobus,A70,1964774_west,"52.54113612364086, 13.368501029385115",,,,,,,,19641369.0
Am Nordhafen,autobus,A70,1964775_west,"52.53868315849872, 13.363248409190426",,,,,,,,196451.0
Rathenowerstr.,autobus,A70,1964776_west,"52.52673250798154, 13.355275614926985",,,,,,,,1964987.0
Krankenhaus Moabit,autobus,A70,1964778_west,"52.52631364,13.34776241",,52.52631364,13.34776241,100,Krankenhaus Moabit,1965751_west,['A70'],
Stromstr.,autobus,A70,1964779_west,"52.52631690374401, 13.343146315837002",,,,,,,,19641213.0
Rathaus Tiergarten,autobus,A70,1964780_west,"52.52649086,13.33835898",,52.52649086,13.33835898,100,Rathaus Tiergarten,1965753_west,['A70'],
Reuchlinstr.,autobus,A70,1964782_west,"52.5278079827492, 13.324842775070394",,,,,,,,19641002.0
"Wiebestr., Strassenbahnhof",autobus,A70,1964783_west,"52.53066666255053, 13.319314794959219",,,,,,,,19641389.0
Bhf. Wilhelmsruh,autobus,A71,1964784_west,"52.58102921945559, 13.363635067647111",,,,,,,,1964145.0
Lindauerstr.,autobus,A71,1964785_west,"52.573378512244474, 13.359026284637647",,,,,,,,1964725.0
Emmentalerstr.,autobus,A71,1964786_west,"52.5675354709663, 13.351240165364471",,,,,,,,1964301.0
"Schäfersee, Pankowerallee",autobus,A71,1964787_west,"52.56412403,13.36412797",,52.56412403,13.36412797,90,Schäfersee,1965760_west,['A71'],
Provinzstr./Pankowerallee,autobus,A71,1964788_west,"52.56468577,13.37805639",,52.56468577,13.37805639,95,Provinzstr. Ecke Pankowerallee,1965762_west,['A71'],
Ritterlandweg,autobus,A71,1964789_west,"52.56075604,13.37703412",,52.56075604,13.37703412,90,Ritterlandweg Ecke Soldinerstr.,1965763_west,['A71'],
Prinzenallee/Soldinerstr.,autobus,A71,1964790_west,"52.55871759464676, 13.386248511741826",,,,,,,,1964953.0
Osloerstr.,autobus,A71,1964791_west,"52.55587669510938, 13.38424421097371",,,,,,,,1964870.0
Bhf. Gesundbrunnen,autobus,A71,1964793_west,"52.548738600413905, 13.387745851632966",,,,,,,,1964128.0
Ramlerstr.,autobus,A71,1964794_west,"52.5471087,13.38914654",,52.5471087,13.38914654,90,Ramlerstr. Ecke Brunnenstr.,1965768_west,['A71'],
Rügenerstr.,autobus,A71,1964795_west,"52.544791277773946, 13.391067616355128",,,,,,,,19641039.0
Usedomerstr.,autobus,A71,1964796_west,"52.541120501957316, 13.393769565044664",,,,,,,,19641331.0
Bernauerstr. Ecke Brunnenstr.,autobus,A71,1964797_west,"52.53825329,13.39598562",,52.53825329,13.39598562,100,Bernauerstr. Ecke Brunnenstr.,1965771_west,['A71'],
Bernauerstr. Ecke Wollinerstr.,autobus,A71,1964798_west,"52.539825749774046, 13.4015229935377",,,,,,,,1964119.0
Alt-Reinickendorf Ecke Rödernallee,autobus,A72,1964799_west,"52.57586051212987, 13.347765981901512",,,,,,,,196434.0
Lindauerstr. Ecke Residenzstr.,autobus,A72,1964800_west,"52.57332805900587, 13.35899004155058",,,,,,,,1964726.0
Luise-Schröder-Platz,autobus,A72,1964802_west,"52.55757019957571, 13.365470778195588",,,,,,,,1964737.0
Nauenerplatz,autobus,A72,1964803_west,"52.55155262,13.36737073",,52.55155262,13.36737073,100,Nauenerplatz,1965777_west,['A72'],
Weddingplatz,autobus,A72,1964804_west,"52.54113612364086, 13.368501029385115",,,,,,,,19641369.0
Rathenowerstr. Ecke Perlebergerstr.,autobus,A72,1964805_west,"52.53247559,13.35058625",,52.53247559,13.35058625,100,Rathenowerstr. Ecke Perlebergerstr.,1965781_west,['A72'],
Turmstr. Ecke Stromstr.,autobus,A72,1964806_west,"52.52631574,13.34320006",,52.52631574,13.34320006,100,Turmstr. Ecke Stromstr.,1965783_west,['A72'],
Tauroggenerstr. Ecke Osnabrückerstr.,autobus,A72,1964809_west,"52.525838744600904, 13.301852064700281",,,,,,,,19641235.0
Landgericht,autobus,A72,1964810_west,"52.52698926,13.29716765",,52.52698926,13.29716765,100,Landgericht,1965787_west,['A72'],
Jakob-Kaiser-Platz,autobus,A72,1964811_west,"52.536739701449115, 13.293604878938678",,,,,,,,1964555.0
Quellweg Ecke Nonnendammallee,autobus,A72,1964812_west,"52.536668576718114, 13.26843642898379",,,,,,,,1964963.0
Gartenfeld,autobus,A72,1964814_west,"52.54719055,13.24779333",,52.54719055,13.24779333,100,Gartenfeld,1965791_west,['A72'],
Bhf. Zoo,autobus,A73,1964815_west,"52.507029532025605, 13.333220118900503",,,,,,,,1964147.0
Wittenbergplatz,autobus,A73,1964816_west,"52.50188939146253, 13.342697883756577",,,,,,,,19641420.0
Motzstr.,autobus,A73,1964817_west,"52.49717707606062, 13.346075923573181",,,,,,,,1964812.0
Grunewaldstr.,autobus,A73,1964818_west,"52.48907804007202, 13.345000249198607",,,,,,,,1964418.0
Rathaus Schöneberg,autobus,A73,1964819_west,"52.48515473887597, 13.345086596743203",,,,,,,,1964978.0
Ebersstr. Ecke Dominicusstr.,autobus,A73,1964821_west,"52.48014768,13.35214638",,52.48014768,13.35214638,100,Ebersstr. Ecke Dominicusstr.,1965799_west,['A73'],
Tempelhoferdamm Ecke Alt-Tempelhof,autobus,A73,1964823_west,"52.46591642,13.38560642",,52.46591642,13.38560642,100,Tempelhoferdamm Ecke Alt-Tempelhof,1965802_west,['A73'],
Rohdestr. Ecke Germaniastr.,autobus,A73,1964824_west,"52.46205027,13.40440412",,52.46205027,13.40440412,100,Rohdestr. Ecke Germaniastr.,1965803_west,['A73'],
Britzerdamm Ecke Gradestr.,autobus,A73,1964826_west,"52.45263536,13.43855969",,52.45263536,13.43855969,100,Britzerdamm Ecke Gradestr.,1965805_west,['A73'],
Buschkrug Alle Ecke Blaschko-Allee,autobus,A73,1964827_west,"52.452543995347135, 13.452160354904555",,,,,,,,1964216.0
Königin-Elisabeth-Str.,autobus,A74,1964828_west,"52.51839539,13.2802127",,52.51839539,13.2802127,90,Spandauerdamm Ecke Königin-Elisabeth-Str.,1965809_west,['A74'],
Spandauerdamm,autobus,A74,1964829_west,"52.51838420899177, 13.280076964056246",,,,,,,,19641173.0
Klausenerplatz,autobus,A74,1964830_west,"52.51924427,13.29194874",,52.51924427,13.29194874,100,Klausenerplatz,1965810_west,['A74'],
Schlossstr. Ecke Seelingstr.,autobus,A74,1964831_west,"52.515663,13.29654868",,52.515663,13.29654868,96,Schloßstr. Ecke Seelingstr.,1965811_west,['A74'],
Sophie-Charlotten-Platz,autobus,A74,1964832_west,"52.51083333,13.29666667",,52.51083333,13.29666667,98,Sophie-Charlotte-Platz,1965812_west,['A74'],
Kaiser-Friedrich-Str.,autobus,A74,1964833_west,"52.50678591,13.30232482",,52.50678591,13.30232482,90,Kaiser-Friedrich-Str. Ecke Kantstr.,1965813_west,['A74'],
Stuttgarterplatz,autobus,A74,1964834_west,"52.50551611,13.3029233",,52.50551611,13.3029233,100,Stuttgarterplatz,1965814_west,['A74'],
Kurfürstendamm Ecke Wilmersdorferstr.,autobus,A74,1964835_west,"52.500005603908086, 13.307037476743691",,,,,,,,1964659.0
Fehrbellinerplatz,autobus,A74,1964836_west,"52.49040639,13.31420422",,52.49040639,13.31420422,100,Fehrbellinerplatz,1965816_west,['A74'],
Bundesallee Ecke Berlinerstr.,autobus,A74,1964837_west,"52.487321004799746, 13.331012834110986",,,,,,,,1964206.0
Rathaus Schöneberg,autobus,A74,1964839_west,"52.48515474,13.3450866",,52.48515474,13.3450866,100,Rathaus Schöneberg,1965819_west,['A74'],
Egelingzeile,autobus,A74,1964842_west,"52.46359357,13.3700689",,52.46359357,13.3700689,100,Egelingzeile,1965822_west,['A74'],
Eythstr.,autobus,A74,1964843_west,"52.45972284,13.3664283",,52.45972284,13.3664283,90,"Lindenhof, Eythstr.",1965823_west,['A74'],
Munsterdamm Ecke Steglitzerdamm,autobus,A75,1964844_west,"52.45000526,13.34672202",,52.45000526,13.34672202,100,Munsterdamm Ecke Steglitzerdamm,1965824_west,['A75'],
Lauenburgerplatz,autobus,A75,1964846_west,"52.46159988,13.33932524",,52.46159988,13.33932524,100,Lauenburgerplatz,1965826_west,['A75'],
Kaisereiche,autobus,A75,1964847_west,"52.46896806014468, 13.332614886077709",,,,,,,,1964577.0
Innsbruckerplatz,autobus,A75,1964848_west,"52.478545508234895, 13.34405868604117",,,,,,,,1964549.0
Kaiser-Wilhelm-Platz,autobus,A75,1964850_west,"52.486329247981715, 13.35655627172785",,,,,,,,1964575.0
U-Bhf. Bülowstr.,autobus,A75,1964851_west,"52.4978747,13.3621246",,52.4978747,13.3621246,100,U-Bhf. Bülowstr.,1965831_west,['A75'],
Am Karlsbad,autobus,A75,1964852_west,"52.50551053,13.36801582",,52.50551053,13.36801582,100,Am Karlsbad,1965832_west,['A75'],
Askanischerplatz,autobus,A75,1964853_west,"52.50447897,13.38229547",,52.50447897,13.38229547,100,Askanischerplatz,1965833_west,['A75'],
U-Bhf. Kochstr.,autobus,A75,1964854_west,"52.50669824,13.39050322",,52.50669824,13.39050322,100,U-Bhf. Kochstr.,1965834_west,['A75'],
Oranienstr.,autobus,A75,1964855_west,"52.50709133,13.39827714",,52.50709133,13.39827714,90,Oranienstr. Ecke Kochstr.,1965835_west,['A75'],
U-Bhf. Moritzplatz,autobus,A75,1964856_west,"52.503669,13.41055755",,52.503669,13.41055755,100,U-Bhf. Moritzplatz,1965836_west,['A75'],
Spreewaldplatz,autobus,A75,1964857_west,"52.49746663,13.43173833",,52.49746663,13.43173833,100,Spreewaldplatz,1965837_west,['A75'],
Sonnenallee Ecke Pannierstr.,autobus,A75,1964858_west,"52.4860962,13.43021786",,52.4860962,13.43021786,100,Sonnenallee Ecke Pannierstr.,1965838_west,['A75'],
Hermannplatz,autobus,A75,1964859_west,"52.48778873,13.42539348",,52.48778873,13.42539348,100,Hermannplatz,1965839_west,['A75'],
Bhf. Lichtenrade,autobus,A76,1964861_west,"52.386683297852706, 13.395506929836833",,,,,,,,1964134.0
Marienfelderstr. Ecke Lichtenraderdamm,autobus,A76,1964862_west,"52.39246195,13.40672267",,52.39246195,13.40672267,100,Marienfelderstr. Ecke Lichtenraderdamm,1965842_west,['A76'],
Potsdamerstr. Ecke Lichtenraderdamm,autobus,A76,1964863_west,"52.404381890119645, 13.406144793903707",,,,,,,,1964931.0
Rennbahn,autobus,A76,1964866_west,"52.431519887104706, 13.391508229384012",,,,,,,,19641000.0
Alt-Mariendorf Ecke Mariendorferdamm,autobus,A76,1964867_west,"52.4401947729646, 13.38731752606722","nan, nan",,,,,,,196429.0
Burgemeisterstr. Ecke Tempelhoferdamm,autobus,A76,1964869_west,"52.4570129343595, 13.383915410725029",,,,,,,,1964211.0
Alt-Tempelhof Ecke Tempelhoferdamm,autobus,A76,1964870_west,"52.465964306830664, 13.38558297633417",nan+ nan+ nan,,,,,,,196436.0
U-Bhf. Tempelhof,autobus,A76,1964871_west,"52.4698751,13.38558706",,52.4698751,13.38558706,100,U-Bhf. Tempelhof,1965849_west,['A76'],
Thuyring Ecke Tempelhoferdamm,autobus,A76,1964872_west,"52.4748435370118, 13.385755164694942",,,,,,,,19641258.0
Bayernring Ecke Tempelhoferdamm,autobus,A76,1964873_west,"52.481634872864596, 13.385858395941424",,,,,,,,196497.0
Daimlerstr.,autobus,A77,1964875_west,"52.42310029,13.38271915",,52.42310029,13.38271915,90,"Marienfelde, Daimlerstr.",1965853_west,['A77'],
Bhf. Marienfelde,autobus,A77,1964876_west,"52.42342246533686, 13.374664175181172",,,,,,,,1964137.0
Körtingstr.,autobus,A77,1964877_west,"52.43481353,13.37831564",,52.43481353,13.37831564,90,Körtingstr. Ecke Großbeerenstr.,1965855_west,['A77'],
Mariendorferdamm,autobus,A77,1964878_west,"52.445604468950826, 13.385816551199863",,,,,,,,1964772.0
Markgrafenstr. Ecke Mariendorferdamm,autobus,A77,1964880_west,"52.45018182,13.38492769",,52.45018182,13.38492769,100,Markgrafenstr. Ecke Mariendorferdamm,1965858_west,['A77'],
Burgemeisterstr. Ecke Tempelhoferdamm,autobus,A77,1964881_west,"52.4570129343595, 13.383915410725029",,,,,,,,1964211.0
Rathaus Tempelhof,autobus,A77,1964882_west,"52.46300094,13.38534224",,52.46300094,13.38534224,100,Rathaus Tempelhof,1965860_west,['A77'],
Alt-Tempelhof Ecke Tempelhoferdamm,autobus,A77,1964883_west,"52.466013,13.38558828",,52.466013,13.38558828,100,Alt-Tempelhof Ecke Tempelhoferdamm,1965861_west,['A77'],
U-Bhf. Tempelhof,autobus,A77,1964884_west,"52.4698750992553, 13.38558705982547",,,,,,,,19641314.0
Thuyring Ecke Tempelhoferdamm,autobus,A77,1964885_west,"52.4748548,13.38574214",,52.4748548,13.38574214,100,Thuyring Ecke Tempelhoferdamm,1965863_west,['A77'],
Paradestr. Ecke Tempelhoferdamm,autobus,A77,1964886_west,"52.47819508,13.38582477",,52.47819508,13.38582477,100,Paradestr. Ecke Tempelhoferdamm,1965864_west,['A77'],
Bayernring Ecke Tempelhoferdamm,autobus,A77,1964887_west,"52.48160551,13.38587377",,52.48160551,13.38587377,100,Bayernring Ecke Tempelhoferdamm,1965865_west,['A77'],
Platz Der Luftbrücke,autobus,A77,1964888_west,"52.48500811,13.38598451",,52.48500811,13.38598451,100,Platz der Luftbrücke,1965866_west,['A77'],
Tropfsteinweg Ecke Quarz-Weg,autobus,A78,1964889_west,"52.42357623,13.41467087",,52.42357623,13.41467087,98,Tropfsteinweg Ecke Quarzweg,1965867_west,['A78'],
Tauernallee Ecke Grünsteinweg,autobus,A78,1964890_west,"52.42778803569573, 13.405261386322106",,,,,,,,19641232.0
Mariendorferdamm Ecke Tauernallee,autobus,A78,1964891_west,"52.42330592,13.39614258",,52.42330592,13.39614258,100,Mariendorferdamm Ecke Tauernallee,1965869_west,['A78'],
Rennbahn,autobus,A78,1964892_west,"52.43151989,13.39150823",,52.43151989,13.39150823,100,Rennbahn,1965870_west,['A78'],
Alt-Mariendorf Ecke Mariendorferdamm,autobus,A78,1964893_west,"52.4401947729646, 13.38731752606722","nan, nan",,,,,,,196429.0
Kaiserstr. Ecke Mariendorferdamm,autobus,A78,1964894_west,"52.44556286,13.38580057",,52.44556286,13.38580057,100,Kaiserstr. Ecke Mariendorferdamm,1965872_west,['A78'],
Burgemeisterstr. Ecke Tempelhoferdamm,autobus,A78,1964895_west,"52.45702094,13.38394001",,52.45702094,13.38394001,100,Burgemeisterstr. Ecke Tempelhoferdamm,1965873_west,['A78'],
Alt-Tempelhof Ecke Tempelhoferdamm,autobus,A78,1964896_west,"52.465964306830664, 13.38558297633417",nan+ nan+ nan,,,,,,,196436.0
U-Bhf. Tempelhof,autobus,A78,1964897_west,"52.4698750992553, 13.38558705982547",,,,,,,,19641314.0
Thuyring Ecke Tempelhofer,autobus,A78,1964898_west,"52.47483049488452, 13.385744440476032",,,,,,,,19641257.0
Bayernring Ecke Tempelhofer,autobus,A78,1964899_west,"52.48164004976185, 13.385828867118994",,,,,,,,196496.0
Leopoldplatz,autobus,A79,1964901_west,"52.54647397037027, 13.359233475022176",,,,,,,,1964708.0
Reinickendorferstr. Ecke Schulstr.,autobus,A79,1964904_west,"52.55156918,13.36734986",,52.55156918,13.36734986,100,Reinickendorferstr. Ecke Schulstr.,1965880_west,['A79'],
Osloerstr. Ecke Schwedenstr.,autobus,A79,1964906_west,"52.55665602,13.373863",,52.55665602,13.373863,100,Osloerstr. Ecke Schwedenstr.,1965881_west,['A79'],
