stop_name,type,line_name,stop_id,location,identifier,latitude,longitude,match_score,matched_name,matched_stop_id,matched_historical_lines,location_from
U-Bhf. Friedrichsfelde,omnibus,D,19460_unified,"52.50624112361932, 13.512853060220209",,,,,,,,1946567.0
Treskowallee,omnibus,D,19461_unified,"52.492776541825044, 13.526520070619169",,,,,,,,1946562.0
Warmbaderstr.,omnibus,D,19462_unified,"52.493415428017606, 13.54477394876985",,,,,,,,1946582.0
Biesdorf-Süd,omnibus,D,19463_unified,"52.49390691698614, 13.561942550423845",,,,,,,,194687.0
"Kaulsdorf-Süd, Zimmermannstr.",omnibus,D,19464_unified,"52.48662646660428, 13.560368748996797",,,,,,,,1946274.0
Ulmenstr.,omnibus,D,19465_unified,"52.48730877811447, 13.574932033917504",,,,,,,,1946570.0
"Mahlsdorf-Süd, Kohlisstr.",omnibus,D,19466_unified,"52.47546367962774, 13.599281537604181",,,,,,,,1946332.0
Akazienallee,omnibus,D,19467_unified,"52.47849809201335, 13.607179083668733",,,,,,,,19461.0
"Dahlwitz, Kol. Waldesruh",omnibus,D,19468_unified,"52.478269416919034, 13.62093701953678",,,,,,,,1946130.0
"Pichelsberg, Stössenseebrücke",ferry,Wannsee-Pichelsberg,19469_unified,"52.51277524075516, 13.213352077856104",,,,,,,,1946407.0
Kladow,ferry,Wannsee-Pichelsberg,194610_unified,"52.45151498638808, 13.147961938847912",,,,,,,,1946276.0
Wannsee,ferry,Wannsee-Pichelsberg,194611_unified,"52.421928022812146, 13.175815964118582",,,,,,,,1946580.0
Flughafen,omnibus,1,194612_unified,"52.470965141866394, 13.385641462324475",,,,,,,,1946151.0
Franz-Mehringstr.,omnibus,1,194613_unified,"52.49508128500466, 13.389323838894562",,,,,,,,1946158.0
Hallesches Tor,omnibus,1,194614_unified,"52.49794750808006, 13.391726405887525",,,,,,,,1946212.0
Lindenstr.,omnibus,1,194615_unified,"52.50113590948542, 13.394408948438224",,,,,,,,1946325.0
Jerusalemerstr.,omnibus,1,194616_unified,"52.50710477957293, 13.398277044768834",,,,,,,,1946257.0
Dönhoffplatz,omnibus,1,194617_unified,"52.51104121136219, 13.39862526380472",,,,,,,,1946138.0
Werderscher markt,omnibus,1,194618_unified,"52.515291776252226, 13.397165241076786",,,,,,,,1946596.0
Schloßplatz,omnibus,1,194619_unified,"52.516189104673394, 13.401870070751757",,,,,,,,1946476.0
Alexanderplatz,omnibus,1,194620_unified,"52.52005246558073, 13.413957243449447",,,,,,,,19462.0
Alexanderstr.,omnibus,1,194621_unified,"52.51778540833277, 13.418077932963259",,,,,,,,19466.0
Holzmarkstr.,omnibus,1,194622_unified,"52.51470310432635, 13.420502137148215",,,,,,,,1946240.0
Schlesischer Bahnhof,omnibus,1,194623_unified,"52.50976021619768, 13.436358877912049",,,,,,,,1946472.0
Am Schlesischen Bahnhof,omnibus,1,194624_unified,"52.511300751384205, 13.434689302904747",,,,,,,,194613.0
Fruchtstr.,omnibus,1,194625_unified,"52.5121233087592, 13.438416859495533",,,,,,,,1946172.0
Kürstrinerplatz,omnibus,1,194626_unified,"52.5137005363457, 13.43784219276966",,,,,,,,1946301.0
Frankfurterallee,omnibus,1,194627_unified,"52.51348352208039, 13.476830323062508",,,,,,,,1946153.0
Frankfurterallee Ecke Warschauerstr.,omnibus,1,194628_unified,"52.5158293510385, 13.453999993701924",,,,,,,,1946157.0
Frankfurterallee Ecke Gürtelstr.,omnibus,1,194629_unified,"52.51348326435681, 13.476984666930822",,,,,,,,1946156.0
Alt-Friedrichsfelde,omnibus,1,194630_unified,"52.51072943298707, 13.504877027235766",,,,,,,,19468.0
"Zehlendorf, Rathaus",omnibus,17,194633_unified,"52.433207520111885, 13.259531923613192",,,,,,,,1946628.0
Potsdamerchaussee,omnibus,17,194634_unified,"52.431000977609386, 13.229955507955582",,,,,,,,1946412.0
Bhf. Nikolassee,omnibus,17,194635_unified,"52.43378197004219, 13.193152057415048",,,,,,,,194676.0
Bhf. Wannsee,omnibus,17,194636_unified,"52.42151302311533, 13.17810256503659",,,,,,,,194683.0
Stölpchensee,omnibus,17,194637_unified,"52.409430239790396, 13.14381794619846",,,,,,,,1946539.0
"Steglitz, Rathaus",omnibus,5,194638_unified,"52.45646561335731, 13.322849067861537",,,,,,,,1946527.0
Schloßstr.,omnibus,5,194639_unified,"52.45269082659021, 13.313015618265792",,,,,,,,1946477.0
Unter den Eichen,omnibus,5,194640_unified,"52.44943362981936, 13.303860250639888",,,,,,,,1946571.0
Berlinerstr. Ecke Thielallee,omnibus,5,194641_unified,"52.44190329932344, 13.282795959916694",,,,,,,,194647.0
"Zehlendorf, Rathaus",omnibus,5,194642_unified,"52.433207520111885, 13.259531923613192",,,,,,,,1946628.0
Alexanderplatz,omnibus,9,194643_unified,"52.52005246558073, 13.413957243449447",,,,,,,,19462.0
Schloßplatz,omnibus,9,194644_unified,"52.516189104673394, 13.401870070751757",,,,,,,,1946476.0
Unter den Linden Ecke Friedrichstr.,omnibus,9,194645_unified,"52.517002154850104, 13.388838236105823",,,,,,,,1946573.0
Brandenburger Tor,omnibus,9,194646_unified,"52.51776764730101, 13.370281416321609",,,,,,,,194698.0
Charlottenburgerchaussee,omnibus,9,194647_unified,"52.513938592229856, 13.350204275572693",,,,,,,,1946120.0
"Charlottenburg, Knie",omnibus,9,194648_unified,"52.512535145950686, 13.321796492553819",,,,,,,,1946118.0
U-Bhf. Lichtenberg,omnibus,H,194649_unified,"52.511321113614606, 13.499329952959899",,,,,,,,1946568.0
Alt-Friedrichsfelde,omnibus,H,194650_unified,"52.51072943298707, 13.504877027235766",,,,,,,,19468.0
Alt-Biesdorf,omnibus,H,194651_unified,"52.508805788386496, 13.558724778261455",,,,,,,,19467.0
Alt-Kaulsdorf,omnibus,H,194652_unified,"52.50517404169193, 13.581539359412261",,,,,,,,194610.0
Bhf. Kaulsdorf,omnibus,H,194653_unified,"52.511553392977326, 13.587295035057858",,,,,,,,194666.0
Giesestr.,omnibus,H,194654_unified,"52.516082749660676, 13.598007724215872",,,,,,,,1946181.0
"Mahlsdorf, Zeppelinstr.",omnibus,H,194655_unified,"52.5140540358825, 13.61139730634821",,,,,,,,1946331.0
Bahnhof Mahlsdorf,omnibus,H,194656_unified,"52.512509114258, 13.612231040399239",,,,,,,,194627.0
Hönowerstr.,omnibus,H,194657_unified,"52.53004028967899, 13.626841841614464",,,,,,,,1946248.0
Hönow,omnibus,H,194658_unified,"52.54667360464534, 13.637391352821227",,,,,,,,1946247.0
Müggelheim,omnibus,27,194659_unified,"52.41018331064196, 13.665897531850348",,,,,,,,1946351.0
Müggelheimerdamm,omnibus,27,194660_unified,"52.42399604932065, 13.628973842179805",,,,,,,,1946352.0
"Köpenick, Krankenhaus",omnibus,27,194661_unified,"52.43861200573594, 13.592411258792163",,,,,,,,1946294.0
Gesundbrunnen,s-bahn,KBS 100,194662_unified,"52.548611111111,13.389444444444",Q111239092,,,,,,,1946179.0
Schönhauserallee,s-bahn,KBS 100,194663_unified,"52.549329,13.413706",Q111264493,,,,,,,1946487.0
Prenzlauerallee,s-bahn,KBS 100,194664_unified,"52.544775,13.426116",Q32661483,,,,,,,1946419.0
Greifswalderstr.,s-bahn,KBS 100,194665_unified,"52.539722222222,13.439444444444",Q439246,,,,,,,1946190.0
Frankfurterallee,s-bahn,KBS 100,194666_unified,"52.514166666667,13.474722222222",Q111250033,,,,,,,1946154.0
Ostkreuz,s-bahn,KBS 100,194667_unified,"52.5031,13.4689",Q111251530,,,,,,,1946389.0
Treptower Park,s-bahn,KBS 100,194668_unified,"52.4938,13.4618",Q559274,,,,,,,1946561.0
Sonnenallee,s-bahn,KBS 100,194669_unified,"52.473,13.4558",Q481364,,,,,,,1946506.0
Neukölln,s-bahn,KBS 100,194670_unified,"52.469166666667,13.441666666667",Q111325412,,,,,,,1946365.0
Hermannstr.,s-bahn,KBS 100,194671_unified,"52.4675,13.431111111111",Q111263802,,,,,,,1946226.0
Tempelhof,s-bahn,KBS 100,194672_unified,"52.4708,13.3854",Q111264368,,,,,,,1946552.0
Papestr.,s-bahn,KBS 100,194673_unified,"52.4756,13.3644",Q111323139,,,,,,,1946401.0
Schöneberg,s-bahn,KBS 100,194674_unified,"52.4794,13.3517",Q543855,,,,,,,1946483.0
Innsbruckerplatz,s-bahn,KBS 100,194675_unified,"52.4786,13.3439",Q111263876,,,,,,,1946249.0
Wilmersdorf,s-bahn,KBS 100,194676_unified,"52.477658333333,13.328525",Q464094,,,,,,,1946606.0
Schmargendorf,s-bahn,KBS 100,194677_unified,"52.479672222222,13.312441666667",Q302810,,,,,,,1946478.0
Hohenzollerndamm,s-bahn,KBS 100,194678_unified,"52.4885,13.3004",Q800503,,,,,,,1946237.0
Halensee,s-bahn,KBS 100,194679_unified,"52.4961,13.2906",Q800476,,,,,,,1946210.0
Westkreuz,s-bahn,KBS 100,194680_unified,"52.5011,13.2839",Q678125,,,,,,,1946599.0
Witzleben,s-bahn,KBS 100,194681_unified,"52.5078,13.2836",Q321266,,,,,,,1946618.0
Westend,s-bahn,KBS 100,194682_unified,"52.5181,13.2844",Q323214,,,,,,,1946598.0
Jungfernheide,s-bahn,KBS 100,194683_unified,"52.53035,13.299433333333",Q110977325,,,,,,,1946262.0
Beusselstr.,s-bahn,KBS 100,194684_unified,"52.534444444444,13.329166666667",Q323219,,,,,,,194655.0
Putlitzstr.,s-bahn,KBS 100,194685_unified,"52.536,13.344",Q465972,,,,,,,1946430.0
Wedding,s-bahn,KBS 100,194686_unified,"52.5425,13.3661",Q638604,,,,,,,1946587.0
Hermannstr.,s-bahn,KBS 100a,194687_unified,"52.4675,13.431111111111",Q111263802,,,,,,,1946226.0
Neukölln,s-bahn,KBS 100a,194688_unified,"52.469166666667,13.441666666667",Q111325412,,,,,,,1946365.0
Köllnische Heide,s-bahn,KBS 100a,194689_unified,"52.4694,13.4675",Q800505,,,,,,,1946290.0
Baumschulenweg,s-bahn,KBS 100a,194690_unified,"52.4675,13.489722",Q324336,,,,,,,194634.0
Schöneweide,s-bahn,KBS 100a,194691_unified,"52.455,13.509444444444",Q111323931,,,,,,,1946485.0
Betriebsbahnhof Schöneweide,s-bahn,KBS 100a,194692_unified,"52.44676,13.52391",Q4526101,,,,,,,194654.0
Adlershof,s-bahn,KBS 100a,194693_unified,"52.434722222222,13.541388888889",Q323551,,,,,,,19460.0
Grünau,s-bahn,KBS 100a,194694_unified,"52.4122,13.5746",Q111307258,,,,,,,1946201.0
Jungfernheide,s-bahn,KBS 100b,194695_unified,"52.53035,13.299433333333",Q110977325,,,,,,,1946262.0
Wernerwerk,s-bahn,KBS 100b,194696_unified,"52.534863,13.27599",Q96077001,,,,,,,1946597.0
Siemensstadt,s-bahn,KBS 100b,194697_unified,"52.53923,13.26365",Q96080453,,,,,,,1946504.0
Gartenfeld,s-bahn,KBS 100b,194698_unified,"52.54695,13.24882",Q96080469,,,,,,,1946177.0
Spandau,s-bahn,KBS 100c,194699_unified,"52.532, 13.2089",Q800491,,,,,,,1946511.0
Pichelsberg,s-bahn,KBS 100c,1946100_unified,"52.5103,13.2271",Q800488,,,,,,,1946406.0
Reichssportfeld,s-bahn,KBS 100c,1946101_unified,"52.511,13.2416",Q800506,,,,,,,1946441.0
Heerstr.,s-bahn,KBS 100c,1946102_unified,"52.5086,13.2586",Q800502,,,,,,,1946217.0
Eichkamp,s-bahn,KBS 100c,1946103_unified,"52.4987,13.2702",Q800504,,,,,,,1946141.0
Westkreuz,s-bahn,KBS 100c,1946104_unified,"52.5011,13.2839",Q678125,,,,,,,1946599.0
Charlottenburg,s-bahn,KBS 100c,1946105_unified,"52.504722222222,13.303333333333",Q111326217,,,,,,,1946117.0
Savignyplatz,s-bahn,KBS 100c,1946106_unified,"52.5051746,13.3190659",Q554382,,,,,,,1946467.0
Zoologischer Garten,s-bahn,KBS 100c,1946107_unified,"52.507222222222,13.3325",Q111326238,,,,,,,1946631.0
Tiergarten,s-bahn,KBS 100c,1946108_unified,"52.5144,13.3365",Q572112,,,,,,,1946557.0
Bellevue,s-bahn,KBS 100c,1946109_unified,"52.52,13.348055555556",Q374018,,,,,,,194637.0
Lehrter Stadtbahnhof,s-bahn,KBS 100c,1946110_unified,"52.5253,13.3694",Q821299,,,,,,,1946310.0
Friedrichstr.,s-bahn,KBS 100c,1946111_unified,"52.52027777777778,13.386944444444444",Q111219456,,,,,,,1946169.0
Börse,s-bahn,KBS 100c,1946112_unified,"52.5226,13.4022",Q689312,,,,,,,1946113.0
Alexanderplatz,s-bahn,KBS 100c,1946113_unified,"52.521388888889,13.411944444444",Q111324700,,,,,,,19463.0
Jannowitzbrücke,s-bahn,KBS 100c,1946114_unified,"52.514822222222,13.41795",Q27955427,,,,,,,1946254.0
Schlesischer Bahnhof,s-bahn,KBS 100c,1946115_unified,"52.51,13.4347",Q683239,,,,,,,1946473.0
Warschauerstr.,s-bahn,KBS 100c,1946116_unified,"52.506416666667,13.450955555556",Q111252298,,,,,,,1946585.0
Ostkreuz,s-bahn,KBS 100c,1946117_unified,"52.5031,13.4689",Q111251530,,,,,,,1946389.0
Treptower Park,s-bahn,KBS 100c,1946118_unified,"52.4938,13.4618",Q559274,,,,,,,1946561.0
Baumschulenweg,s-bahn,KBS 100c,1946119_unified,"52.4675,13.489722",Q324336,,,,,,,194634.0
Schöneweide,s-bahn,KBS 100c,1946120_unified,"52.455,13.509444444444",Q111323931,,,,,,,1946485.0
Betriebsbahnhof Schöneweide,s-bahn,KBS 100c,1946121_unified,"52.44676,13.52391",Q4526101,,,,,,,194654.0
Adlershof,s-bahn,KBS 100c,1946122_unified,"52.434722222222,13.541388888889",Q323551,,,,,,,19460.0
Grünau,s-bahn,KBS 100c,1946123_unified,"52.4122,13.5746",Q111307258,,,,,,,1946201.0
Schöneweide,s-bahn,KBS 100d,1946124_unified,"52.455,13.509444444444",Q111323931,,,,,,,1946485.0
Oberspree,s-bahn,KBS 100d,1946125_unified,"52.4525,13.5382",Q15192700,,,,,,,1946377.0
Spindlersfeld,s-bahn,KBS 100d,1946126_unified,"52.4472,13.5613",Q4892371,,,,,,,1946520.0
Bernau,s-bahn,KBS 103,1946127_unified,"52.6763,13.5931",Q479789,,,,,,,194651.0
Zepernick,s-bahn,KBS 103,1946128_unified,"52.6598,13.5342",Q801657,,,,,,,1946629.0
Röntgental,s-bahn,KBS 103,1946129_unified,"52.6487,13.5136",Q801386,,,,,,,1946463.0
Buch,s-bahn,KBS 103,1946130_unified,"52.6359,13.4917",Q4892359,,,,,,,1946105.0
Karow,s-bahn,KBS 103,1946131_unified,"52.615,13.4692",Q111324168,,,,,,,1946272.0
Blankenburg,s-bahn,KBS 103,1946132_unified,"52.5915,13.4435",Q800469,,,,,,,194691.0
Pankow-Heinersdorf,s-bahn,KBS 103,1946133_unified,"52.5780653,13.4295093",Q4892366,,,,,,,1946398.0
Pankow-Schönhausen,s-bahn,KBS 103,1946134_unified,"52.5667,13.4111",Q653775,,,,,,,1946399.0
Bornholmerstr.,s-bahn,KBS 103,1946135_unified,"52.554287,13.397985",Q32662318,,,,,,,194694.0
Gesundbrunnen,s-bahn,KBS 103,1946136_unified,"52.548611111111,13.389444444444",Q111239092,,,,,,,1946179.0
Humboldthain,s-bahn,KBS 103,1946137_unified,"52.5451,13.3796",Q481276,,,,,,,1946243.0
Stettiner Bahnhof,s-bahn,KBS 103,1946138_unified,"52.5319,13.3878",Q673721,,,,,,,1946530.0
Potsdamerplatz,s-bahn,KBS 103,1946139_unified,"52.5094,13.3766",Q106086519,,,,,,,1946413.0
Anhalter Bahnhof,s-bahn,KBS 103,1946140_unified,"52.503055555556,13.381944444444",Q111324573,,,,,,,194617.0
Yorckstr.,s-bahn,KBS 103,1946141_unified,"52.491777777778,13.372141666667",Q21776729,,,,,,,1946623.0
Papestr.,s-bahn,KBS 103,1946142_unified,"52.4756,13.3644",Q111323139,,,,,,,1946401.0
Priesterweg,s-bahn,KBS 103,1946143_unified,"52.4601,13.3563",Q800508,,,,,,,1946425.0
Südende,s-bahn,KBS 103,1946144_unified,"52.4481,13.3536",Q800511,,,,,,,1946543.0
Lankwitz,s-bahn,KBS 103,1946145_unified,"52.4386,13.3417",Q800481,,,,,,,1946306.0
Lichterfelde Ost,s-bahn,KBS 103,1946146_unified,"52.43,13.3289",Q111311299,,,,,,,1946319.0
Lichterfelde Süd,s-bahn,KBS 103,1946147_unified,"52.41,13.3086",Q800482,,,,,,,1946320.0
Oranienburg,s-bahn,KBS 104,1946148_unified,"52.7536,13.2496",Q2341669,,,,,,,1946379.0
Lehnitz,s-bahn,KBS 104,1946149_unified,"52.7411,13.2635",Q4258498,,,,,,,1946308.0
Borgsdorf,s-bahn,KBS 104,1946150_unified,"52.7155,13.2764",Q4093486,,,,,,,194693.0
Birkenwerder,s-bahn,KBS 104,1946151_unified,"52.6885,13.2888",Q2343634,,,,,,,194688.0
Hohen-Neuendorf,s-bahn,KBS 104,1946152_unified,"52.6684,13.287",Q4500489,,,,,,,1946233.0
Frohnau,s-bahn,KBS 104,1946153_unified,"52.6325,13.2902",Q800472,,,,,,,1946171.0
Hermsdorf,s-bahn,KBS 104,1946154_unified,"52.6178,13.3069",Q263189,,,,,,,1946229.0
Waidmannslust,s-bahn,KBS 104,1946155_unified,"52.6064,13.321",Q800492,,,,,,,1946578.0
Wittenau,s-bahn,KBS 104,1946156_unified,"52.597013,13.334329",Q111264319,,,,,,,1946615.0
Wilhelmsruh,s-bahn,KBS 104,1946157_unified,"52.5814,13.3631",Q800495,,,,,,,1946603.0
Schönholz,s-bahn,KBS 104,1946158_unified,"52.5714,13.3814",Q800490,,,,,,,1946493.0
Wollankstr.,s-bahn,KBS 104,1946159_unified,"52.5651525,13.3923627",Q800515,,,,,,,1946619.0
Bornholmerstr.,s-bahn,KBS 104,1946160_unified,"52.554287,13.397985",Q32662318,,,,,,,194694.0
Gesundbrunnen,s-bahn,KBS 104,1946161_unified,"52.548611111111,13.389444444444",Q111239092,,,,,,,1946179.0
Humboldthain,s-bahn,KBS 104,1946162_unified,"52.5451,13.3796",Q481276,,,,,,,1946243.0
Stettiner Bahnhof,s-bahn,KBS 104,1946163_unified,"52.5319,13.3878",Q673721,,,,,,,1946530.0
Friedrichstr.,s-bahn,KBS 104a,1946164_unified,"52.52027777777778,13.386944444444444",Q111219456,,,,,,,1946169.0
Unter den Linden,s-bahn,KBS 104a,1946165_unified,"52.516388888889,13.380833333333",Q477185,,,,,,,1946572.0
Potsdamerplatz,s-bahn,KBS 104a,1946166_unified,"52.5094,13.3766",Q106086519,,,,,,,1946413.0
Anhalter Bahnhof,s-bahn,KBS 104a,1946167_unified,"52.503055555556,13.381944444444",Q111324573,,,,,,,194617.0
Großgörschenstr.,s-bahn,KBS 104a,1946168_unified,"52.4922745,13.3678588",Q21776726,,,,,,,1946196.0
Schöneberg,s-bahn,KBS 104a,1946169_unified,"52.4794,13.3517",Q543855,,,,,,,1946483.0
Friedenau,s-bahn,KBS 104a,1946170_unified,"52.47,13.341",Q800471,,,,,,,1946163.0
Feuerbachstr.,s-bahn,KBS 104a,1946171_unified,"52.463611111111,13.332777777778",Q800501,,,,,,,1946150.0
Steglitz,s-bahn,KBS 104a,1946172_unified,"52.4562,13.3216",Q111264179,,,,,,,1946526.0
Botanischer Garten,s-bahn,KBS 104a,1946173_unified,"52.44806,13.30722",Q800498,,,,,,,194697.0
Lichterfelde West,s-bahn,KBS 104a,1946174_unified,"52.4433,13.2947",Q111327103,,,,,,,1946321.0
Sundgauerstr.,s-bahn,KBS 104a,1946175_unified,"52.436291,13.273772",Q800513,,,,,,,1946542.0
Zehlendorf,s-bahn,KBS 104a,1946176_unified,"52.4309,13.2584",Q737962,,,,,,,1946626.0
Zehlendorf West,s-bahn,KBS 104a,1946177_unified,"52.4375,13.2325",Q315891,,,,,,,1946627.0
Schlachtensee,s-bahn,KBS 104a,1946178_unified,"52.4401,13.2153",Q800509,,,,,,,1946471.0
Nikolassee,s-bahn,KBS 104a,1946179_unified,"52.4317,13.1933",Q637052,,,,,,,1946370.0
Wannsee,s-bahn,KBS 104a,1946180_unified,"52.4214,13.1792",Q111325896,,,,,,,1946581.0
Dreilinden,s-bahn,KBS 104a,1946181_unified,"52.40334210617422, 13.175963626814108",Q96473908,,,,,,,1946137.0
Velten,s-bahn,KBS 105,1946182_unified,"52.685,13.172222",Q19274518,,,,,,,1946574.0
Hohenschöpping,s-bahn,KBS 105,1946183_unified,"52.67,13.1945",Q19274489,,,,,,,1946236.0
Hennigsdorf,s-bahn,KBS 105,1946184_unified,"52.638,13.2057",Q800909,,,,,,,1946223.0
Heiligensee,s-bahn,KBS 105,1946185_unified,"52.6247,13.2292",Q800475,,,,,,,1946220.0
Schulzendorf,s-bahn,KBS 105,1946186_unified,"52.6128,13.2462",Q800487,,,,,,,1946480.0
Tegel,s-bahn,KBS 105,1946187_unified,"52.5886,13.2894",Q800493,,,,,,,1946544.0
Eichbornstr.,s-bahn,KBS 105,1946188_unified,"52.5776,13.3169",Q800500,,,,,,,1946140.0
Wittenau,s-bahn,KBS 105,1946189_unified,"52.597013,13.334329",Q111264319,,,,,,,1946615.0
Reinickendorf,s-bahn,KBS 105,1946190_unified,"52.5779,13.3506",Q800496,,,,,,,1946442.0
Schönholz,s-bahn,KBS 105,1946191_unified,"52.5714,13.3814",Q800490,,,,,,,1946493.0
Wollankstr.,s-bahn,KBS 105,1946192_unified,"52.5651525,13.3923627",Q800515,,,,,,,1946619.0
Bornholmerstr.,s-bahn,KBS 105,1946193_unified,"52.554287,13.397985",Q32662318,,,,,,,194694.0
Gesundbrunnen,s-bahn,KBS 105,1946194_unified,"52.548611111111,13.389444444444",Q111239092,,,,,,,1946179.0
Humboldthain,s-bahn,KBS 105,1946195_unified,"52.5451,13.3796",Q481276,,,,,,,1946243.0
Stettiner Bahnhof,s-bahn,KBS 105,1946196_unified,"52.5319,13.3878",Q673721,,,,,,,1946530.0
Potsdamerplatz,s-bahn,KBS 105a,1946197_unified,"52.5094,13.3766",Q106086519,,,,,,,1946413.0
Anhalter Bahnhof,s-bahn,KBS 105a,1946198_unified,"52.503055555556,13.381944444444",Q111324573,,,,,,,194617.0
Yorckstr.,s-bahn,KBS 105a,1946199_unified,"52.491777777778,13.372141666667",Q21776729,,,,,,,1946623.0
Papestr.,s-bahn,KBS 105a,1946200_unified,"52.4756,13.3644",Q111323139,,,,,,,1946401.0
Priesterweg,s-bahn,KBS 105a,1946201_unified,"52.4601,13.3563",Q800508,,,,,,,1946425.0
Mariendorf,s-bahn,KBS 105a,1946202_unified,"52.4478,13.3609",Q800497,,,,,,,1946334.0
Marienfelde,s-bahn,KBS 105a,1946203_unified,"52.4242,13.3747",Q800485,,,,,,,1946338.0
Buckower Ch.,s-bahn,KBS 105a,1946204_unified,"52.4103,13.3829",Q800499,,,,,,,1946109.0
Lichtenrade,s-bahn,KBS 105a,1946205_unified,"52.3876,13.3963",Q6543354,,,,,,,1946317.0
Mahlow,s-bahn,KBS 105a,1946206_unified,"52.3602,13.4085",Q2641431,,,,,,,1946330.0
Dahlewitz,s-bahn,KBS 105a,1946207_unified,"52.326389,13.419722",Q5208886,,,,,,,1946129.0
Rangsdorf,s-bahn,KBS 105a,1946208_unified,"52.294444,13.430278",Q801345,,,,,,,1946433.0
Potsdam,s-bahn,KBS 101,1946209_unified,"52.3917,13.0667",Q647973,,,,,,,1946411.0
Babelsberg,s-bahn,KBS 101,1946210_unified,"52.3914,13.0928",Q801326,,,,,,,194622.0
Griebnitzsee,s-bahn,KBS 101,1946211_unified,"52.3944,13.1272",Q315133,,,,,,,1946195.0
Wannsee,s-bahn,KBS 101,1946212_unified,"52.4214,13.1792",Q111325896,,,,,,,1946581.0
Nikolassee,s-bahn,KBS 101,1946213_unified,"52.4317,13.1933",Q637052,,,,,,,1946370.0
Grunewald,s-bahn,KBS 101,1946214_unified,"52.4892,13.2614",Q457266,,,,,,,1946197.0
Westkreuz,s-bahn,KBS 101,1946215_unified,"52.5011,13.2839",Q678125,,,,,,,1946599.0
Charlottenburg,s-bahn,KBS 101,1946216_unified,"52.504722222222,13.303333333333",Q111326217,,,,,,,1946117.0
Savignyplatz,s-bahn,KBS 101,1946217_unified,"52.5051746,13.3190659",Q554382,,,,,,,1946467.0
Zoologischer Garten,s-bahn,KBS 101,1946218_unified,"52.507222222222,13.3325",Q111326238,,,,,,,1946631.0
Tiergarten,s-bahn,KBS 101,1946219_unified,"52.5144,13.3365",Q572112,,,,,,,1946557.0
Bellevue,s-bahn,KBS 101,1946220_unified,"52.52,13.348055555556",Q374018,,,,,,,194637.0
Lehrter Stadtbahnhof,s-bahn,KBS 101,1946221_unified,"52.5253,13.3694",Q821299,,,,,,,1946310.0
Friedrichstr.,s-bahn,KBS 101,1946222_unified,"52.52027777777778,13.386944444444444",Q111219456,,,,,,,1946169.0
Börse,s-bahn,KBS 101,1946223_unified,"52.5226,13.4022",Q689312,,,,,,,1946113.0
Alexanderplatz,s-bahn,KBS 101,1946224_unified,"52.521388888889,13.411944444444",Q111324700,,,,,,,19463.0
Jannowitzbrücke,s-bahn,KBS 101,1946225_unified,"52.514822222222,13.41795",Q27955427,,,,,,,1946254.0
Schlesischer Bahnhof,s-bahn,KBS 101,1946226_unified,"52.51,13.4347",Q683239,,,,,,,1946473.0
Warschauerstr.,s-bahn,KBS 101,1946227_unified,"52.506416666667,13.450955555556",Q111252298,,,,,,,1946585.0
Ostkreuz,s-bahn,KBS 101,1946228_unified,"52.5031,13.4689",Q111251530,,,,,,,1946389.0
Neu-Lichtenberg,s-bahn,KBS 101,1946229_unified,"52.5022,13.4856",Q1284120,,,,,,,1946361.0
Lichtenberg,s-bahn,KBS 101,1946230_unified,"52.5106,13.4964",Q634247,,,,,,,1946314.0
Friedrichsfelde Ost,s-bahn,KBS 101,1946231_unified,"52.5141,13.5198",Q800473,,,,,,,1946168.0
Biesdorf,s-bahn,KBS 101,1946232_unified,"52.5131,13.5554",Q4892357,,,,,,,194686.0
Kaulsdorf,s-bahn,KBS 101,1946233_unified,"52.5121,13.5904",Q800478,,,,,,,1946273.0
Hackescher Markt,tram,1,1946234_unified,"52.522700593509725, 13.401605863643521",Q65094590,,,,,,,1946206.0
Rosenthalerstr.,tram,1,1946235_unified,"52.526863056079485, 13.403424759115316",,,,,,,,1946459.0
Rosenthalerplatz,tram,1,1946236_unified,"52.5301769,13.4016121",Q65093945,,,,,,,1946457.0
Invalidenstr.,tram,1,1946237_unified,"52.5324542,13.3974236",Q65691740,,,,,,,1946252.0
Stettiner Bhf.,tram,1,1946238_unified,"52.531658,13.3887147",Q65697896,,,,,,,1946531.0
Friedrichstr.,tram,1,1946239_unified,"52.51986268004412, 13.388183618668693",,,,,,,,1946170.0
Weidendammbrücke,tram,1,1946240_unified,"52.52180915595045, 13.38803351210133",,,,,,,,1946589.0
Prinz-Louis-Ferdinandstr.,tram,1,1946241_unified,"52.52067652539613, 13.389902051315714",,,,,,,,1946426.0
Dorotheenstr.,tram,1,1946242_unified,"52.518718761338874, 13.388522669782862",,,,,,,,1946136.0
Hindenburgplatz,tram,1,1946243_unified,"52.516248900919734, 13.376820910193624",,,,,,,,1946232.0
Potsdamerplatz,tram,1,1946244_unified,"52.50948236131137, 13.375988156399634",,,,,,,,1946414.0
Anhalter Bahnhof,tram,1,1946245_unified,"52.50453275122, 13.382326534592197",,,,,,,,194618.0
Wiebestr.,tram,21,1946246_unified,"52.52581092392458, 13.318056678375148",,,,,,,,1946600.0
Thälmannstr. Ecke Waldstr.,tram,21,1946247_unified,"52.52721009570157, 13.33057857169393",,,,,,,,1946556.0
Rathenowerstr.,tram,21,1946248_unified,"52.52356,13.35779",Q121863902,,,,,,,1946436.0
Alt-Moabit,tram,21,1946249_unified,"52.522953428732706, 13.363110996619637",,,,,,,,194611.0
Moltkebrücke,tram,21,1946250_unified,"52.5219128570478, 13.368763129040833",,,,,,,,1946345.0
Lehrter Bhf.,tram,21,1946251_unified,"52.52343504003177, 13.37053213445337",,,,,,,,1946309.0
Moltkestr.,tram,21,1946252_unified,"52.52091870811496, 13.370522595212249",,,,,,,,1946346.0
Fürst-Bismarckstr.,tram,21,1946253_unified,"52.52081005309171, 13.372234861490762",,,,,,,,1946173.0
Königsplatz,tram,21,1946254_unified,"52.518581320085175, 13.37089835391381",,,,,,,,1946291.0
Hindenburgplatz,tram,21,1946255_unified,"52.516248900919734, 13.376820910193624",,,,,,,,1946232.0
Potsdamerplatz,tram,21,1946256_unified,"52.50948236131137, 13.375988156399634",,,,,,,,1946414.0
Anhalter Bhf.,tram,21,1946257_unified,"52.50449054956299, 13.382289924849571",,,,,,,,194619.0
Rosenthal,tram,23,1946258_unified,"52.598664,13.3726652",Q65364041,,,,,,,1946456.0
Reichskanzlerdamm,tram,23,1946259_unified,"52.588585153873055, 13.388316972877895",,,,,,,,1946437.0
Bismarckplatz,tram,23,1946260_unified,"52.57979168986186, 13.398319596978663",,,,,,,,194689.0
Grabbeallee,tram,23,1946261_unified,"52.57107235599751, 13.39822592061002",,,,,,,,1946189.0
"Pankow, Schönholzerstr.",tram,23,1946262_unified,"52.5694372959097, 13.400975893487843",,,,,,,,1946395.0
Wollankstr.,tram,23,1946263_unified,"52.56711840042508, 13.397494001474454",,,,,,,,1946620.0
Wollankstr. Ecke Brehmestr.,tram,23,1946264_unified,"52.565015564441026, 13.39428238792138",,,,,,,,1946621.0
Prinzenallee Ecke Brehmestr.,tram,23,1946265_unified,"52.55964584409222, 13.386994425763648",,,,,,,,1946427.0
Pankstr.,tram,23,1946266_unified,"52.55232052700631, 13.381594396575924",,,,,,,,1946400.0
Nettelbeckplatz,tram,23,1946267_unified,"52.54423653105294, 13.369853072459598",,,,,,,,1946360.0
Reinickendorferstr.,tram,23,1946268_unified,"52.54031997084383, 13.36977195492272",,,,,,,,1946448.0
Weddingplatz,tram,23,1946269_unified,"52.54152535588228, 13.369198549039789",,,,,,,,1946588.0
Fennstr.,tram,23,1946270_unified,"52.54108945864209, 13.368519561996605",,,,,,,,1946149.0
Warschauerstr.,tram,4,1946272_unified,"52.50502,13.44863",Q63490275,,,,,,,1946586.0
Baltenplatz,tram,4,1946273_unified,"52.519215,13.4525257",Q65706258,,,,,,,194632.0
Elbingerstr. Ecke Lansbergerallee,tram,4,1946274_unified,"52.5264128560996, 13.447642432361302",,,,,,,,1946142.0
Elbingerstr. Ecke Prenzelauerallee,tram,4,1946275_unified,"52.5396522,13.4244789",Q65222180,,,,,,,1946143.0
Danzigerstr. Ecke Schönhauserallee,tram,4,1946276_unified,"52.54104742454958, 13.412165003566182",,,,,,,,1946133.0
Bernauerstr. Ecke Brunnenstr.,tram,4,1946277_unified,"52.5382797167537, 13.39603248653666",,,,,,,,194653.0
Strelitzerstr.,tram,4,1946278_unified,"52.5388670480441, 13.391881284856476",,,,,,,,1946536.0
"Schönberg, Wartburgplatz",tram,6,1946279_unified,"52.48749215907796, 13.34511332295929",,,,,,,,1946482.0
Mühlenstr. Ecke Hauptstr.,tram,6,1946280_unified,"52.48181095333424, 13.348363136513548",,,,,,,,1946355.0
Bhf. Schöneberg,tram,6,1946281_unified,"52.479867391229774, 13.352797522353837",,,,,,,,194680.0
Sachsendamm,tram,6,1946282_unified,"52.47447878567379, 13.361479342511561",,,,,,,,1946465.0
Bhf. Papestr.,tram,6,1946283_unified,"52.474088737380455, 13.363804736501839",,,,,,,,194678.0
"Tempelhof, Schönebergerstr.",tram,6,1946284_unified,"52.471120701376066, 13.369557043504239",,,,,,,,1946553.0
Dorfstr.,tram,6,1946285_unified,"52.46605116645637, 13.37863626316366",,,,,,,,1946134.0
Dorfstr. Ecke Berlinerstr.,tram,6,1946286_unified,"52.46590130350415, 13.38556580514773",,,,,,,,1946135.0
Germaniastr.,tram,6,1946287_unified,"52.46053782557012, 13.418009045149528",,,,,,,,1946178.0
Gottlieb-Dunkelstr.,tram,6,1946288_unified,"52.46039602352925, 13.418101877605094",,,,,,,,1946187.0
Mariendorferweg,tram,6,1946289_unified,"52.46469434328643, 13.432932867671957",,,,,,,,1946336.0
Knesebeckstr.,tram,6,1946291_unified,"52.4668944843566, 13.435710471027722",,,,,,,,1946279.0
Bhf. Neukölln,tram,6,1946292_unified,"52.469429556071695, 13.441761396090287",,,,,,,,194675.0
Bergstr.,tram,6,1946293_unified,"52.48084525434906, 13.435357975110138",,,,,,,,194638.0
Erkstr.,tram,6,1946294_unified,"52.481710013190636, 13.440170901917053",,,,,,,,1946145.0
Wildenbruchstr.,tram,6,1946295_unified,"52.48639151839982, 13.446372622487623",,,,,,,,1946601.0
"Treptow, Elsenstr.",tram,6,1946296_unified,"52.493944205822736, 13.460794560225086",,,,,,,,1946559.0
"Seestr., Friedhöfe",tram,8,1946297_unified,"52.552703555448296, 13.356287088477963",,,,,,,,1946501.0
Seestr. Ecke Müllerstr.,tram,8,1946298_unified,"52.55044753588031, 13.351974539230612",,,,,,,,1946500.0
Seestr. Ecke Markstr.,tram,8,1946299_unified,"52.55695074879838, 13.365622304450374",,,,,,,,1946499.0
Osloerstr.,tram,8,1946300_unified,"52.5570174,13.3659987",Q65767112,,,,,,,1960859.0
Osloerstr. Ecke Prinzenallee,tram,8,1946301_unified,"52.5559072,13.3837614",Q65807451,,,,,,,1946385.0
Bornholmerstr.,tram,8,1946302_unified,"52.5537705,13.4138898",,,,,,,,194695.0
Bhf. Bornholmerstr.,tram,8,1946303_unified,"52.5548305,13.3962829",Q65676177,,,,,,,194657.0
Bornholmerstr. Ecke Schönhauserallee,tram,8,1946304_unified,"52.5537705,13.4138898",Q65076842,,,,,,,194696.0
Wisbyerstr. Ecke Bornholmerstr.,tram,8,1946305_unified,"52.553741695351356, 13.4145195643564",,,,,,,,1946613.0
Wisbyerstr. Ecke Prenzlauerallee,tram,8,1946306_unified,"52.55125006657356, 13.430221096230662",,,,,,,,1946614.0
Gustav-Adolfstr. Ecke Langhansstr.,tram,8,1946307_unified,"52.5536867,13.4343757",Q65922653,,,,,,,1946202.0
"Berlinerallee, Antonplatz",tram,8,1946308_unified,"52.5484803,13.4517416",Q65548849,,,,,,,194641.0
Weißenseerweg Ecke Hohenschönhauserstr.,tram,8,1946310_unified,"52.53611350861865, 13.47352780887088",,,,,,,,1946593.0
"Lichtenberg, Röderplatz",tram,8,1946311_unified,"52.5266001,13.479068",Q65685373,,,,,,,1946315.0
Möllendorffstr. Ecke Scheffelstr.,tram,8,1946312_unified,"52.52073451226056, 13.480334590663476",,,,,,,,1946350.0
Gürtelstr. Ecke Frankfurterallee,tram,8,1946313_unified,"52.5135267127755, 13.477083855609834",,,,,,,,1946205.0
Türschmidtstr. Ecke Karlshorsterstr.,tram,13,1946314_unified,"52.50267191175726, 13.475443912447263",,,,,,,,1946565.0
Köpenickerchaussee,tram,13,1946315_unified,"52.49227064042966, 13.49157012299555",,,,,,,,1946297.0
Kraftwerk Klingenberg,tram,13,1946316_unified,"52.4881374,13.4958685",Q66079524,,,,,,,1946284.0
Gotzkowskystr.,tram,3,1946317_unified,"52.52567490695968, 13.330198327307098",,,,,,,,1946188.0
Thälmannstr. Ecke Beusselstr.,tram,3,1946318_unified,"52.52442677095412, 13.327514575012643",,,,,,,,1946555.0
Kaiserin-Augusta-Allee Ecke Tauroggenerstr.,tram,3,1946319_unified,"52.52584246725217, 13.301966640315474",,,,,,,,1946267.0
Berlinerstr. Ecke Wilmersdorferstr.,tram,3,1946320_unified,"52.51811270120716, 13.304464937779839",,,,,,,,194649.0
Wilmerdorferstr.,tram,3,1946321_unified,"52.51152325911662, 13.305167369267663",,,,,,,,1946605.0
Wilmersdorferstr. Ecke Kantstr.,tram,3,1946322_unified,"52.506693329632505, 13.306673473535692",,,,,,,,1946610.0
Wilmersdorferstr. Ecke Kurfürstendamm,tram,3,1946323_unified,"52.500032680363084, 13.307221456574052",,,,,,,,1946611.0
Brandenburgischestr.,tram,3,1946324_unified,"52.50008221195205, 13.306978939890724",,,,,,,,194699.0
Fehrbellinerplatz,tram,3,1946325_unified,"52.49032472677901, 13.314317300484289",,,,,,,,1946147.0
Berlinerstr. Ecke Kaiserallee,tram,3,1946326_unified,"52.487339334357976, 13.3309375952067",,,,,,,,194645.0
Bayerischerplatz,tram,3,1946327_unified,"52.48857550103818, 13.340030405284534",,,,,,,,194635.0
Grunewaldstr.,tram,3,1946328_unified,"52.489099571674906, 13.344928521367574",,,,,,,,1946199.0
Goltzstr.,tram,3,1946329_unified,"52.48987556540933, 13.353165536219167",,,,,,,,1946186.0
Winterfeldtplatz,tram,3,1946330_unified,"52.49469570502408, 13.355296138762895",,,,,,,,1946612.0
Pallasstr.,tram,3,1946331_unified,"52.49433531886079, 13.361034439138953",,,,,,,,1946390.0
Pallasstr. Ecke Potsdamerstr.,tram,3,1946332_unified,"52.49439853450471, 13.361087669638948",,,,,,,,1946391.0
Goebenstr.,tram,3,1946333_unified,"52.493927894212824, 13.36386105025039",,,,,,,,1946185.0
Yorckstr.,tram,3,1946334_unified,"52.492901206042376, 13.387766831697483",,,,,,,,1946624.0
Yorckstr. Ecke Franz-Mehringstr.,tram,3,1946335_unified,"52.49291034594189, 13.387669618853648",,,,,,,,1946625.0
Gneisenausstr.,tram,3,1946336_unified,"52.49118173025337, 13.396394305880412",,,,,,,,1946183.0
Gardepionierplatz,tram,3,1946337_unified,"52.48915625862438, 13.407771678016932",,,,,,,,1946175.0
Buchholz,tram,24,1946338_unified,"52.619072064369824, 13.393383358408967",,,,,,,,1946106.0
Pasewalkerstr.,tram,24,1946339_unified,"52.57798821745791, 13.428766545985715",,,,,,,,1946402.0
Bhf. Pankow-Heinersdorf,tram,24,1946340_unified,"52.5777355,13.4281593",Q66195804,,,,,,,194677.0
"Pankow, Damerowstr.",tram,24,1946341_unified,"52.57340426550783, 13.422144089868961",,,,,,,,1946394.0
Breitestr. Ecke Berlinerstr.,tram,24,1946342_unified,"52.57099160012513, 13.40999970857956",,,,,,,,1946100.0
Wollankstr. Ecke Schönholzerstr.,tram,24,1946343_unified,"52.569361555018446, 13.401120706787669",,,,,,,,1946622.0
Wollankstr. Ecke Brehmestr.,tram,24,1946344_unified,"52.565015564441026, 13.39428238792138",,,,,,,,1946621.0
Prinzenallee Ecke Osloerstr.,tram,24,1946345_unified,"52.5559072,13.3837614",Q65807451,,,,,,,1946428.0
Badstr. Ecke Pankstr.,tram,24,1946346_unified,"52.55227848989899, 13.381428333797949",,,,,,,,194623.0
"Brunnenstr., Gesundbrunnen",tram,24,1946347_unified,"52.54842580988483, 13.388018631243888",,,,,,,,1946104.0
Ramlerstr.,tram,24,1946348_unified,"52.5471348687247, 13.389120500428692",,,,,,,,1946432.0
"Tegel, Alt-Tegel",tram,25,1946349_unified,"52.589904229457645, 13.283306953160388",,,,,,,,1946545.0
Berlinerstr. Ecke Seidelstr.,tram,25,1946350_unified,"52.576294689156825, 13.294656859060982",,,,,,,,194650.0
"Reinickendorf, Scharnweberstr.",tram,25,1946351_unified,"52.567938584320565, 13.311990398863685",,,,,,,,1946445.0
Scharnweberstr. Ecke Berlinerstr.,tram,25,1946352_unified,"52.564054479214924, 13.327868562561564",,,,,,,,1946468.0
Müllerstr.,tram,25,1946353_unified,"52.55973735325193, 13.335642683090738",,,,,,,,1946356.0
Müllerstr. Ecke Seestr.,tram,25,1946354_unified,"52.55047126275597, 13.351995203728084",,,,,,,,1946357.0
Togostr.,tram,25,1946355_unified,"52.54874688145034, 13.348527917135552",,,,,,,,1946558.0
Buckow,tram,27,1946356_unified,"52.42355261827082, 13.436838614074265",,,,,,,,1946107.0
Buckowerchaussee,tram,27,1946357_unified,"52.43210375221334, 13.435048135233718",,,,,,,,1946110.0
Chauseestr. Ecke Blaschkoallee,tram,27,1946358_unified,"52.452665402462785, 13.438541176798315",,,,,,,,1946122.0
Hermannstr.,tram,27,1946359_unified,"52.46476232618638, 13.432818109719008",,,,,,,,1946227.0
Bhf. Hermannstr.,tram,27,1946360_unified,"52.4678315178447, 13.431116763350932",,,,,,,,194664.0
Hermannstr. Ecke Leinestr.,tram,27,1946361_unified,"52.473415687320596, 13.42814231816192",,,,,,,,1946228.0
"Neukölln, Steinmetzstr.",tram,27,1946362_unified,"52.472875143270436, 13.42842218641741",,,,,,,,1946366.0
Tegelort,tram,28,1946363_unified,"52.573270025049354, 13.229152131350883",,,,,,,,1946550.0
Conradshöherchaussee,tram,28,1946364_unified,"52.58905755725733, 13.240889150790816",,,,,,,,1946126.0
Tegeler Forst,tram,28,1946365_unified,"52.599866426938775, 13.25206293052063",,,,,,,,1946548.0
Conradshöherchaussee Ecke Carolinenstr.,tram,28,1946366_unified,"52.59789482528517, 13.275115353233018",,,,,,,,1946127.0
"Tegel, Schloßstr.",tram,28,1946367_unified,"52.59385577804168, 13.280849504455242",,,,,,,,1946546.0
Berlinerstr. Ecke Seidelstr.,tram,28,1946368_unified,"52.576294689156825, 13.294656859060982",,,,,,,,194650.0
"Reinickendorf, Scharnweberstr.",tram,28,1946369_unified,"52.567938584320565, 13.311990398863685",,,,,,,,1946445.0
Scharnweberstr. Ecke Berlinerstr.,tram,28,1946370_unified,"52.564054479214924, 13.327868562561564",,,,,,,,1946468.0
Müllerstr.,tram,28,1946371_unified,"52.55973735325193, 13.335642683090738",,,,,,,,1946356.0
Müllerstr. Ecke Seestr.,tram,28,1946372_unified,"52.55047126275597, 13.351995203728084",,,,,,,,1946357.0
Iranischestr. Ecke Reinickendorferstr.,tram,28,1946373_unified,"52.55505275926564, 13.365961269070542",,,,,,,,1946253.0
Exerzierstr.,tram,28,1946374_unified,"52.55374755712111, 13.377246753472674",,,,,,,,1946146.0
Badstrassse,tram,28,1946375_unified,"52.54862880712163, 13.387940970243234",,,,,,,,194625.0
Badstr. Ecke Pankstrassse,tram,28,1946376_unified,"52.5523075512431, 13.381391516100862",,,,,,,,194624.0
"Brunnenstr., Gesundbrunnen",tram,28,1946377_unified,"52.54842580988483, 13.388018631243888",,,,,,,,1946104.0
Brunnenstr.,tram,28,1946378_unified,"52.5324542,13.3974236",Q65691740,,,,,,,1946103.0
Ramlerstr.,tram,28,1946379_unified,"52.5471348687247, 13.389120500428692",,,,,,,,1946432.0
Heiligensee,tram,128,1946380_unified,"52.611249613775165, 13.217475242109284",,,,,,,,1946221.0
Kirschallee,tram,128,1946381_unified,"52.60258075932391, 13.238750616951076",,,,,,,,1946275.0
Tegeler Forst,tram,128,1946382_unified,"52.599866426938775, 13.25206293052063",,,,,,,,1946548.0
Carolinenstr. Ecke Conradshöherchaussee,tram,128,1946383_unified,"52.597963503369265, 13.275045981437504",,,,,,,,1946115.0
"Tegel, Schloßstr.",tram,128,1946384_unified,"52.59385577804168, 13.280849504455242",,,,,,,,1946546.0
Berlinerstr. Ecke Seidelstr.,tram,128,1946385_unified,"52.576294689156825, 13.294656859060982",,,,,,,,194650.0
"Reinickendorf, Scharnweberstr.",tram,128,1946386_unified,"52.567938584320565, 13.311990398863685",,,,,,,,1946445.0
Scharnweberstr. Ecke Berlinerstr.,tram,128,1946387_unified,"52.564054479214924, 13.327868562561564",,,,,,,,1946468.0
Müllerstr.,tram,128,1946388_unified,"52.55973735325193, 13.335642683090738",,,,,,,,1946356.0
Müllerstr. Ecke Seestr.,tram,128,1946389_unified,"52.55047126275597, 13.351995203728084",,,,,,,,1946357.0
Iranischestr. Ecke Reinickendorferstr.,tram,128,1946390_unified,"52.55505275926564, 13.365961269070542",,,,,,,,1946253.0
Exerzierstr.,tram,128,1946391_unified,"52.55374755712111, 13.377246753472674",,,,,,,,1946146.0
Badstrassse,tram,128,1946392_unified,"52.54862880712163, 13.387940970243234",,,,,,,,194625.0
Badstr. Ecke Pankstrassse,tram,128,1946393_unified,"52.5523075512431, 13.381391516100862",,,,,,,,194624.0
"Brunnenstr., Gesundbrunnen",tram,128,1946394_unified,"52.54842580988483, 13.388018631243888",,,,,,,,1946104.0
Brunnenstr.,tram,128,1946395_unified,"52.5324542,13.3974236",Q65691740,,,,,,,1946103.0
Ramlerstr.,tram,128,1946396_unified,"52.5471348687247, 13.389120500428692",,,,,,,,1946432.0
"Tegel, Alt-Tegel",tram,41,1946397_unified,"52.589904229457645, 13.283306953160388",,,,,,,,1946545.0
Berlinerstr. Ecke Seidelstr.,tram,41,1946398_unified,"52.576294689156825, 13.294656859060982",,,,,,,,194650.0
"Reinickendorf, Scharnweberstr.",tram,41,1946399_unified,"52.567938584320565, 13.311990398863685",,,,,,,,1946445.0
"Reinickendorf-West, Berlinerstr.",tram,41,1946400_unified,"52.56406869437813, 13.327834537507654",,,,,,,,1946447.0
Humboldtstr.,tram,41,1946401_unified,"52.57114181127418, 13.33691826709435",,,,,,,,1946244.0
Humboldtstr. Ecke Berlinerstr.,tram,41,1946402_unified,"52.56934226500555, 13.329932575290279",,,,,,,,1946245.0
"Reinickendorf-Ost, Hauptstr.",tram,41,1946403_unified,"52.57506440929674, 13.352281003125478",,,,,,,,1946446.0
Hauptstr. Ecke Residenzstr.,tram,41,1946404_unified,"52.57425115897413, 13.359165566408976",,,,,,,,1946216.0
Markstr.,tram,41,1946405_unified,"52.56287187492626, 13.364542514645981",,,,,,,,1946340.0
Oskarplatz,tram,41,1946406_unified,"52.5570174,13.3659987",Q65767112,,,,,,,1946384.0
Reinickendorferstr.,tram,41,1946407_unified,"52.54031997084383, 13.36977195492272",,,,,,,,1946448.0
Reinickendorferstr. Ecke Iranischestr.,tram,41,1946408_unified,"52.55506396501877, 13.365910457558154",,,,,,,,1946450.0
Exerzierstr.,tram,41,1946409_unified,"52.55374755712111, 13.377246753472674",,,,,,,,1946146.0
Badstrassse,tram,41,1946410_unified,"52.54862880712163, 13.387940970243234",,,,,,,,194625.0
Badstr. Ecke Pankstrassse,tram,41,1946411_unified,"52.5523075512431, 13.381391516100862",,,,,,,,194624.0
"Brunnenstr., Gesundbrunnen",tram,41,1946412_unified,"52.54842580988483, 13.388018631243888",,,,,,,,1946104.0
Ramlerstr.,tram,41,1946413_unified,"52.5471348687247, 13.389120500428692",,,,,,,,1946432.0
"Wilhelmsruh, Hauptstr.",tram,141,1946414_unified,"52.59724375258745, 13.375518833120681",,,,,,,,1946604.0
Kopenhagenerstr.,tram,141,1946415_unified,"52.57425957923555, 13.359163922630154",,,,,,,,1946282.0
"Reinickendorf, Residenzstr.",tram,141,1946416_unified,"52.57582595662085, 13.34785112535354",,,,,,,,1946444.0
Residenzstr. Ecke Hauptstr.,tram,141,1946417_unified,"52.57424536432287, 13.35918599675858",,,,,,,,1946452.0
Marktstr.,tram,141,1946418_unified,"52.56278268494771, 13.36447387353836",,,,,,,,1946341.0
Oskarplatz,tram,141,1946419_unified,"52.5570174,13.3659987",Q65767112,,,,,,,1946384.0
Reinickendorferstr.,tram,141,1946420_unified,"52.54031997084383, 13.36977195492272",,,,,,,,1946448.0
Reinickendorferstr. Ecke Iranischestr.,tram,141,1946421_unified,"52.55506396501877, 13.365910457558154",,,,,,,,1946450.0
Exerzierstr.,tram,141,1946422_unified,"52.55374755712111, 13.377246753472674",,,,,,,,1946146.0
Badstrassse,tram,141,1946423_unified,"52.54862880712163, 13.387940970243234",,,,,,,,194625.0
Badstr. Ecke Pankstrassse,tram,141,1946424_unified,"52.5523075512431, 13.381391516100862",,,,,,,,194624.0
"Brunnenstr., Gesundbrunnen",tram,141,1946425_unified,"52.54842580988483, 13.388018631243888",,,,,,,,1946104.0
Ramlerstr.,tram,141,1946426_unified,"52.5471348687247, 13.389120500428692",,,,,,,,1946432.0
Nordend,tram,47,1946427_unified,"52.5902104,13.4027524",Q65032696,,,,,,,1946373.0
"Niederschönhausen, Friedensplatz",tram,47,1946428_unified,"52.58152721246565, 13.40424791490455",,,,,,,,1946369.0
Bismarckstr.,tram,47,1946429_unified,"52.580570918026496, 13.401710070736616",,,,,,,,194690.0
Bismarckplatz,tram,47,1946430_unified,"52.57979168986186, 13.398319596978663",,,,,,,,194689.0
Grabbeallee,tram,47,1946431_unified,"52.57107235599751, 13.39822592061002",,,,,,,,1946189.0
"Pankow, Breitestr.",tram,47,1946432_unified,"52.569410944464835, 13.403477893079419",,,,,,,,1946392.0
Breitestr. Ecke Berlinerstr.,tram,47,1946433_unified,"52.57099160012513, 13.40999970857956",,,,,,,,1946100.0
Berlinerstr. Ecke Vinetastr.,tram,47,1946434_unified,"52.55881651892184, 13.413474468962335",,,,,,,,194648.0
Schönhauserallee,tram,47,1946435_unified,"52.5537705,13.4138898",Q65076842,,,,,,,1946488.0
Schönhauserallee Ecke Dänenstr.,tram,47,1946436_unified,"52.54964258327103, 13.413653988181903",,,,,,,,1946490.0
Schönhauserallee Ecke Danzigerstr.,tram,47,1946437_unified,"52.54142343265726, 13.412140744779617",,,,,,,,1946489.0
U-Bahnhof Danzigerstr.,tram,47,1946438_unified,"52.540188767799485, 13.41139735341434",,,,,,,,1946566.0
"Britz, Rudowerstr.",tram,147,1946439_unified,"52.44286829705947, 13.45615959331519",,,,,,,,1946102.0
Buschkrug,tram,147,1946440_unified,"52.452470895695484, 13.450748195174354",,,,,,,,1946112.0
"Buckow-Ost, Rudowerstr.",tram,147,1946441_unified,"52.43428074617617, 13.469028794063673",,,,,,,,1946108.0
"Rudow, Neuköllnerstr.",tram,147,1946442_unified,"52.41576933170046, 13.49645398044122",,,,,,,,1946460.0
Walterdorferchaussee,tram,147,1946443_unified,"52.401628350402746, 13.513532953960645",,,,,,,,1946579.0
Schönefeld,tram,147,1946444_unified,"52.38954327891276, 13.511286026236943",,,,,,,,1946484.0
Buchholz,tram,49,1946445_unified,"52.619072064369824, 13.393383358408967",,,,,,,,1946106.0
Pasewalkerstr.,tram,49,1946446_unified,"52.57798821745791, 13.428766545985715",,,,,,,,1946402.0
"Pankow, Damerowstr.",tram,49,1946447_unified,"52.57340426550783, 13.422144089868961",,,,,,,,1946394.0
Breitestr. Ecke Berlinerstr.,tram,49,1946448_unified,"52.57099160012513, 13.40999970857956",,,,,,,,1946100.0
Berlinerstr. Ecke Vinetastr.,tram,49,1946449_unified,"52.55881651892184, 13.413474468962335",,,,,,,,194648.0
Schönhauserallee,tram,49,1946450_unified,"52.5537705,13.4138898",Q65076842,,,,,,,1946488.0
Schönhauserallee Ecke Wisbyerstr.,tram,49,1946451_unified,"52.55374610843057, 13.414453768690132",,,,,,,,1946491.0
Schönhauserallee Ecke Dänenstr.,tram,49,1946452_unified,"52.54964258327103, 13.413653988181903",,,,,,,,1946490.0
Schönhauserallee Ecke Danzigerstr.,tram,49,1946453_unified,"52.54142343265726, 13.412140744779617",,,,,,,,1946489.0
U-Bahnhof Danzigerstr.,tram,49,1946454_unified,"52.540188767799485, 13.41139735341434",,,,,,,,1946566.0
"Spandau, Johannesstrift",tram,54,1946455_unified,"52.56760998876781, 13.191764395056936",,,,,,,,1946514.0
Schönwalderallee,tram,54,1946456_unified,"52.55533730374434, 13.19864146836822",,,,,,,,1946495.0
Schönwalderstr.,tram,54,1946457_unified,"52.542957403151995, 13.206312038330612",,,,,,,,1946496.0
Hafenplatz,tram,54,1946458_unified,"52.542292547760184, 13.206201126048732",,,,,,,,1946207.0
Carl-Schurzstr.,tram,54,1946459_unified,"52.53759585854496, 13.203799788543511",,,,,,,,1946114.0
Spandau Markt,tram,54,1946460_unified,"52.53784349532438, 13.204135429364628",,,,,,,,1946512.0
Grenadierstr.,tram,54,1946461_unified,"52.53233657156798, 13.20770038531928",,,,,,,,1946193.0
Grunewaldstr.,tram,54,1946462_unified,"52.489099571674906, 13.344928521367574",,,,,,,,1946199.0
Ruhlebenerstr.,tram,54,1946463_unified,"52.527379691904514, 13.211389157620193",,,,,,,,1946462.0
"Charlottenburgerchaussee, U-Bhf. Ruhleben",tram,54,1946464_unified,"52.52600471402874, 13.241309892919059",,,,,,,,1946121.0
Spandauerchaussee,tram,54,1946465_unified,"52.52387160893929, 13.249377186385694",,,,,,,,1946517.0
Spandauer Berg,tram,54,1946466_unified,"52.522456029890684, 13.255823061511318",,,,,,,,1946516.0
Spandauerstr. Ecke Schloßstr.,tram,54,1946467_unified,"52.519432576631544, 13.295996482010626",,,,,,,,1946518.0
Richard-Wagner-Platz,tram,54,1946468_unified,"52.517570616857, 13.306248118529135",,,,,,,,1946453.0
Spandau markt,tram,55,1946469_unified,"52.53784349532438, 13.204135429364628",,,,,,,,1946513.0
"Haselhorst, Gartenfelderstr.",tram,55,1946470_unified,"52.54415774195884, 13.247126131065503",,,,,,,,1946214.0
Paulsternstr.,tram,55,1946471_unified,"52.538114851173546, 13.248435943349298",,,,,,,,1946403.0
Nonnendammallee,tram,55,1946472_unified,"52.538012066324, 13.24976268119185",,,,,,,,1946372.0
Siemensstadt,tram,55,1946473_unified,"52.53699730933042, 13.262264223562065",,,,,,,,1946505.0
Bhf. Jungfernheide,tram,55,1946474_unified,"52.53103413649224, 13.300559481238167",,,,,,,,194665.0
Tegelerweg,tram,55,1946475_unified,"52.530298255162464, 13.295840794537064",,,,,,,,1946549.0
Osnabrückerstr.,tram,55,1946476_unified,"52.52655659018374, 13.297414453709727",,,,,,,,1946387.0
Kaiserin-Augusta-Allee Ecke Wiebestr.,tram,55,1946477_unified,"52.52580545289568, 13.317995895056958",,,,,,,,1946268.0
Gotzkowskystr.,tram,55,1946478_unified,"52.52567490695968, 13.330198327307098",,,,,,,,1946188.0
"Weißensee, Rennbahnstr.",tram,60,1946479_unified,"52.5573986,13.4656872",Q65954749,,,,,,,1946592.0
"Berlinerallee, Antonplatz",tram,60,1946480_unified,"52.5484803,13.4517416",Q65548849,,,,,,,194641.0
Greifswalderstr.,tram,60,1946481_unified,"52.5364975,13.4334045",Q65548960,,,,,,,1946191.0
Bhf. Weißensee,tram,60,1946482_unified,"52.540767536231364, 13.438418814778837",,,,,,,,194685.0
Greifswalderstr. Ecke Danzigerstr.,tram,60,1946483_unified,"52.5364975,13.4334045",Q65548960,,,,,,,1946192.0
Neue Königstr.,tram,60,1946484_unified,"52.52595170978377, 13.4208495980272",,,,,,,,1946363.0
Jostystr.,tram,60,1946485_unified,"52.5260897953295, 13.417583280684354",,,,,,,,1946261.0
Prenzlauerstr. Ecke Prenzlauerallee,tram,60,1946486_unified,"52.52702543130057, 13.415674981943308",,,,,,,,1946424.0
Alexanderplatz,tram,60,1946487_unified,"52.5219449,13.4143847",Q65548996,,,,,,,19464.0
Molkenmarkt,tram,60,1946488_unified,"52.51679321421663, 13.409330619020574",,,,,,,,1946344.0
Rathaus,tram,60,1946489_unified,"52.51823377354708, 13.4098395840552",,,,,,,,1946434.0
"Charlottenburg, Königin-Elisabehtstr.",tram,62,1946490_unified,"52.518592490142176, 13.283070656683321",,,,,,,,1946119.0
Suarezstr. Ecke Kaiserdamm,tram,62,1946492_unified,"52.510974833268435, 13.297307505380822",,,,,,,,1946541.0
Suarezstr.,tram,62,1946493_unified,"52.50689035996181, 13.295212964938859",,,,,,,,1946540.0
Kantstr.,tram,62,1946494_unified,"52.5066581876951, 13.306688471208883",,,,,,,,1946269.0
Bhf. Charlottenburg,tram,62,1946495_unified,"52.50508698198708, 13.303282689162542",,,,,,,,194658.0
Stuttgarterplatz,tram,62,1946496_unified,"52.50566810519856, 13.306864497506904",,,,,,,,1946537.0
Wilmersdorferstr.,tram,62,1946497_unified,"52.506692000645316, 13.306692426875525",,,,,,,,1946608.0
Wilmersdorferstr. Ecke Kurfürstendamm,tram,62,1946498_unified,"52.500032680363084, 13.307221456574052",,,,,,,,1946611.0
Brandenburgischestr.,tram,62,1946499_unified,"52.50008221195205, 13.306978939890724",,,,,,,,194699.0
Fehrbellinerplatz,tram,62,1946500_unified,"52.49032472677901, 13.314317300484289",,,,,,,,1946147.0
Hohenzollerndamm,tram,62,1946501_unified,"52.48810038121649, 13.300864203881337",,,,,,,,1946238.0
"Wilmersdorf, Emserplatz",tram,62,1946502_unified,"52.49218319473536, 13.319441513653306",,,,,,,,1946607.0
"Hohenschönhausen, Degenerstr.",tram,64,1946503_unified,"52.54490141528032, 13.494008455722605",,,,,,,,1946234.0
Weißenseerweg Ecke Hohenschönhauserstr.,tram,64,1946504_unified,"52.53611350861865, 13.47352780887088",,,,,,,,1946593.0
Hohenschönhauserstr.,tram,64,1946505_unified,"52.5359329,13.4729468",Q65553684,,,,,,,1946235.0
"Landsbergerallee, Steuerhaus",tram,64,1946506_unified,"52.52951766684918, 13.460423477637198",,,,,,,,1946304.0
Bhf. Lansbergerallee,tram,64,1946507_unified,"52.52854013868831, 13.455680403774341",,,,,,,,194669.0
Landsbergerallee Ecke Elbingerstr.,tram,64,1946508_unified,"52.5264128560996, 13.447642432361302",,,,,,,,1946303.0
Alexanderplatz,tram,64,1946509_unified,"52.5219449,13.4143847",Q65548996,,,,,,,19464.0
Molkenmarkt,tram,64,1946510_unified,"52.51679321421663, 13.409330619020574",,,,,,,,1946344.0
Rathaus,tram,64,1946511_unified,"52.51823377354708, 13.4098395840552",,,,,,,,1946434.0
"Lichtenberg, Scheffelstr.",tram,65,1946512_unified,"52.52052601665067, 13.474048782169525",,,,,,,,1946316.0
Eldenaerstr.,tram,65,1946513_unified,"52.520416962203576, 13.473386263465185",,,,,,,,1946144.0
Forkenbeckplatz,tram,65,1946514_unified,"52.5201985,13.4585731",Q66044398,,,,,,,1946152.0
Baltenplatz,tram,65,1946515_unified,"52.519215,13.4525257",Q65706258,,,,,,,194632.0
Petersburgerstr. Ecke Landsbergerallee,tram,65,1946516_unified,"52.5259343,13.4462368",Q65553230,,,,,,,1946405.0
Alexanderplatz,tram,65,1946517_unified,"52.5219449,13.4143847",Q65548996,,,,,,,19464.0
Molkenmarkt,tram,65,1946518_unified,"52.51679321421663, 13.409330619020574",,,,,,,,1946344.0
Rathaus,tram,65,1946519_unified,"52.51823377354708, 13.4098395840552",,,,,,,,1946434.0
"Wittenau, Nordbahnhof",tram,68,1946520_unified,"52.599171465633574, 13.329074168703759",,,,,,,,1946616.0
Oranienburgerstr. Ecke Wilhelmsruherdamm,tram,68,1946521_unified,"52.59551837167652, 13.33304922892868",,,,,,,,1946380.0
"Reinickendorf, Berlinerstr. Ecke Waldstr.",tram,68,1946522_unified,"52.57551795282049, 13.332035971745624",,,,,,,,1946443.0
Berlinerstr. Ecke Humboldtstr.,tram,68,1946523_unified,"52.569293845351886, 13.329886404982428",,,,,,,,194644.0
Berlinerstr. Ecke Scharnweberstr.,tram,68,1946524_unified,"52.56404993147306, 13.327860788039368",,,,,,,,194646.0
Müllerstr.,tram,68,1946525_unified,"52.55973735325193, 13.335642683090738",,,,,,,,1946356.0
Müllerstr. Ecke Seestr.,tram,68,1946526_unified,"52.55047126275597, 13.351995203728084",,,,,,,,1946357.0
Togostr.,tram,68,1946527_unified,"52.54874688145034, 13.348527917135552",,,,,,,,1946558.0
Landsbergerallee Ecke Elbingerstr.,tram,69,1946528_unified,"52.5264128560996, 13.447642432361302",,,,,,,,1946303.0
Bhf. Landsbergerallee,tram,69,1946529_unified,"52.52856288091548, 13.455758715053463",,,,,,,,194668.0
"Landsbergerallee, Steuerhaus",tram,69,1946530_unified,"52.52951766684918, 13.460423477637198",,,,,,,,1946304.0
"Lichtenberg, Röderplatz",tram,69,1946531_unified,"52.5266001,13.479068",Q65685373,,,,,,,1946315.0
Herzbergstr.,tram,69,1946532_unified,"52.52637,13.499036",Q65684891,,,,,,,1946230.0
Siegfriedstr.,tram,69,1946533_unified,"52.51955575998727, 13.499342568310986",,,,,,,,1946503.0
Bhf. Lichtenberg,tram,69,1946534_unified,"52.5123603,13.4977547",Q66013733,,,,,,,194670.0
Alt-Friedrichsfelde,tram,69,1946535_unified,"52.50914093654053, 13.518129930582422",,,,,,,,19469.0
"Karlshorst, Treskowallee",tram,69,1946536_unified,"52.47857308487424, 13.524470348260262",,,,,,,,1946270.0
Treskowallee Ecke Warmbaderstr.,tram,69,1946537_unified,"52.492735535800605, 13.526616674381685",,,,,,,,1946563.0
Karlshorsterchaussee,tram,69,1946538_unified,"52.47736457956281, 13.523845173794296",,,,,,,,1946271.0
"Oberschöneweide, Edisonstrass Ecke Wilhelminenhofstr.",tram,69,1946539_unified,"52.4619496,13.5139049",Q65951882,,,,,,,1946375.0
"Weißensee, Rennbahnstr.",tram,72,1946540_unified,"52.5573986,13.4656872",Q65954749,,,,,,,1946592.0
"Berlinerallee, Antonplatz",tram,72,1946541_unified,"52.5484803,13.4517416",Q65548849,,,,,,,194641.0
Langhansstr.,tram,72,1946542_unified,"52.55363963048395, 13.434662465493163",,,,,,,,1946305.0
Gustav-Adolfstr. Ecke Prenzlauerallee,tram,72,1946543_unified,"52.551709529197026, 13.430370964345377",,,,,,,,1946203.0
Prenzlauerallee,tram,72,1946544_unified,"52.5396522,13.4244789",Q65222180,,,,,,,1946420.0
Bhf. Prenzlauerallee,tram,72,1946545_unified,"52.5448075,13.427408",Q65219791,,,,,,,194679.0
Prenzlauerallee Ecke Danzigerstr.,tram,72,1946546_unified,"52.5396522,13.4244789",Q65222180,,,,,,,1946421.0
Prenzlauerstr. Ecke Prenzlauerallee,tram,72,1946547_unified,"52.52702543130057, 13.415674981943308",,,,,,,,1946424.0
Alexanderplatz,tram,72,1946548_unified,"52.5219449,13.4143847",Q65548996,,,,,,,19464.0
Molkenmarkt,tram,72,1946549_unified,"52.51679321421663, 13.409330619020574",,,,,,,,1946344.0
Rathaus,tram,72,1946550_unified,"52.51823377354708, 13.4098395840552",,,,,,,,1946434.0
Heinersdorf,tram,73,1946551_unified,"52.5725511,13.4371063",Q65096052,,,,,,,1946222.0
Prenzlauer Promenade,tram,73,1946552_unified,"52.55155536618067, 13.43032253030515",,,,,,,,1946422.0
Prenzlauer Promenade Ecke Gustav-Adolfstr.,tram,73,1946553_unified,"52.551756288963574, 13.43036423385003",,,,,,,,1946423.0
Prenzlauerallee,tram,73,1946554_unified,"52.5396522,13.4244789",Q65222180,,,,,,,1946420.0
Bhf. Prenzlauerallee,tram,73,1946555_unified,"52.5448075,13.427408",Q65219791,,,,,,,194679.0
Prenzlauerallee Ecke Danzigerstr.,tram,73,1946556_unified,"52.5396522,13.4244789",Q65222180,,,,,,,1946421.0
Prenzlauerstr. Ecke Prenzlauerallee,tram,73,1946557_unified,"52.52702543130057, 13.415674981943308",,,,,,,,1946424.0
Alexanderplatz,tram,73,1946558_unified,"52.5219449,13.4143847",Q65548996,,,,,,,19464.0
Molkenmarkt,tram,73,1946559_unified,"52.51679321421663, 13.409330619020574",,,,,,,,1946344.0
Rathaus,tram,73,1946560_unified,"52.51823377354708, 13.4098395840552",,,,,,,,1946434.0
"Lichterfelde, Händelplatz",tram,74,1946561_unified,"52.45002542534163, 13.315390504587368",,,,,,,,1946322.0
Hindenburgdamm,tram,74,1946562_unified,"52.44956203989038, 13.315244235516836",,,,,,,,1946231.0
"Steglitz, Rathaus",tram,74,1946563_unified,"52.456923983453606, 13.320670797180279",,,,,,,,1946528.0
"Friedenau, Rheinstr.",tram,74,1946564_unified,"52.465007265543484, 13.32855730681896",,,,,,,,1946165.0
Innsbruckerplatz,tram,74,1946565_unified,"52.47851767561872, 13.344017066649423",,,,,,,,1946250.0
Hauptstr. Ecke Mühlenstr.,tram,74,1946566_unified,"52.48181232696976, 13.348271486759423",,,,,,,,1946215.0
Postdamerstr. Ecke Hauptstr.,tram,74,1946567_unified,"52.49042197420286, 13.360258660240738",,,,,,,,1946410.0
Potsdamerstr. Ecke Pallasstr.,tram,74,1946568_unified,"52.49437098285493, 13.361060066548905",,,,,,,,1946418.0
Potsdamerstr. Ecke Kurfürstenstr.,tram,74,1946569_unified,"52.4997538570783, 13.362818148290852",,,,,,,,1946417.0
Potsdamerplatz,tram,74,1946570_unified,"52.50948236131137, 13.375988156399634",,,,,,,,1946414.0
Leipzigerstr. Ecke Friedrichstr.,tram,74,1946571_unified,"52.51034466260824, 13.389872790958105",,,,,,,,1946312.0
Dönhoffplatz,tram,74,1946572_unified,"52.509950568117645, 13.398144081918815",,,,,,,,1946139.0
Spittelmarkt,tram,74,1946573_unified,"52.511243321361405, 13.40494539543245",,,,,,,,1946521.0
Hakenfelde,tram,75,1946574_unified,"52.57886009874865, 13.210057800310379",,,,,,,,1946209.0
Niederneuendorferallee,tram,75,1946575_unified,"52.565323131218655, 13.209268714576623",,,,,,,,1946368.0
Streitstr.,tram,75,1946576_unified,"52.55407261801787, 13.207796313816315",,,,,,,,1946535.0
Neuendorferstr.,tram,75,1946577_unified,"52.54666874846329, 13.209047169204815",,,,,,,,1946364.0
Hafenplatz,tram,75,1946578_unified,"52.542292547760184, 13.206201126048732",,,,,,,,1946207.0
Oranienburger Tor,tram,75,1946579_unified,"52.539688922405084, 13.205173102056984",,,,,,,,1946381.0
"Spandau, Markt",tram,75,1946580_unified,"52.53784349532438, 13.204135429364628",,,,,,,,1946515.0
Carl-Schurzstr.,tram,75,1946581_unified,"52.53759585854496, 13.203799788543511",,,,,,,,1946114.0
Klosterstr. Ecke Seeburgerstr.,tram,75,1946582_unified,"52.52912529066992, 13.195598561644342",,,,,,,,1946278.0
Pichelsdorferstr.,tram,75,1946583_unified,"52.51307046642958, 13.196871153391022",,,,,,,,1946408.0
Alt-Pichelsdorf,tram,75,1946584_unified,"52.512205003004254, 13.20098769648865",,,,,,,,194612.0
Freybrücke,tram,75,1946585_unified,"52.511784691779035, 13.203183873771536",,,,,,,,1946162.0
Bhf. Heerstr.,tram,75,1946586_unified,"52.50857975740797, 13.258353900023156",,,,,,,,194663.0
Reichskanzlerplatz,tram,75,1946587_unified,"52.5089140766086, 13.272251406623242",,,,,,,,1946438.0
Kaiserdamm,tram,75,1946588_unified,"52.50999107107441, 13.281861072383021",,,,,,,,1946265.0
Masurenallee,tram,75,1946589_unified,"52.50643430135658, 13.28045735469032",,,,,,,,1946342.0
Kantstr.,tram,75,1946590_unified,"52.5066581876951, 13.306688471208883",,,,,,,,1946269.0
Bhf. Charlottenburg,tram,75,1946591_unified,"52.50508698198708, 13.303282689162542",,,,,,,,194658.0
Wilmersdorferstr.,tram,75,1946592_unified,"52.506692000645316, 13.306692426875525",,,,,,,,1946608.0
Wilmersdorferstr. Ecke Kurfürstendamm,tram,75,1946593_unified,"52.500032680363084, 13.307221456574052",,,,,,,,1946611.0
Halensee,tram,75,1946594_unified,"52.4968906371703, 13.28953411069346",,,,,,,,1946211.0
"Grunewald, Hubertusallee",tram,75,1946595_unified,"52.4896134950935, 13.28467047123755",,,,,,,,1946198.0
Joachimstalerstr.,tram,76,1946596_unified,"52.506165255073356, 13.332370644735395",,,,,,,,1946258.0
Kurfürstendamm,tram,76,1946597_unified,"52.500053170346966, 13.306918433906269",,,,,,,,1946287.0
Kurfürstendamm Ecke Wilmersdorferstr.,tram,76,1946598_unified,"52.49999422161237, 13.30705312471225",,,,,,,,1946288.0
Bhf. Halensee,tram,76,1946599_unified,"52.49688327253505, 13.289515124907771",,,,,,,,194662.0
Hubertusallee,tram,76,1946600_unified,"52.49393097226469, 13.285088023116971",,,,,,,,1946241.0
Hagenplatz,tram,76,1946601_unified,"52.48338876739213, 13.26583142929224",,,,,,,,1946208.0
Roseneck,tram,76,1946602_unified,"52.47630604660362, 13.281717433241134",,,,,,,,1946455.0
"Lichterfelde-Süde, Goerzallee Ecke Appenzellerstr.",tram,77,1946603_unified,"52.42193241925337, 13.298516174304284",,,,,,,,1946323.0
Ringstr. Ecke Finckensteinallee,tram,77,1946604_unified,"52.432763118715044, 13.28708803299288",,,,,,,,1946454.0
"Lichterfelde-West, Drakestr.",tram,77,1946605_unified,"52.44389237589557, 13.29571127058344",,,,,,,,1946324.0
Händelplatz,tram,77,1946606_unified,"52.450279094879285, 13.315466784727654",,,,,,,,1946246.0
Hindenburgdamm,tram,77,1946607_unified,"52.44956203989038, 13.315244235516836",,,,,,,,1946231.0
"Steglitz, Rathaus",tram,77,1946608_unified,"52.456923983453606, 13.320670797180279",,,,,,,,1946528.0
"Friedenau, Rheinstr.",tram,77,1946609_unified,"52.465007265543484, 13.32855730681896",,,,,,,,1946165.0
"Friedenau, Friedrich-Wilhelm-Platz",tram,77,1946610_unified,"52.471981070085796, 13.328404849316785",,,,,,,,1946164.0
Kaiserallee Ecke Berlinerstr.,tram,77,1946611_unified,"52.487334054837376, 13.331062759957598",,,,,,,,1946263.0
Kaiserallee Ecke Spichernstr.,tram,77,1946612_unified,"52.4959470039677, 13.330862745431165",,,,,,,,1946264.0
Joachimstalerstr. Ecke Kurfürstendamm,tram,77,1946613_unified,"52.50381697461937, 13.33130084073772",,,,,,,,1946259.0
Kantstr.,tram,77,1946614_unified,"52.5066581876951, 13.306688471208883",,,,,,,,1946269.0
Molkenmarkt,tram,82,1946615_unified,"52.51679321421663, 13.409330619020574",,,,,,,,1946344.0
Schicklerstr. Ecke Alexanderstr.,tram,82,1946616_unified,"52.51551722524566, 13.418231396470526",,,,,,,,1946469.0
Jannowitzbrücke,tram,82,1946617_unified,"52.515457420985356, 13.418089138640552",,,,,,,,1946255.0
Am Schlesischen Bahnhof,tram,82,1946618_unified,"52.50992342587209, 13.433401993102558",,,,,,,,194614.0
Mühlenstr.,tram,82,1946619_unified,"52.508543937506005, 13.43489757970717",,,,,,,,1946354.0
Stralauerallee Ecke Warschauerstr.,tram,82,1946620_unified,"52.50274970779661, 13.446779618871153",,,,,,,,1946533.0
Markgrafendamm,tram,82,1946621_unified,"52.49918957829234, 13.465807953098425",,,,,,,,1946339.0
"Köpenick, Marienhain über Wendenschloßstr.",tram,83,1946622_unified,"52.434229826688906, 13.582923617411431",,,,,,,,1946296.0
Wendenschloßstr. Ecke Müggelheimerstr.,tram,83,1946623_unified,"52.4429928,13.5812285",Q66095671,,,,,,,1946595.0
Dammbrücke,tram,83,1946625_unified,"52.44841874575463, 13.574648976218885",,,,,,,,1946131.0
Bahnhofstr.,tram,83,1946626_unified,"52.38666976464739, 13.407955106521282",,,,,,,,194629.0
Bahnhofstr. Ecke Lindenstr.,tram,83,1946627_unified,"52.4505094,13.572684",Q66095701,,,,,,,194631.0
Bhf. Köpenick,tram,83,1946628_unified,"52.4582153,13.5790435",Q66370784,,,,,,,194667.0
Mahlsdorferstr.,tram,83,1946629_unified,"52.46229464957853, 13.582952304855402",,,,,,,,1971664.0
Mahlsdorferstr. Ecke Kohlisstr.,tram,83,1946630_unified,"52.4750917552827, 13.600090116302983",,,,,,,,1946333.0
Hultschinerdamm,tram,83,1946631_unified,"52.504869219031704, 13.61340287328306",,,,,,,,1946242.0
Bhf. Mahlsdorf,tram,83,1946634_unified,"52.51253960592773, 13.612269169915399",,,,,,,,194673.0
Bhf. Grünau,tram,86,1946635_unified,"52.413493,13.5746802",Q62470512,,,,,,,194661.0
Sportpromenade,tram,86,1946636_unified,"52.410570754598794, 13.597970946447681",,,,,,,,1946523.0
Vetschauerallee,tram,86,1946637_unified,"52.3864124,13.633786",Q66459670,,,,,,,1946575.0
Schmöckwitz,tram,86,1946638_unified,"52.37584405426887, 13.648910287320868",,,,,,,,1946479.0
"Oberschöneweide, Nalepastr. Ecke Karlshorsterstr.",tram,87_b,1946639_unified,"52.46375690203293, 13.508592113789488",,,,,,,,1946376.0
Wilhelminenhofstr.,tram,87_b,1946640_unified,"52.460837970970566, 13.521054382869073",,,,,,,,1946602.0
Ostendstr.,tram,87_b,1946641_unified,"52.4572322,13.5338473",Q66104283,,,,,,,1946388.0
Weißkopfstr.,tram,87_b,1946642_unified,"52.45771558617755, 13.542922007265371",,,,,,,,1946594.0
An der Wuhlheide,tram,87_b,1946643_unified,"52.4558167657369, 13.558133104178587",,,,,,,,194616.0
Lindenstr. Ecke Bahnhofstr.,tram,87_b,1946644_unified,"52.4505094,13.572684",Q66095701,,,,,,,1946326.0
"Köpenick, Bellevuestr.",tram,87_b,1946645_unified,"52.45511405449567, 13.592192332042357",,,,,,,,1946293.0
Müggelseedamm,tram,87_b,1946646_unified,"52.4498638,13.661534",Q66361484,,,,,,,1946353.0
Bhf. Friedrichshagen,tram,87_b,1946647_unified,"52.457326972958604, 13.625511399091163",,,,,,,,194659.0
Fürstenwalderdamm,tram,87_b,1946648_unified,"52.4498638,13.661534",Q66361484,,,,,,,1946174.0
Rahnsdorf,tram,87_b,1946649_unified,"52.443531694444445,13.685038",Q66361311,,,,,,,1946431.0
Dönhoffplatz,tram,87_a,1946650_unified,"52.509950568117645, 13.398144081918815",,,,,,,,1946139.0
Spittelmarkt,tram,87_a,1946651_unified,"52.511243321361405, 13.40494539543245",,,,,,,,1946521.0
Märkisches Museum,tram,87_a,1946652_unified,"52.51272975061891, 13.411419237277142",,,,,,,,1946348.0
Neanderstr. Ecke Köpenickerstr.,tram,87_a,1946653_unified,"52.510995892162974, 13.416448002055228",,,,,,,,1946359.0
Köpenickerstr.,tram,87_a,1946654_unified,"52.505757518022115, 13.431947867729278",,,,,,,,1946300.0
Schlesisches Tor,tram,87_a,1946655_unified,"52.50089071846621, 13.441502603146748",,,,,,,,1946474.0
"Treptow, Elsenstr.",tram,87_a,1946656_unified,"52.493944205822736, 13.460794560225086",,,,,,,,1946559.0
Am Treptower Park,tram,87_a,1946657_unified,"52.49174753133871, 13.457760339630582",,,,,,,,194615.0
Köpenicker Landstr.,tram,87_a,1946658_unified,"52.47976607269788, 13.475523898896808",,,,,,,,1946298.0
Bhf. Baumschulenweg,tram,87_a,1946659_unified,"52.467479828977226, 13.48936207921958",,,,,,,,194656.0
"Treptow, Rathaus",tram,91,1946660_unified,"52.483613037029144, 13.480317575778315",,,,,,,,1946560.0
Bulgarischestr.,tram,91,1946661_unified,"52.48142358933512, 13.473067363351124",,,,,,,,1946111.0
Köpenicker Landstr. Ecke Baumschulenstr.,tram,91,1946662_unified,"52.46913201072182, 13.491340045687773",,,,,,,,1946299.0
Bahnhof Schöneweide,tram,91,1946663_unified,"52.45613201289592, 13.51033986454809",,,,,,,,194628.0
Sternendamm,tram,91,1946664_unified,"52.44656599538739, 13.506553020950665",,,,,,,,1946529.0
Johannisthal,tram,91,1946665_unified,"52.44125939829667, 13.500336959618494",,,,,,,,1946260.0
"Oberschöneweide, Nalepastr. Ecke Karlshorsterstr.",tram,95_b,1946666_unified,"52.46375690203293, 13.508592113789488",,,,,,,,1946376.0
Wilhelminenhofstr.,tram,95_b,1946667_unified,"52.460837970970566, 13.521054382869073",,,,,,,,1946602.0
Ostendstr.,tram,95_b,1946668_unified,"52.4572322,13.5338473",Q66104283,,,,,,,1946388.0
Weißkopfstr.,tram,95_b,1946669_unified,"52.45771558617755, 13.542922007265371",,,,,,,,1946594.0
An der Wuhlheide,tram,95_b,1946670_unified,"52.4558167657369, 13.558133104178587",,,,,,,,194616.0
Lindenstr. Ecke Bahnhofstr.,tram,95_b,1946671_unified,"52.4505094,13.572684",Q66095701,,,,,,,1946326.0
Dammbrücke,tram,95_b,1946672_unified,"52.44841874575463, 13.574648976218885",,,,,,,,1946131.0
Wendenschloßstr. Ecke Müggelheimerstr.,tram,95_b,1946673_unified,"52.4429928,13.5812285",Q66095671,,,,,,,1946595.0
"Köpenick, Krankenhaus",tram,95_b,1946674_unified,"52.4388396,13.5920763",Q66091900,,,,,,,1946295.0
Hermannplatz,tram,95_a,1946675_unified,"52.487085572732276, 13.424752445258537",,,,,,,,1946224.0
Sonnenallee,tram,95_a,1946676_unified,"52.48613359502478, 13.430239659364373",,,,,,,,1946507.0
Sonnenallee Ecke Erkstr.,tram,95_a,1946677_unified,"52.481693342166764, 13.440079325671048",,,,,,,,1946508.0
"Sonnenallee, S-Bahn",tram,95_a,1946678_unified,"52.473894347989244, 13.45587384777502",,,,,,,,1946509.0
Baumschulenstr.,tram,95_a,1946679_unified,"52.460884119473235, 13.481278679734508",,,,,,,,194633.0
Bhf. Baumschulenweg,tram,95_a,1946680_unified,"52.467479828977226, 13.48936207921958",,,,,,,,194656.0
Köpenicker Landstr.,tram,95_a,1946681_unified,"52.47976607269788, 13.475523898896808",,,,,,,,1946298.0
Bhf. Schöneweide,tram,95_a,1946682_unified,"52.45640818289644, 13.509916574756422",,,,,,,,194681.0
Machnower Schleuse,tram,96,1946683_unified,"52.39513316459733, 13.20831380290797",,,,,,,,1946328.0
Stahnsdorf,tram,96,1946684_unified,"52.39232917788066, 13.222201892483092",,,,,,,,1946525.0
Potsdamerstr.,tram,96,1946685_unified,"52.397080366659694, 13.243581735284204",,,,,,,,1946416.0
"Teltow, Hindenburgplatz",tram,96,1946686_unified,"52.400806383685506, 13.268941596833997",,,,,,,,1946551.0
Schützenplatz,tram,96,1946687_unified,"52.417902585068575, 13.30511527465078",,,,,,,,1946497.0
Kranoldplatz,tram,96,1946688_unified,"52.42782085368502, 13.326575786308617",,,,,,,,1946285.0
"Lankwitz, Kaiser-Wilhelmstr.",tram,96,1946689_unified,"52.436274378440025, 13.34576338993938",,,,,,,,1946307.0
Attilastr.,tram,96,1946690_unified,"52.44680180814698, 13.360708029669821",,,,,,,,194621.0
Bhf. Mariendorf,tram,96,1946691_unified,"52.447078310256, 13.361439800164863",,,,,,,,194674.0
Attilaplatz,tram,96,1946692_unified,"52.455498340147045, 13.375619638525905",,,,,,,,194620.0
Baerwaldstr. Ecke Gneisenaustr.,tram,99,1946693_unified,"52.490331369885155, 13.400299112902015",,,,,,,,194626.0
Franz-Mehringstr. Ecke Gneisenaustr.,tram,99,1946694_unified,"52.49289753565708, 13.387758933826115",,,,,,,,1946160.0
Bhf. Tempelhof,tram,99,1946695_unified,"52.470773327648985, 13.385638027802058",,,,,,,,194682.0
Berlinerstr. Ecke Dorfstr.,tram,99,1946696_unified,"52.465924102673426, 13.38555668803175",,,,,,,,194643.0
Friedrich-Karl-str.,tram,99,1946697_unified,"52.45582815857282, 13.383932790023245",,,,,,,,1946166.0
Attilaplatz,tram,99,1946698_unified,"52.455498340147045, 13.375619638525905",,,,,,,,194620.0
"Mariendorf, Zastrowstr.",tram,99,1946699_unified,"52.453661629084294, 13.38439177695092",,,,,,,,1946335.0
Lichtenraderchaussee,tram,99,1946700_unified,"52.4145416978014, 13.401163053986947",,,,,,,,1946318.0
Bahnhofstr.,tram,99,1946701_unified,"52.38666976464739, 13.407955106521282",,,,,,,,194629.0
Bhf. Lichtenrade,tram,99,1946702_unified,"52.38669305818232, 13.39694576786419",,,,,,,,194672.0
Nordend,tram,199,1946703_unified,"52.5902104,13.4027524",Q65032696,,,,,,,1946373.0
Bismarckplatz,tram,199,1946704_unified,"52.57979168986186, 13.398319596978663",,,,,,,,194689.0
Grabbeallee,tram,199,1946705_unified,"52.57107235599751, 13.39822592061002",,,,,,,,1946189.0
"Pankow, Wollankstr.",tram,199,1946706_unified,"52.565654441230436, 13.39086059036533",,,,,,,,1946397.0
Wollankstr. Ecke Brehmestr.,tram,199,1946707_unified,"52.565015564441026, 13.39428238792138",,,,,,,,1946621.0
Badstr. Ecke Pankstr.,tram,199,1946708_unified,"52.55227848989899, 13.381428333797949",,,,,,,,194623.0
"Brunnenstr., Gesundbrunnen",tram,199,1946709_unified,"52.54842580988483, 13.388018631243888",,,,,,,,1946104.0
Ramlerstr.,tram,199,1946710_unified,"52.5471348687247, 13.389120500428692",,,,,,,,1946432.0
"Pankow, Vinetastr.",u-bahn,A,1946711_unified,"52.559166666667,13.413333333333",Q570906,,,,,,,1946396.0
Schönhauser Alle,u-bahn,A,1946712_unified,"52.549328888889,13.413706111111",Q47014936,,,,,,,1946486.0
Danzigerstr.,u-bahn,A,1946713_unified,"52.541666666667, 13.412222222222",Q571382,,,,,,,1946132.0
Senefelderplatz,u-bahn,A,1946714_unified,"52.53242, 13.412743",Q32661454,,,,,,,1946502.0
Schönhauser Tor,u-bahn,A,1946715_unified,"52.528333333333,13.410277777778",Q658790,,,,,,,1946492.0
Alexanderplatz,u-bahn,A,1946716_unified,"52.5214,13.4119",Q17173458,,,,,,,19465.0
Klosterstr.,u-bahn,A,1946717_unified,"52.516111111111, 13.412222222222",Q657893,,,,,,,1946277.0
Märkisches Museum,u-bahn,A,1946718_unified,"52.511944444444,13.408888888889",Q657871,,,,,,,1946349.0
Spittelmarkt,u-bahn,A,1946719_unified,"52.511111111111,13.403611111111",Q569489,,,,,,,1946522.0
Stadtmitte,u-bahn,A,1946720_unified,"52.5122,13.3894",Q660066,,,,,,,1946524.0
Potsdamerplatz,u-bahn,A,1946721_unified,"52.5092,13.3782",Q3909578,,,,,,,1946415.0
Gleisdreieck,u-bahn,A,1946722_unified,"52.49952,13.37409",Q678372,,,,,,,1946182.0
Kurfürstenstr.,u-bahn,A,1946723_unified,"52.5,13.361944",Q690203,,,,,,,1946289.0
Nollendorfplatz,u-bahn,A,1946724_unified,"52.499166666667,13.353888888889",Q571039,,,,,,,1946371.0
Wittenbergplatz,u-bahn,A,1946725_unified,"52.501944444444,13.343055555556",Q692727,,,,,,,1946617.0
Hallesches Tor,u-bahn,B,1946726_unified,"52.497777777778,13.391111111111",Q658302,,,,,,,1946213.0
Prinzenstr.,u-bahn,B,1946727_unified,"52.498333333333,13.406111111111",Q689797,,,,,,,1946429.0
Kottbusser Tor,u-bahn,B,1946728_unified,"52.499166666667,13.418055555556",Q819768,,,,,,,1946283.0
Görlitzer Bahnhof,u-bahn,B,1946729_unified,"52.4992,13.428",Q597759,,,,,,,1946204.0
Schlesisches Tor,u-bahn,B,1946730_unified,"52.500833333333,13.441666666667",Q602282,,,,,,,1946475.0
Innsbruckerplatz,u-bahn,B1,1946732_unified,"52.4786,13.3439",Q10275871,,,,,,,1946251.0
Bayerischerplatz,u-bahn,B1,1946733_unified,"52.488333333333,13.340277777778",Q668574,,,,,,,194636.0
Viktoria-Luise-Platz,u-bahn,B1,1946734_unified,"52.496161111111,13.342702777778",Q178685,,,,,,,1946576.0
Nollendorfplatz,u-bahn,B1,1946735_unified,"52.499166666667,13.353888888889",Q571039,,,,,,,1946371.0
Wittenbergplatz,u-bahn,B2,1946736_unified,"52.501944444444,13.343055555556",Q692727,,,,,,,1946617.0
Uhlandstr.,u-bahn,B2,1946737_unified,"52.5025,13.325555555556",Q568224,,,,,,,1946569.0
Seestr.,u-bahn,C,1946738_unified,"52.55056,13.35194",Q554391,,,,,,,1946498.0
Leopoldplatz,u-bahn,C,1946739_unified,"52.5465,13.3591",Q1960809,,,,,,,1946313.0
Bhf. Wedding,u-bahn,C,1946740_unified,"52.5425,13.366111",Q4018733,,,,,,,194684.0
Reinickendorferstr.,u-bahn,C,1946741_unified,"52.539911111111,13.370377777778",Q559249,,,,,,,1946449.0
Schwartzkopffstr.,u-bahn,C,1946742_unified,"52.535277777778,13.377222222222",Q554360,,,,,,,1946481.0
Stettiner Bhf.,u-bahn,C,1946743_unified,"52.5319,13.3878",Q673721,,,,,,,1946532.0
Oranienburger Tor,u-bahn,C,1946744_unified,"52.524886111111,13.387477777778",Q571485,,,,,,,1946382.0
Bhf. Friedrichstr.,u-bahn,C,1946745_unified,"52.520111111111,13.388305555556",Q3753274,,,,,,,194660.0
Französischestr.,u-bahn,C,1946746_unified,"52.514722222222,13.389166666667",Q571479,,,,,,,1946161.0
Stadtmitte,u-bahn,C,1946747_unified,"52.5122,13.3894",Q660066,,,,,,,1946524.0
Kochstr.,u-bahn,C,1946748_unified,"52.505897222222,13.390611111111",Q201849,,,,,,,1946281.0
Hallesches Tor,u-bahn,C,1946749_unified,"52.497777777778,13.391111111111",Q658302,,,,,,,1946213.0
Franz-Mehringstr.,u-bahn,C,1946750_unified,"52.493888888889,13.388333333333",Q657905,,,,,,,1946159.0
Gneisenaustr.,u-bahn,C,1946751_unified,"52.491388888889,13.395555555556",Q668618,,,,,,,1946184.0
Gardepionierplatz,u-bahn,C,1946752_unified,"52.489444444444,13.407777777778",Q656081,,,,,,,1946176.0
Hermannplatz,u-bahn,C,1946753_unified,"52.48629,13.42455",Q658929,,,,,,,1946225.0
Rathaus Neukölln,u-bahn,C,1946754_unified,"52.481666666667,13.434166666667",Q628770,,,,,,,1946435.0
Bergstr.,u-bahn,C,1946755_unified,"52.476111111111,13.439166666667",Q519494,,,,,,,194639.0
"Neukölln, Südring",u-bahn,C,1946756_unified,"52.469444,13.442222",Q21272767,,,,,,,1946367.0
Grenzallee,u-bahn,C,1946757_unified,"52.463333333333,13.443888888889",Q571836,,,,,,,1946194.0
Gesundbrunnen,u-bahn,D,1946758_unified,"52.548611,13.389444",Q3761416,,,,,,,1946180.0
Voltastr.,u-bahn,D,1946759_unified,"52.542093,13.393022",Q663308,,,,,,,1946577.0
Bernauerstr.,u-bahn,D,1946760_unified,"52.5375,13.396666666667",Q689293,,,,,,,194652.0
Rosenthalerplatz,u-bahn,D,1946761_unified,"52.53,13.401111111111",Q663231,,,,,,,1946458.0
Weinmeisterstr.,u-bahn,D,1946762_unified,"52.525833333333,13.403888888889",Q661876,,,,,,,1946590.0
Alexanderplatz,u-bahn,D,1946763_unified,"52.5214,13.4119",Q17173458,,,,,,,19465.0
Jannowitzbrücke,u-bahn,D,1946764_unified,"52.515656,13.418185",Q27955418,,,,,,,1946256.0
Neanderstr.,u-bahn,D,1946765_unified,"52.510833333333,13.416388888889",Q663204,,,,,,,1946358.0
Moritzplatz,u-bahn,D,1946766_unified,"52.503611111111,13.410833333333",Q374225,,,,,,,1946347.0
Kottbusser Tor,u-bahn,D,1946767_unified,"52.499166666667,13.418055555556",Q819768,,,,,,,1946283.0
Schönleinstr.,u-bahn,D,1946768_unified,"52.493055555556,13.421944444444",Q666868,,,,,,,1946494.0
Hermannplatz,u-bahn,D,1946769_unified,"52.48629,13.42455",Q658929,,,,,,,1946225.0
Boddinstr.,u-bahn,D,1946770_unified,"52.48,13.425277777778",Q819495,,,,,,,194692.0
Leinestr.,u-bahn,D,1946771_unified,"52.472777777778,13.428333333333",Q668563,,,,,,,1946311.0
Alexanderplatz,u-bahn,E,1946772_unified,"52.5214,13.4119",Q17173458,,,,,,,19465.0
Schillingstr.,u-bahn,E,1946773_unified,"52.520277777778,13.421666666667",Q552899,,,,,,,1946470.0
Strausbergerplatz,u-bahn,E,1946774_unified,"52.518055555556,13.430833333333",Q570999,,,,,,,1946534.0
Memelerstr.,u-bahn,E,1946775_unified,"52.516794444444,13.444991666667",Q551768,,,,,,,1946343.0
Petersburgerstr.,u-bahn,E,1946776_unified,"52.515833333333,13.454166666667",Q568627,,,,,,,1946404.0
Samariterstr.,u-bahn,E,1946777_unified,"52.514722222222,13.464444444444",Q552891,,,,,,,1946466.0
Frankfurterallee,u-bahn,E,1946778_unified,"52.513638888889,13.475694444444",Q3752007,,,,,,,1946155.0
Magdalenenstr.,u-bahn,E,1946779_unified,"52.5125,13.486388888889",Q473901,,,,,,,1946329.0
Bhf. Lichtenberg,u-bahn,E,1946780_unified,"52.5106,13.4964",Q634247,,,,,,,194671.0
Friedrichsfelde,u-bahn,E,1946781_unified,"52.506111111111,13.512777777778",Q429781,,,,,,,1946167.0
