,line_id,stop_name,stop_order,stop_id
0,19761,"Moabit, Waldstrasse",0,1976974
1,19761,Turmstrasse,1,19761548
3,19761,Alt-Moabit,2,197641
5,19761,Franklinstrasse,3,1976404
6,19761,Otto-Suhr-Allee,4,19761084
7,19761,Bismarckstrasse,5,1976183
12,19761,Kantstrasse,6,1976721
13,19761,Kurfürstendamm,7,1976805
14,19761,Olivaer Platz,8,19761055
15,19761,Konstanzer Strasse,9,1976780
16,19761,U-Bhf. Fehrbelliner Platz,10,19761563
17,19761,U-Bhf. Blissestrasse,11,19761556
18,19761,Hildegardstrasse,12,1976627
19,19761,Laubacher Strasse Ecke Südwestkorso,13,1976843
20,19761,U-Bhf. Breitenbachplatz,14,19761558
21,19761,U-Bhf. Dahlem-Dorf,15,19761560
22,19761,Pacelli-/Thielallee,16,19761087
23,19761,Königin-Luise-Strasse,17,1976822
24,19761,U-Bhf. Oskar-Helene-Heim,18,19761604
25,19761,Winfriedstrasse,19,19761739
26,19761,Berliner Strasse,20,1976147
31,19761,Rathaus Zehlendorf,21,19761200
32,19761,Hampsteadstrasse Ecke Teltower Damm,22,1976568
33,19761,Goerzallee,23,1976492
34,19761,"Lichterfelde, Lindenstrasse",24,1976882
35,19762,Haselhorster Damm,0,1976579
36,19762,Gartenfelder Strasse,1,1976452
37,19762,Paulsternstrasse,2,19761113
40,19762,Nonnendammallee,3,19761035
41,19762,Grammestrasse,4,1976506
42,19762,Wernerwerkdamm,5,19761707
43,19762,Spandauer Damm,6,19761437
44,19762,U-Bhf. Kaiserdamm,7,19761579
45,19762,Funkturm/Omnibushf.,8,1976442
46,19762,Dernburgstrasse,9,1976303
47,19762,Amtgerichtsplatz,10,197687
48,19762,Kurfürstendamm,11,1976805
49,19762,Henriettenplatz,12,1976610
50,19762,Rathenauplatz,13,19761203
51,19762,Herbertstrasse/BSC-Sportplatz,14,1976611
52,19762,Elsterplatz,15,1976352
53,19762,Hundekehlestrasse,16,1976660
54,19762,Königen-Luise-Strasse/Museum Dahlem,17,1976820
55,19762,U-Bhf. Thielplatz,18,19761633
56,19762,Corrensplatz,19,1976287
58,19762,Berliner Strasse,20,1976148
62,19762,Teltower Damm,21,19761515
63,19762,Rathaus Zehlendorf,22,19761200
64,19762,Behring-Krankenhaus,23,1976133
65,19762,"Zehlendorf-Süd, Sachtlebenstrasse E. Lupsteiner Weg",24,19761769
66,19763,Dahlem Waldfriedhof,0,1976293
67,19763,U-Bhf. Oskar-Helene-Heim,1,19761604
68,19763,Garystrasse,2,1976457
69,19763,Corrensplatz,3,1976287
72,19763,Berliner Strasse,4,1976149
75,19763,Adolf-Martens-Strasse,5,19767
76,19763,Drakestrasse,6,1976321
77,19763,Gardeschützenweg,7,1976449
78,19763,Hindenburgd./Wiesenbaude,8,1976628
79,19763,Ostpreußendamm Ecke Königsbergerstrasse,9,19761080
81,19763,Marienstrasse/Königswart. Krankenhaus,10,1976952
82,19763,Morgensternstrasse,11,1976985
83,19763,Kranoldplatz,12,1976794
84,19763,Hildburghauser Strasse,13,1976625
86,19763,Marienfelder Allee,14,1976949
87,19763,Alt-Marienfelde,15,197639
88,19763,An der Heilandsweide,16,197691
89,19763,Stegerwaldstrasse,17,19761462
90,19763,Hranitzkystrasse,18,1976652
91,19763,Daimlerstrasse,19,1976296
92,19763,Wilhelm-v.-Siemsens-Strasse,20,19761718
93,19763,Alt-Mariendorf,21,197637
94,19763,U-Bhf. Alt-Mariendorf,22,19761550
95,19764,"Wedding, Bernauer Strasse",0,19761693
96,19764,Voltastrasse Ecke Brunnenstrasse,1,19761666
97,19764,Hussittenstrasse,2,1976662
98,19764,Nettelbeckplatz,3,19761015
99,19764,U-Bhf. Leopoldplatz,4,19761590
100,19764,Limburger Strasse/Rathaus Wedding,5,1976886
101,19764,U-Bhf. Seestrasse,6,19761624
103,19764,Müllerstrasse,7,19761003
104,19764,Barfusstrasse,8,1976123
105,19764,Aroser Allee,9,1976102
106,19764,Lindauer Allee,10,1976888
107,19764,Am Nordgraben Ecke Roedernallee,11,197674
109,19764,Oranienburger Strasse,12,19761065
110,19764,Eichborndamm,13,1976334
112,19764,Alt-Wittenau,14,197652
113,19764,Cyclopstrasse,15,1976290
114,19764,Waidmannsluster Damm,16,19761669
115,19764,Dianastrasse Ecke Oraniendamm,17,1976307
116,19764,Hermsdorfer Damm,18,1976619
121,19764,Berliner Strasse,19,1976151
122,19764,Zeltinger Platz,20,19761770
123,19764,Ludolfinger Platz,21,1976908
124,19764,Donnersmarckplatz,22,1976317
125,19764,Maximiliankorso E. Hainbuchenstrasse,23,1976960
126,19765,Alt-Heiligensee,0,197629
127,19765,Heiligenseestrasse,1,1976601
128,19765,Konradshöher Strasse Ecke Heiligenseestrasse,2,1976779
129,19765,Karolinenstrasse,3,1976733
130,19765,Alt-Tegel/U-Bhf. Tegel,4,197649
131,19765,Berlinerstrasse Ecke Gorkistrasse,5,1976153
132,19765,Krankenhaus Tegel-Süd,6,1976792
133,19765,Strasse nach Saatwinkel,7,19761478
136,19765,Paulsternstrasse,8,19761115
137,19765,Haselhorster Damm,9,1976579
138,19765,Am Juliusturm,10,197669
140,19765,Carl-Schurz-Strasse,11,1976271
141,19765,"Spandau, Markt",12,19761435
142,19765,Rathaus Spandau,13,19761194
143,19765,Brunsbütteler Damm Ecke Klosterstrasse,14,1976238
149,19766,Eberswalder Strasse,0,1976328
150,19766,U-Bhf. Dimitroffstrasse,1,19761561
151,19766,Prenzlauer Allee,2,19761160
152,19766,Greifswalder Strasse,3,1976513
153,19766,Artur-Becker-Strasse,4,1976104
154,19766,Leninallee,5,1976854
155,19766,Bersarinplatz,6,1976158
156,19766,Frankfurter Tor,7,1976402
157,19766,Holteistrasse,8,1976648
158,19766,Hauptstrasse (S-Bhf. Rummelsburg),9,1976584
159,19766,Kraftwerk Klingenberg,10,1976785
160,19766,Blockdammweg Ecke Hönower Wiesenweg,11,1976199
161,19767,Gesundbrunnen Rügener Strasse,0,1976478
162,19767,Rammlerstrasse Ecke Brunnenstrasse,1,19761186
163,19767,U-Bhf. Osloer Strasse,2,19761605
164,19767,Drontheimer Strasse,3,1976322
165,19767,Pankower Allee,4,19761095
167,19767,Emmentaler Strasse,5,1976354
168,19767,Residenzstrasse,6,19761227
169,19767,Aroser Allee,7,1976102
170,19767,Roedernallee Ecke Oranienburgerstrasse,8,19761252
171,19767,Ollenhauerstrasse Ecke Lindauer Allee,9,19761057
172,19767,Karl-Bonhoeffer-Nerven-Klinik,10,1976724
173,19767,Tessenowstrasse Ecke Oranienburgerstrasse,11,19761522
174,19767,Jansenstrasse,12,1976692
176,19767,Alt-Wittenau,13,197652
177,19767,Rathaus Reinickendorf,14,19761190
178,19767,Hermsdorfer Strasse Ecke Alt-Wittenau,15,1976620
179,19767,Ziekow-/Eschnachstrasse,16,19761780
180,19767,Berliner Strasse/U-Bhf. Tegel,17,1976152
181,19767,Ruppiner Chausee,18,19761272
182,19767,Heiligenseestrasse,19,1976601
183,19767,Fährstrasse,20,1976443
184,19767,Alt-Heiligensee,21,197629
185,19768,Artur-Becker-Strasse,0,1976104
186,19768,Leninallee/Dimitroffstrasse,1,1976855
187,19768,S-Bhf. Leninallee,2,19761303
188,19768,Ho-Chi-Minh-Strasse,3,1976635
189,19768,Degnerstrasse,4,1976301
190,19768,Falkenberger Strasse,5,1976373
191,19769,Waidmannslust Oraniendamm,0,19761668
192,19769,Zabel-Krüger-Damm,1,19761765
193,19769,Lübarser Strasse,2,1976917
194,19769,Eichhorster Weg Ecke Finsterwalderstrasse,3,1976340
195,19769,Steinkirchener Strasse,4,19761469
196,19769,Oranienburger Strasse,5,19761064
198,19769,Kinderheim,6,1976745
199,19769,"Alt-Wittenau, Kirche",7,197653
200,19769,Rathaus Reinickendorf,8,19761190
201,19769,Pannwitzstrasse,9,19761100
202,19769,"Eichborndamm, Tor 5",10,1976335
203,19769,Olbendorfer Weg,11,19761052
204,19769,Im Hufenschlag,12,1976674
205,19769,Breitenbachstrasse,13,1976223
206,19769,Holzhauser Strasse,14,1976650
207,19769,Eschachstrasse/Ziekowstrasse,15,1976366
208,19769,Berlinerstrasse Ecke Gorkistrasse,16,1976153
209,19769,Alt-Tegel/U-Bhf. Tegel,17,197649
210,19769,Gabrielenstrasse,18,1976446
211,19769,Karolinenstrasse,19,1976733
212,19769,Donnersmarckplatz,20,1976317
213,19769,Ludolfinger Platz,21,1976908
214,19769,Zeltinger Platz,22,19761770
215,19769,Frohnau Invalidensiedlung,23,1976436
216,197610,Bhf. Berlin-Lichtenberg,0,1976166
217,197610,Straßenbahn-Betriebshof,1,19761488
218,197610,Ho-Chi-Minh-Strasse,2,1976635
219,197610,S-Bhf. Leninallee,3,19761303
220,197610,Dimitroffstrasse,4,1976310
223,197610,Leninplatz,5,1976857
224,197610,Hans-Beimler-Strasse,6,1976570
225,197610,U-Bhf. Luxemburgplatz,7,19761592
226,197610,Hackescher Markt,8,1976558
227,197611,Reinickendorf Klemkestrasse/Sommerstrasse,0,19761222
228,197611,Reginhardstrasse,1,19761212
229,197611,Pankower Allee Ecke Reginhardstrasse,2,19761096
230,197611,Residenzstrasse,3,19761227
231,197611,U-Bhf. Osloer Strasse,4,19761605
232,197611,Reinickendorfer Strasse Ecke Osloerstrasse,5,19761224
233,197611,Müllerstrasse/U-Bhf. Seestrasse,6,19761006
234,197611,Seestrasse,7,19761396
235,197611,U-Bhf. Amrumer Strasse,8,19761553
236,197611,Fennstrasse,9,1976382
237,197611,Turmstrasse,10,19761548
240,197611,Alt-Moabit,11,197642
241,197611,U-Bhf. Hansaplatz,12,19761573
242,197611,Großer Stern,13,1976529
243,197611,Lützowplatz,14,1976918
244,197611,U-Bhf. Nollendorfplatz,15,19761603
245,197611,Hohenstaufenstrasse,16,1976641
246,197611,Grunewaldstrasse,17,1976536
247,197611,John-F.-Kennedy-Platz,18,1976705
248,197611,Bundesplatz,19,1976253
249,197611,Laubacher Strasse Ecke Südwestkorso,20,1976843
250,197611,Breitenbachplatz,21,1976220
251,197611,Breitenbachplatz Englerallee,22,1976222
252,197612,"Grunewald, Fontanestrasse",0,1976534
253,197612,Hagenplatz,1,1976561
254,197612,Teplitzer Strasse,2,19761521
255,197612,Roseneck,3,19761255
256,197612,Berkaer Strasse,4,1976143
257,197612,U-Bhf. Rüdesheimer Platz,5,19761618
258,197612,Laubacher Strasse/Südwestkorso,6,1976844
259,197612,U-Bhf. Friedrich-Wilhelm-Platz,7,19761564
260,197612,Kaisereiche/Schmiljanstrasse,8,1976716
261,197612,U-Bhf. Walther-Schreiber-Platz,9,19761642
262,197612,U-Bhf. Schloßstrasse,10,19761622
263,197612,Kieler Strasse,11,1976742
264,197612,U-Bhf. Rathaus Steglitz,12,19761612
266,197612,Heesestrasse,13,1976597
267,197612,Plantagenstrasse,14,19761135
268,197612,Bismarckstrasse,15,1976183
273,197612,Albrechtstrasse,16,197617
277,197612,Leonorenstrasse,17,1976859
278,197612,Birkbuschstrasse Ecke Siemensstrasse,18,1976177
279,197612,Ostpreußendamm Ecke Königsbergerstrasse,19,19761080
281,197612,Marienstrasse/Königswark. Krankenhaus,20,1976951
282,197612,Jungfernstieg,21,1976709
283,197612,Kranoldplatz,22,1976794
284,197612,Oberhofer Platz,23,19761045
285,197612,Lichterfelde Celsiusstrasse,24,1976876
286,197613,Haeckelstrasse,0,1976560
287,197613,Bhf. Schöneweide,1,1976173
288,197613,Wilhelminenhofstrasse,2,19761720
289,197613,Bhf. Karlshorst,3,1976170
290,197613,Hochschule für Ökonomie,4,1976637
291,197613,U-Bhf. Tierpark,5,19761635
292,197613,S-Bhf. Friedrichsfelde Ost,6,19761291
293,197613,Springpfuhlstrasse,7,19761449
294,197613,Siegfriedstrasse,8,19761408
295,197613,Ho-Chi-Minh-Strasse,9,1976635
296,197613,S-Bhf. Leninallee,10,19761303
297,197613,Dimitroffstrasse,11,1976310
300,197613,Leninplatz,12,1976857
301,197613,Hans-Beimler-Strasse,13,1976570
302,197613,U-Bhf. Luxemburgplatz,14,19761592
303,197613,Rosenthaler Platz,15,19761258
304,197613,Chausseestrasse,16,1976280
305,197613,Stadion der Weltjugend,17,19761456
306,197614,U-Bhf. Oskar-Helene-Heim,0,19761604
307,197614,Krankenhaus Oskar-Helene-Heim,1,1976791
308,197614,Sophie-Charlotte-Strasse,2,19761425
309,197614,Schützallee,3,19761388
310,197614,Scharfestrasse,4,19761336
311,197614,Potsdamer Strasse,5,19761148
316,197614,Fischerhüttenstrasse,6,1976388
317,197614,Lindenthaler Allee,7,1976895
318,197614,Spanische Allee,8,19761441
319,197614,Isoldestrasse,9,1976685
320,197614,Nibelungenstrasse,10,19761030
321,197614,Kronprinzessinnenweg,11,1976797
322,197614,Am Großen Wannsee,12,197667
323,197614,Endestrasse,13,1976356
324,197614,Pfaueninselchaussee,14,19761121
325,197614,Rathaus Wannsee,15,19761198
327,197614,Charlottenstrasse,16,1976277
328,197614,"Wilhelmplatz, Stölpchensee",17,19761721
329,197614,Kohlhasenbrück-Steinstücken,18,1976772
330,197615,Roseneck,0,19761255
331,197615,Teplitzer Strasse,1,19761521
332,197615,Richard-Strauß-Strasse,2,19761238
333,197615,Koenigsallee/Hagenplatz,3,1976771
334,197615,Kurfürstendamm/Ratenauplatz,4,1976807
335,197615,Henriettenplatz,5,1976610
336,197615,Joachim-Friedrich-Strasse,6,1976696
338,197615,Lehniner Platz,7,1976846
339,197615,Adenauerplatz,8,19764
340,197615,Olivaer Platz/Leibnizstrasse,9,19761056
341,197615,Bleibtreustrasse,10,1976196
342,197615,U-Bhf. Uhlandstrasse,11,19761640
343,197615,U-Bhf. Kurfürstendamm,12,19761586
344,197615,Breitscheidplatz,13,1976225
345,197615,Marburger Strasse,14,1976932
346,197615,U-Bhf. Wittenbergplatz,15,19761644
347,197615,Martin-Luther-Strasse,16,1976953
348,197615,U-Bhf. Nollendorfplatz,17,19761603
352,197615,Potsdamer Strasse,18,19761151
354,197615,Goebenstrasse,19,1976490
356,197615,U-Bhf. Yorckstrasse,20,19761645
357,197615,Großbeerenstrasse Ecke Yorckstrasse,21,1976528
358,197615,U-Bhf. Mehringdamm,22,19761594
359,197615,U-Bhf. Platz der Luftbrücke,23,19761610
360,197615,Platz der Luftbrücke,24,19761137
361,197616,"Köpenick, Krankenhaus",0,1976827
362,197616,Freiheit,1,1976411
363,197616,Institut für Lehrerbildung,2,1976682
364,197616,Pionierpark,3,19761131
365,197616,Edisonstrasse,4,1976330
366,197616,Bhf. Karlshorst,5,1976170
367,197616,Hochschule für Ökonomie,6,1976637
368,197616,U-Bhf. Tierpark,7,19761635
369,197616,S-Bhf. Friedrichsfelde Ost,8,19761291
370,197616,Springpfuhlstrasse,9,19761449
371,197616,Siegfriedstrasse,10,19761408
372,197616,Ho-Chi-Minh-Strasse,11,1976635
373,197616,S-Bhf. Leninallee,12,19761303
374,197616,Dimitroffstrasse,13,1976310
377,197616,Artur-Becker-Strasse,14,1976104
378,197617,U-Bhf. Friedrich-Wilhelm-Platz,0,19761564
379,197617,Stubenrauchstrasse,1,19761491
380,197617,U-Bhf. Walther-Schreiber-Platz,2,19761642
381,197617,Alsen-/Fregstrasse,3,197626
382,197617,Bismarckstrasse,4,1976183
387,197617,Lauenburger Platz,5,1976845
388,197617,Bergstrasse,6,1976139
390,197617,Selerweg,7,19761400
392,197617,Steglitzer Damm,8,19761466
393,197617,Munsterdamm,9,1976992
394,197617,Albrechtstrasse,10,197617
398,197617,Leonorenstrasse,11,1976859
399,197617,Rathaus Lankwitz,12,19761188
400,197617,"Lankwitz, Kirche",13,1976842
402,197617,Hildburghauser Strasse,14,1976626
403,197617,Waldsassener Strasse,15,19761671
404,197617,"Marienfelde, Waldsassener Strasse",16,1976948
405,197618,Tegelort,0,19761513
406,197618,Falkenplatz,1,1976375
407,197618,Heiligenseestrasse/Gabelung,2,1976602
408,197618,Schulzendorfer Weg,3,19761366
409,197618,Karolinenstrasse,4,1976733
410,197618,Gabrielenstrasse,5,1976446
411,197618,Alt-Tegel/U-Bhf. Tegel,6,197649
412,197618,Gorkistrasse,7,1976498
413,197618,Ziekowstrasse,8,19761781
414,197618,Freie Scholle,9,1976410
415,197618,Dianaplatz,10,1976306
416,197618,Oraniendamm,11,19761068
417,197618,Zabel-Krüger-Damm,12,19761765
418,197618,Am Vierrutenberg,13,197682
419,197618,Alt-Lübars,14,197635
420,197619,Quickborner Strasse Märkisches Viertel,0,19761178
421,197619,Wilhelmsruher Damm,1,19761728
422,197619,Schorfheidestrasse,2,19761360
423,197619,Wilhelmsruh Damm/Dannenwalder Weg,3,19761725
424,197619,Oranienburger Strasse,4,19761064
426,197619,Alt-Wittenau,5,197651
428,197619,Rathaus reinickendorf,6,19761201
429,197619,Breitenbachstrasse,7,1976223
430,197619,U-Bhf. Scharnweber Strasse,8,19761619
431,197619,U-Bhf. Kurt-Schumacher-Platz,9,19761588
432,197619,Kaserne Südtor,10,1976738
433,197619,"Heckerdamm, Volkspark Jungfernheide",11,1976592
434,197619,Jakob-Kaiser-Platz,12,1976690
435,197619,Olbersstrasse/DRK-Krankenhaus,13,19761053
438,197619,Landgericht,14,1976837
439,197619,Luisenplatz,15,1976910
443,197619,Bismarckstrasse,16,1976186
445,197619,Kantstraße Ecke Suarezstrasse,17,1976722
446,197619,Amtsgericht Charlottenburg,18,197688
447,197619,Kurfürstendamm,19,1976805
448,197619,Westfälische Strasse,20,19761710
449,197619,Rudolstädter Strasse,21,19761263
453,197619,Berliner Strasse,22,1976150
455,197619,Fehrbelliner Platz,23,1976380
456,197620,Eberswalder Strasse,0,1976328
457,197620,U-Bhf. Dimitroffstrasse,1,19761561
458,197620,Prenzlauer Allee,2,19761160
459,197620,Griefswalder Strasse,3,1976519
460,197620,Artur-Becker-Strasse,4,1976104
461,197620,Leninallee,5,1976854
462,197620,Frankfurter Tor,6,1976402
463,197620,Holteistrasse,7,1976648
464,197620,Hauptsrasse (S-Bhf. Berlin-Rummelsburg),8,1976582
465,197620,Kraftwerk Klingenberg,9,1976785
466,197620,Hönower Wiesenweg,10,1976670
467,197620,Hermann-Duncker-Strasse,11,1976612
468,197620,Wilhelminenhofstrasse,12,19761720
469,197620,Pionierpark,13,19761131
470,197620,Institut für Lehrerbildung,14,1976682
471,197620,Grünstrasse,15,1976544
472,197620,"Köpenick, Krankenhaus",16,1976827
473,197621,"Rosenthal, Hauptstrasse",0,19761256
474,197621,Nordendstrasse,1,19761039
475,197621,Platanenstrasse,2,19761136
476,197621,Kurt-Fischer-Platz,3,1976813
477,197621,"Pankow, Rathaus",4,19761093
478,197621,"Pankow, Kirche",5,19761091
479,197621,S-Bhf. Pankow,6,19761310
480,197621,U-Bhf. Pankow,7,19761608
481,197621,S-Bhf. Schönhauser Allee,8,19761317
482,197621,U-Bhf. Dimitroffstrasse,9,19761561
483,197621,Brunnenstrasse,10,1976237
484,197621,Oranienburger Tor,11,19761067
485,197621,Bhf. Friedrichstrasse,12,1976169
486,197621,Am Kupfergraben,13,197673
487,197622,U-Bhf. Holzhauser Strasse,0,19761576
488,197622,Wittestrasse,1,19761748
489,197622,Soltauer Strasse,2,19761418
490,197622,Breitenbachstrasse,3,1976223
491,197622,Miraustrasse,4,1976970
493,197622,Triftstrasse,5,19761545
494,197622,Rathaus Reinickendorf,6,19761190
495,197622,Alt-Wittenau,7,197651
497,197623,Falkenhöhe,0,1976374
498,197623,S-Bhf. Grünbergallee,1,19761297
499,197623,S-Bhf. Altglienicke,2,19761286
500,197623,Wolfmarsteig,3,19761751
501,197623,Schönefelder Chaussee,4,19761374
502,197623,"Altglienicke, Kirche",5,197659
503,197623,Kanalbrücke,6,1976720
504,197623,Glienicker Weg Ecke Köpenickerstrasse,7,1976486
505,197623,VEB Berlin-Chemie,8,19761658
506,197623,Adlergestell,9,19765
507,197623,S-Bhf. Adlershof,10,19761284
508,197624,"Zoo, Hardenbergplatz",0,19761786
509,197624,Jebenstrasse/Amerikahaus,1,1976694
510,197624,Steinplatz,2,19761470
511,197624,U-Bhf. Ernst-Reuter-Platz,3,19761562
512,197624,Hansaplatz,4,1976572
514,197624,Gotzkowskystrasse,5,1976503
515,197624,Hutten-/Turmstrasse,6,1976663
516,197624,Wittstocker Strasse,7,19761749
517,197624,Sickingen-/Siemensstrasse,8,19761405
518,197624,Beusselstrasse/Goerdelerdamm,9,1976165
519,197624,Hüttigpfad,10,1976671
520,197624,Friedrich-Olbricht-Damm,11,1976422
521,197624,Heckerdamm,12,1976590
523,197624,Jakob-Kaiser-Platz,13,1976690
524,197624,Kurt-Schumacher-Damm,14,1976815
525,197624,Heilmannring,15,1976603
526,197624,Goebelplatz,16,1976489
527,197624,Quellweg,17,19761177
528,197624,Nonnendammallee,18,19761035
529,197624,Siemensstadt Rohrdamm E. Buolstraße,19,19761412
530,197625,Moabit Wiebestrasse,0,1976972
531,197625,Huttenstrasse,1,1976664
532,197625,Reuchlinstrasse,2,19761229
534,197625,Gotzkowskystrasse,3,1976503
535,197625,Rathaus Tiergarten,4,19761197
537,197625,U-Bhf. Turmstrasse,5,19761637
538,197625,Krankenhaus Moabit,6,1976790
539,197625,Wilsnacker Strasse,7,19761737
541,197625,Rathenower Strasse,8,19761206
543,197625,Alt-Moabit,9,197640
546,197625,John-F.-Dulles-Allee (Kongreßhalle),10,1976704
547,197625,Tiergartenstrasse,11,19761533
548,197625,Lützowplatz,12,1976918
549,197625,Magdeburger Platz,13,1976922
554,197625,Potsdamer Strasse,14,19761152
555,197625,Askanischer Platz,15,1976107
556,197625,Großbeerenstrasse Ecke Hallesches Ufer,16,1976526
557,197625,U-Bhf. Hallesches Tor/Mehring-Damm,17,19761572
558,197625,U-Bhf. Gneisenaustrasse,18,19761568
559,197625,Columbiadamm,19,1976285
560,197625,Platz der Luftbrücke,20,19761137
561,197626,Britz-Süd,0,1976228
562,197626,Fritz-Erler-Allee,1,1976434
563,197626,Kormoranweg,2,1976781
564,197626,Grüner Weg,3,1976541
565,197626,Buschkrugallee Ecke Parchimer Allee,4,1976256
566,197626,U-Bhf. Parchimer Allee,5,19761609
567,197626,Britzer Damm,6,1976231
568,197626,Gradestrasse,7,1976504
569,197626,Karl-Elsasser Strasse,8,1976725
570,197626,Gottlieb-Dunkel-Strasse,9,1976501
571,197626,Germaniastrasse,10,1976474
572,197626,Wenckebachstrasse,11,19761699
573,197626,Tempelhofer Damm,12,19761519
574,197626,Attilaplatz,13,1976108
575,197626,Röblingstrasse/Arnulfstrasse,14,19761274
577,197626,Priesterweg,15,19761167
578,197626,Prellerweg,16,19761158
579,197626,Auguste-Viktoria-Krankenhaus,17,1976113
581,197626,Grazer Platz,18,1976509
582,197626,Rubensstrasse,19,19761261
584,197626,Friedenauer Brücke,20,1976416
585,197626,Kaisereiche,21,1976715
586,197626,U-Bhf. Friedrich-Wilhelm-Platz,22,19761564
587,197627,Sterndamm,0,19761475
588,197627,Bhf. Schöneweide,1,1976173
589,197627,Wilhelminenhofstrasse,2,19761720
590,197627,Rathenaustrasse,3,19761204
591,197627,Pionierpark,4,19761131
592,197627,Alte Försterei,5,197654
593,197627,Bahnhofstrasse,6,1976120
594,197627,Gellnitzstrasse,7,1976467
595,197627,Hirschgarten,8,1976631
596,197627,Bölschestrasse,9,1976258
597,197627,S-Bhf. Friedrichshagen,10,19761292
598,197627,Hartlebenstrasse,11,1976577
599,197627,Müggelseedamm,12,1976996
600,197627,Rahnsdorf,13,19761182
601,197628,Sterndamm,0,19761475
602,197628,Bhf. Schöneweide,1,1976173
603,197628,Wilhelminenhofstrasse,2,19761720
604,197628,Rathenaustrasse,3,19761204
605,197628,Pionierpark,4,19761131
606,197628,Weinert-Klubhaus,5,19761696
607,197628,Alte Försterei,6,197654
608,197628,Cardinalstrasse,7,1976270
609,197628,Bahnhofstrasse,8,1976120
610,197628,Grünstrasse,9,1976544
611,197628,Wendenschloßstrasse,10,19761702
612,197628,"Köpenick, Krankenhaus",11,1976827
613,197629,S-Bhf. Kaulsdorf,0,19761299
614,197629,Chemnitzer Strasse,1,1976283
615,197629,Jägerstrasse,2,1976710
616,197629,Gehsener Strasse,3,1976464
617,197629,S-Bhf. Köpenick,4,19761300
618,197629,Lindenstrasse,5,1976892
620,197629,Wendenschloßstrasse,6,19761701
621,197629,Krankenhaus Köpenick,7,1976789
622,197629,Müggelturm,8,1976997
623,197629,"Müggelheim, Dorf",9,1976995
624,197629,Alt-Müggelheim,10,197643
625,197630,U-Bhf. Tempelhof,0,19761629
626,197630,Boelckestrasse,1,1976204
627,197630,Werner-Voß Damm,2,19761704
628,197630,Loewenhardtdamm,3,1976903
629,197630,Dudenstrasse,4,1976324
630,197630,Kreuzbergstrasse,5,1976796
631,197630,Yorckstrasse/Rathaus Kreuzberg,6,19761764
632,197630,U-Bhf. Mehringdamm,7,19761594
633,197630,U-Bhf. Gneisenaustrasse/Zossener Strasse,8,19761569
634,197630,U-Bhf. Südstern,9,19761628
635,197630,Urbanstrasse,10,19761656
636,197630,Geibelstrasse,11,1976465
637,197630,Wilmsstrasse,12,19761736
638,197630,U-Bhf. Prinzenstrasse/Gitschiner Strasse,13,19761611
639,197630,U-Bhf. Kottbusser Tor,14,19761584
640,197630,Oranienstrasse,15,19761070
641,197630,Mariannenplatz,16,1976938
643,197630,Köpenicker Strasse,17,1976829
644,197630,U-Bhf. Schlesisches Tor,18,19761621
645,197630,Falckensteinstrasse,19,1976370
646,197630,Schlesische Strasse E. Heckmannufer,20,19761344
647,197631,"Grunewald, Roseneck",0,1976535
648,197631,Teplitzer Strasse,1,19761521
649,197631,Franzensbader Strasse/Sportplatz,2,1976407
650,197631,Bismarckplatz,3,1976182
651,197631,Kurfürstendamm/Rathenauplatz,4,1976808
652,197631,Henriettenplatz,5,1976610
654,197631,Joachim-Friedrich-Strasse,6,1976697
655,197631,Lehniner Platz,7,1976846
656,197631,Adenauerplatz,8,19764
657,197631,Olivaer Platz/Leibnizstrasse,9,19761056
658,197631,Bleibtreustrasse,10,1976196
659,197631,U-Bhf. Uhlandstr,11,19761639
660,197631,U-Bhf. Kurfürstendamm,12,19761586
661,197631,U-Bhf. Wittenbergplatz,13,19761644
662,197631,An der Urania,14,197693
664,197631,Kurfürstenstrasse,15,1976811
666,197631,Lützowplatz,16,1976918
667,197631,Kluckstrasse,17,1976765
668,197631,Potsdamer Brücke,18,19761146
669,197631,Askanischer Platz,19,1976107
670,197631,Friedrichstrasse/U-Bhf. Kochstrasse,20,1976432
672,197631,Lindenstrasse,21,1976893
673,197631,Alte Jakobstrasse,22,197655
674,197631,Alexandrinenstrasse,23,197624
675,197631,U-Bhf. Moritz-Platz,24,19761595
676,197631,Oranienplatz,25,19761069
677,197632,Düppel-Süd,0,1976326
678,197632,Machnower Strasse,1,1976920
679,197632,Rathaus Zehlendorf,2,19761200
680,197632,Potsdamer-/Berliner Strasse,3,19761154
681,197632,Clayallee,4,1976284
682,197632,Winfriedstrasse,5,19761739
683,197632,Argentinische Allee./U-Bhf. Onkel Toms Hütte,6,197699
684,197632,U-Bhf. Krumme Lanke,7,19761585
685,197632,Mexikoplatz,8,1976969
686,197632,Potsdamer Chaussee/Tierklinik FU,9,19761147
687,197632,Spanische Allee,10,19761441
688,197632,Rehwiese,11,19761214
689,197632,Wannseebadweg,12,19761680
690,197632,Königstrasse,13,1976825
691,197632,Am Großen Wannsee,14,197667
692,197632,Krankenhaus Wannsee,15,1976793
693,197632,"Wannsee, Heckeshorn",16,19761678
694,197633,Björnsonstrasse,0,1976189
695,197633,Schönhauser Allee,1,19761384
696,197633,Prenzlauer Allee,2,19761160
697,197633,Antonplatz,3,197697
698,197633,Lichtenberger Strasse,4,1976868
699,197633,Omnibus-Betriebshof,5,19761061
700,197633,Hohenschönhauser Strasse,6,1976640
701,197633,Leninallee,7,1976854
702,197633,Herzbergstrasse,8,1976623
703,197633,Frankfurter Allee,9,1976400
704,197633,Boxhagener Strasse,10,1976212
705,197633,S-Bhf. Warschauer Strasse (Revaler Strasse),11,19761321
706,197634,Ostbahnhof,0,19761076
707,197634,Franz-Mehring-Platz,1,1976406
708,197634,Warschauer Strasse,2,19761682
709,197634,Holteistrasse,3,1976647
710,197634,S-Bhf. Rummelsburg,4,19761316
711,197634,Irenenstrasse,5,1976684
712,197634,Omnibus Betriebshof,6,19761060
713,197634,Herzbergstrasse,7,1976622
714,197634,Samariterstrasse,8,19761329
715,197634,Mühsamstrasse,9,19761001
716,197634,Leninallee,10,1976852
717,197634,Artur-Becker-Strasse,11,1976103
718,197634,Bötzowstrasse,12,1976260
719,197634,Dimitroffstrasse,13,1976309
720,197634,Prenzlauer Berg,14,19761161
721,197634,U-Bhf. Luxemburgplatz,15,19761591
722,197634,Rosenthaler Platz,16,19761257
723,197634,Oranienburger Tor,17,19761066
724,197634,Robert-Koch-Platz,18,19761250
725,197635,U-Bhf. Rathaus Steglitz,0,19761612
727,197635,Albrechtstrasse,1,197617
730,197635,Breitestrasse,2,1976224
731,197635,Klingsorstrasse,3,1976759
732,197635,Bismarckstrasse,4,1976183
737,197635,Stindestrasse,5,19761477
738,197635,Siemensstrasse Ecke Albrechtstrasse,6,19761414
740,197635,Leonorenstrasse,7,1976859
741,197635,"Calandrellistrasse/Stadtbad, Rathaus",8,1976267
742,197635,"Lankwitz, Kirche",9,1976842
743,197635,Mühlenstrasse,10,1976998
745,197635,Malteserstrasse/Hospital,11,1976929
746,197635,Belßstrasse,12,1976135
747,197635,"Eiswald-/Emmichstrasse, Hochschule",13,1976347
748,197635,Preysingstrasse,14,19761165
749,197635,Marienfelder Allee,15,1976949
750,197635,Hildburghauser Strasse,16,1976625
752,197635,Motzener Strasse,17,1976989
753,197635,Nunsdorfer Ring/Süd,18,19761041
754,197635,Schichauweg,19,19761340
755,197635,Illigstrasse,20,1976673
756,197635,Steinstrasse Ecke Barnetstrasse,21,19761472
758,197635,Lichtenrader Damm,22,1976875
759,197635,Alt-Lichtenrade,23,197634
760,197635,Lichtenrade Nahariyastraße,24,1976872
761,197636,"Buch, Sandhaus",0,1976242
762,197636,S-Bhf. Buch,1,19761289
763,197636,Karower Strasse,2,1976735
764,197636,Erekweg,3,1976358
765,197636,Alt-Karow,4,197630
766,197636,Straße 26,5,19761485
768,197636,Blankenburg,6,1976191
769,197636,"Heinersdorf, Kirche",7,1976605
770,197636,Am Steinberg,8,197679
771,197636,Ostseestrasse,9,19761083
772,197637,U-Bhf. Ruhleben,0,19761617
773,197637,Friedhaus Ruhleben,1,1976418
774,197637,Güterbahn Ruhleben,2,1976555
775,197637,Teltower Strasse,3,19761516
776,197637,Tiefwerderweg,4,19761531
777,197637,Grenadierstrasse,5,1976515
778,197637,Stresowplatz,6,19761489
779,197637,"Spandau, Markt",7,19761435
780,197637,Rathaus Spandau,8,19761194
781,197637,Brunsbütteler Damm Ecke Klosterstrasse,9,1976238
782,197637,Elsflether Weg,10,1976351
783,197637,Grünhofer Weg,11,1976542
784,197637,Nauener Strasse,12,19761011
785,197637,Päwesiner Weg,13,19761175
786,197637,Egelpfuhlstrasse,14,1976332
787,197637,Harburger Weg,15,1976574
788,197637,Brunsbütteler Damm Ecke Magistratsweg,16,1976239
790,197637,Spandauer Strasse,17,19761439
791,197637,Eichholzbahn,18,1976339
792,197637,Hackbuschstrasse,19,1976557
793,197637,Staaken Heidebergplan,20,19761452
794,197638,Hans-Beimler-Strasse,0,1976569
795,197638,Am Friedrichshain,1,197665
796,197638,Leninplatz,2,1976856
797,197638,Karl Marx-Allee,3,1976723
798,197638,Ostbahnhof,4,19761076
799,197638,S-Bhf. Jannowitzbrücke,5,19761298
800,197638,Schulze-Delitz-Platz,6,19761364
801,197638,U-Bhf. Spittelmarkt,7,19761627
802,197638,Jerusalemer Strasse,8,1976695
803,197638,Friedrichstrasse,9,1976430
804,197638,U-Bhf. Thälmannplatz,10,19761634
805,197639,U-Bhf. Rathaus Steglitz,0,19761612
807,197639,Breite Strasse,1,1976215
809,197639,Klingsorstrasse,2,1976759
810,197639,Bismarckstrasse,3,1976183
815,197639,Stindestrasse,4,19761477
816,197639,Siemensstrasse Ecke Albrechtstrasse,5,19761414
818,197639,Leonorenstrasse,6,1976859
819,197639,Calandrellistrasse (Stadtbad),7,1976265
820,197639,Rathaus Lankwitz,8,19761188
821,197639,"Lankwitz, Kirche",9,1976842
822,197639,Mühlenstrasse,10,1976998
824,197639,Malteserstrasse,11,1976928
825,197639,Belßstrasse,12,1976135
826,197639,Eiswaldstrasse,13,1976348
827,197639,Preysingstrasse,14,19761165
828,197639,Marchandstrasse,15,1976934
829,197639,Friedrichsrodaer Strasse,16,1976428
830,197639,"Kloster ""Zum guten Hirten""",17,1976763
831,197639,Marienfelder Allee,18,1976949
832,197639,An der Heilandsweide,19,197691
833,197639,Stegerwaldstrasse,20,19761462
834,197639,Hranitzkystrasse,21,1976652
835,197639,Marienfelde Bahnstraße,22,1976945
836,197640,Grumbkowstrasse,0,1976531
837,197640,Kurt-Fischer-Strasse,1,1976814
838,197640,Bürgerpark,2,1976262
839,197640,"Pankow, Rathaus",3,19761092
840,197640,"Pankow, Kirche",4,19761090
841,197640,S-Bhf. Pankow,5,19761309
842,197640,U-Bhf. Pankow,6,19761607
843,197641,U-Bhf. Breitenbachplatz,0,19761558
844,197641,Björnsonstrasse,1,1976188
845,197641,Gritznerstrasse,2,1976522
846,197641,Lepsiusstrasse,3,1976861
847,197641,U-Bhf. Schloßstrasse,4,19761622
848,197641,Steglitzer Kreuz,5,19761468
849,197641,Filandastrasse,6,1976385
850,197641,Südendstrasse,7,19761506
851,197641,Klingsorstrasse,8,1976759
852,197641,Bismarckstrasse,9,1976183
857,197641,Halskestrasse,10,1976566
858,197641,Liebenowzeile,11,1976884
859,197641,Buhrowstrasse,12,1976251
860,197641,Attilastrasse,13,1976109
861,197641,Kurfürstenstrasse,14,1976810
864,197641,Gersdorfstrasse,15,1976475
865,197641,Rathausstrasse,16,19761202
866,197641,U-Bhf. Westphalweg,17,19761643
867,197641,Eisenacher Strasse,18,1976345
869,197641,Kollostrasse,19,1976773
870,197641,Kosleckweg,20,1976782
871,197641,Mariendorf Rixdorfer Strasse E. Dirschelweg,21,1976941
872,197642,Alt-Stralau,0,197648
873,197642,F.-Junge-Strasse,1,1976369
874,197642,Corinthstrasse,2,1976286
875,197642,Modersohnstrasse,3,1976975
876,197642,S-Bhf. Warschauer Strasse,4,19761320
877,197642,U-Bhf. Marehlewskistrasse,5,19761593
878,197643,"Spandau, Wasserwerk",0,19761436
879,197643,Zeppelinstrasse Ecke Falkenseer Chaussee,1,19761777
880,197643,Wröhmännerpark,2,19761759
881,197643,Carl-Schurz-Strasse,3,1976271
882,197643,Spandau Markt,4,19761431
883,197643,Rathaus Spandau,5,19761194
884,197643,Brunsbütteler Damm Ecke Klosterstrasse,6,1976238
885,197643,Seeburger Strasse,7,19761390
886,197643,Weißenburger Strasse,8,19761698
887,197643,Adamstrasse,9,19762
888,197643,Heerstrasse,10,1976594
889,197643,Jaczostrasse,11,1976686
890,197643,Gatower Strasse,12,1976460
891,197643,Sandheideweg,13,19761331
892,197643,Weinmeisterhornweg,14,19761697
893,197643,"Gatower Strasse ""Biberburg""",15,1976461
894,197643,"Gatow, Kirche",16,1976459
895,197643,Groß-Glienicker Weg,17,1976523
896,197643,Breitehornweg/Krankenhaus,18,1976219
897,197643,"Flugplatz, Haupteingang",19,1976393
898,197643,"Havelhöhe, Krankenhaus",20,1976587
899,197643,"Kladow, Ritterfelddamm",21,1976753
900,197643,Schweizerhaus,22,19761370
901,197643,Seekorso,23,19761394
902,197643,Glienicke Gutshof,24,1976483
903,197644,Revaler Strasse,0,19761233
904,197644,S-Bhf. Warschauer Strasse,1,19761320
905,197644,Ost-Güterbahnhof,2,19761075
906,197644,Andreasstrasse (Ostbahnhof),3,197694
907,197645,Alt-Gatow,0,197628
908,197645,Groß-Glienicker Weg,1,1976523
909,197645,zum Dorf Gatow,2,19761795
910,197645,Habichtswald,3,1976556
911,197646,Pirolstrasse,0,19761133
912,197646,Dohlengrund,1,1976314
913,197646,Oberfeldstrasse,2,19761044
914,197646,Am Tierpark,3,197681
915,197646,U-Bhf. Friedrichsfelde,4,19761566
916,197646,Lincolnstrasse,5,1976887
917,197646,S-Bhf. Nöldnerplatz,6,19761306
918,197647,U-Bhf. Ruhleben,0,19761617
919,197647,Friedhof Ruhleben,1,1976419
920,197647,Güterbahn Ruhleben,2,1976555
921,197647,Teltower Strasse,3,19761516
923,197647,Pichelsdorfer Strasse,4,19761126
924,197647,Adamstrasse,5,19762
927,197647,Wilhelmstrasse,6,19761733
928,197647,Am Omnibushof,7,197676
929,197647,Gatower Strasse/Heerstrasse,8,1976462
930,197647,Sandheideweg,9,19761331
931,197647,Weinmeisterhornweg,10,19761697
932,197647,Zur Haveldüne,11,19761789
933,197647,"Gatower Strasse ""Biberburg""",12,1976461
934,197647,Ortsgrenze Gatow,13,19761071
935,197647,Gatow Kirche,14,1976458
936,197647,Groß-Glienicker Weg,15,1976523
937,197647,Am Graben,16,197666
938,197647,Straße zur Badewiese,17,19761487
939,197647,Breitehornweg/Krankenhaus,18,1976219
940,197647,"Flugplatz, Haupteingang",19,1976393
941,197647,"Havelhöhe, Krankenhaus",20,1976587
942,197647,Finnensiedlung,21,1976387
943,197647,Ritterfelddamm/Alt-Kadow,22,19761247
944,197647,Krampnitzer Weg,23,1976787
945,197647,Kladow Hottengrund,24,1976752
946,197648,Kladow,0,1976751
947,197648,Sakrower Landstrasse,1,19761326
948,197648,Grimmelshausenstrasse,2,1976520
949,197648,Krampnitzer Weg,3,1976787
950,197648,Pottensteiner Weg,4,19761155
951,197648,Altenheim Hottengrund,5,197657
952,197649,Flughafen Berlin-Schönefeld,0,1976391
953,197649,Bhf. Schönefeld,1,1976171
954,197649,S-Bhf. Grünbergallee,2,19761297
955,197649,"Bohnsdorf, Kirche",3,1976205
956,197649,Gartenstadtweg,4,1976455
957,197649,S-Bhf. Grünau,5,19761295
958,197650,Bhf. Schönefeld,0,1976171
959,197650,Flughafen Berlin-Schönefeld,1,1976391
960,197651,S-Bhf. Friedrichsfelde Ost,0,19761290
961,197651,Bhf. Springpfuhl,1,1976174
962,197651,Landsberger Chaussee,2,1976839
963,197651,IHB Instandsetzung,3,1976672
964,197651,Marzahner Strasse,4,1976956
965,197651,Chemie Handel,5,1976281
966,197652,S-Bhf. Grünau,0,19761295
967,197652,Joachimstrasse,1,1976700
968,197652,Eichbuschplatz,2,1976337
969,197652,Waltersdorfer Strasse,3,19761674
970,197652,"Bohnsdorf, Waldstrasse",4,1976206
971,197652,Waltersdorf,5,19761673
972,197652,Kienberg,6,1976743
973,197652,Mitschurinweg,7,1976971
974,197652,Diepensee,8,1976308
975,197653,"Wartenberg, Siedlung",0,19761685
976,197653,Lindenberger Strasse,1,1976890
977,197653,Falkenberger Chaussee,2,1976371
978,197653,Arminstrasse,3,1976101
979,197653,Falkenberger Strasse,4,1976372
980,197654,"Neu-Westend, Brixplatz",0,19761017
981,197654,U-Bhf. Neu-Westend,1,19761600
982,197654,U-Bhf. Theodor-Heuss-Platz,2,19761631
984,197654,Masurenallee/Ausstellungshaus,3,1976958
985,197654,Funkturm/Omnibusbahnhof,4,1976441
986,197654,Messedamm/Deutschlandhaus,5,1976967
987,197654,Kurfürsten-Damm/Rathenauplatz,6,1976804
988,197654,Henriettenplatz,7,1976610
990,197654,Joachim-Friedrich-Strasse,8,1976697
991,197654,Hochmeisterplatz,9,1976636
992,197654,U-Bhf. Fehrbelliner Platz,10,19761563
993,197654,U-Bhf. Blissestrasse,11,19761556
994,197654,U-Bhf. Berliner Strasse,12,19761554
995,197654,John-F.-Kennedy-Platz,13,1976705
996,197654,Hauptstrasse Ecke Dominicusstrasse,14,1976585
997,197654,Kaiser-Wilhelm-Platz,15,1976713
998,197654,Katzbach/Boelckestrasse,16,1976739
999,197654,Platz der Luftbrücke,17,19761137
1000,197654,Friesenstraße,18,1976433
1001,197654,Hermannstrasse/U-Bhf. Boddinstrasse,19,1976617
1002,197654,Kienitzer Str,20,1976744
1003,197654,U-Bhf. Karl-Marx-Strasse,21,19761581
1004,197654,Erkstrasse/U-Bhf. Rathaus Neukölln,22,1976362
1006,197654,Sonnenallee,23,19761420
1008,197654,"Neukölln, Teupitzer Strasse",24,19761028
1009,197655,Eberswalder Strasse,0,1976328
1010,197655,U-Bhf. Dimitroffstrasse,1,19761561
1011,197655,Prenzlauer Allee,2,19761160
1012,197655,Greifswalder Strasse,3,1976513
1013,197655,Artur-Becker-Strasse,4,1976104
1014,197655,Leninallee,5,1976854
1015,197655,Bersarinplatz,6,1976158
1016,197655,Frankfurter Tor,7,1976402
1017,197655,Grünberger Strasse,8,1976540
1018,197655,S-Bhf. Warschauer Strasse (Revaler Strasse),9,19761321
1019,197656,Rudow Stadtgrenze,0,19761265
1021,197656,U-Bhf. Rudow,1,19761616
1022,197656,Zwickauer Damm,2,19761793
1023,197656,Efeuweg,3,1976331
1024,197656,Lipschitzallee,4,1976900
1025,197656,Grüner Weg,5,1976541
1026,197656,Parchimer Allee,6,19761105
1027,197656,Blaschkoallee,7,1976194
1028,197656,Jahnstrasse/U-Bhf. Grenzallee,8,1976689
1029,197656,Naumburger Strasse,9,19761012
1031,197656,Grenzallee,10,1976517
1032,197656,Saalestrasse,11,19761322
1033,197656,Erkstrasse,12,1976361
1034,197656,Reuterstrasse,13,19761230
1035,197656,Hermannplatz,14,1976613
1036,197656,Schönleinstrasse/U-Bhf. Kottbusser Damm,15,19761387
1037,197656,U-Bhf. Kottbusser Tor,16,19761584
1038,197656,Oranienplatz,17,19761069
1039,197656,U-Bhf. Moritzplatz,18,19761596
1040,197656,Alexandrinenstrasse,19,197624
1041,197656,Alte Jakobstrasse,20,197655
1043,197656,Lindenstrasse,21,1976893
1044,197656,Neuenburger Strasse,22,19761020
1045,197656,Gitschiner Strasse,23,1976480
1047,197656,U-Bhf. Hallesches Tor,24,19761571
1048,197657,Buch,0,1976240
1049,197657,Karower Strasse,1,1976735
1050,197657,Erekweg,2,1976358
1051,197657,Alt-Karow,3,197630
1052,197657,Blankenburg,4,1976190
1054,197657,"Heinerdorf, Kirche",5,1976604
1055,197657,Prenzlauer Promenade,6,19761162
1056,197657,Ostseestrasse,7,19761083
1057,197658,Bürknersfelde,0,1976264
1058,197658,Stadtberg,1,19761457
1059,197658,Bhf. Springpfuhl,2,1976174
1060,197658,S-Bhf. Friedrichsfelde Ost,3,19761290
1061,197658,Am Tierpark,4,197681
1062,197658,U-Bhf. Friedrichsfelde,5,19761566
1063,197658,Hans-Loch-Strasse,6,1976571
1064,197658,S-Bhf. Nöldnerplatz,7,19761306
1065,197659,"Hönow, Dorf",0,1976668
1066,197659,Berliner Chaussee,1,1976145
1067,197659,Am Barschsee,2,197661
1068,197659,Thälmannstrasse,3,19761530
1069,197659,Greifswalder Strasse,4,1976510
1071,197659,Am Rosenhag,5,197677
1072,197659,Karlshafener Strasse,6,1976729
1073,197659,Linderhofstrasse,7,1976897
1074,197659,S-Bhf. Mahlsdorf,8,19761304
1075,197660,S-Bhf. Mahlsdorf,0,19761304
1076,197660,Am Rosenhag,1,197677
1077,197660,An den Siedlergärten,2,197690
1078,197660,Hönower Strasse,3,1976669
1079,197660,Am Rosenhag,4,197677
1080,197660,S-Bhf. Mahlsdorf,5,19761304
1081,197661,"Wilhelmsruh, Schillerstrasse",0,19761727
1082,197661,Edelweißstrasse,1,1976329
1083,197661,Heinrich-Mann-Platz,2,1976608
1084,197661,"Pankow, Rathaus",3,19761092
1085,197661,"Pankow, Kirche",4,19761090
1086,197661,S-Bhf. Pankow,5,19761309
1087,197661,Prenzlauer Promenade,6,19761162
1088,197661,Am Steinberg,7,197679
1089,197661,Hamburger Platz,8,1976567
1090,197661,Klement-Gottwald-Allee,9,1976756
1091,197661,Lichtenberger Strasse,10,1976867
1092,197661,Rennbahnstrasse,11,19761226
1093,197661,Schwarzelfenweg,12,19761369
1094,197662,Nordend,0,19761037
1095,197662,Kurt-Fischer-Platz,1,1976813
1096,197662,"Pankow, Rathaus",2,19761093
1097,197662,"Pankow, Kirche",3,19761091
1098,197662,S-Bhf. Pankow,4,19761310
1099,197662,U-Bhf. Pankow,5,19761608
1100,197662,S-Bhf. Schönhauser Allee,6,19761317
1101,197662,U-Bhf. Dimitroffstrasse,7,19761561
1102,197662,Brunnenstrasse,8,1976237
1103,197662,Oranienburger Tor,9,19761067
1104,197662,Bhf. Friedrichstrasse,10,1976169
1105,197662,Am Kupfergraben,11,197673
1106,197663,Bhf. Schöneweide,0,1976172
1107,197663,Königsheideweg,1,1976824
1108,197663,Johannisthaler Chaussee,2,1976702
1109,197663,S-Bhf. Baumschulenweg,3,19761287
1110,197663,"Treptow, Rathaus",4,19761541
1111,197663,S-Bhf. Treptower Park,5,19761319
1112,197663,"Treptow, Eichenstrasse",6,19761540
1113,197664,Richard-Sorge-Strasse,0,19761237
1114,197664,S-Bhf. Leninallee,1,19761302
1115,197664,Ho Chi-Minh-Strasse,2,1976633
1116,197664,Gensletstrasse,3,1976472
1117,197664,Plauener strasse,4,19761140
1118,197664,Gärtnerstrasse,5,1976550
1119,197664,Chemie-Handel,6,1976282
1120,197665,Zehlendorf Fischerhüttenstrasse E. Potsdamer Strasse,0,19761767
1121,197665,Potsdamer Strasse,1,19761148
1126,197665,Teltower Damm,2,19761515
1128,197665,Berliner Strasse,3,1976148
1132,197665,Seehofstrasse,4,19761393
1133,197665,Sundgauer Strasse,5,19761499
1134,197665,Dahlemer Weg,6,1976295
1135,197665,Drakestrasse,7,1976321
1136,197665,Wrangelstrasse,8,19761758
1137,197665,U-Bhf. Rathaus Steglitz,9,19761612
1139,197665,U-Bhf. Schloßstrasse,10,19761622
1140,197665,U-Bhf. Walther-Schreiber-Platz,11,19761642
1141,197665,Kaisereiche,12,1976715
1142,197665,Breslauer Platz/Rathaus Friedenau,13,1976226
1143,197665,U-Bhf. Innsbrucker Platz,14,19761577
1144,197665,Dominicusstrasse,15,1976316
1145,197665,Albertstrasse,16,197613
1146,197665,Kaiser-Wilhelm-Platz,17,1976713
1147,197665,U-Bhf. Kleistpark,18,19761582
1149,197665,Goebenstrasse,19,1976491
1150,197665,Bülowstrasse,20,1976261
1151,197665,U-Bhf. Kurfürstenstrasse,21,19761587
1152,197665,Lützowstrasse,22,1976919
1153,197665,Potsdamer Brücke,23,19761146
1154,197665,Tiergartenstrasse Philharmonie,24,19761534
1155,197666,"Bucholz, Hauptstrasse",0,1976243
1156,197666,Rosenthaler Strasse,1,19761259
1157,197666,S-Bhf. Pankow-Heinersdorf,2,19761311
1158,197666,"Pankow, Kirche",3,19761091
1159,197666,S-Bhf. Pankow,4,19761310
1160,197666,U-Bhf. Pankow,5,19761608
1161,197666,S-Bhf. Schönhauser Allee,6,19761317
1162,197666,U-Bhf. Dimitroffstrasse,7,19761561
1163,197666,Rosenthaler Platz,8,19761258
1164,197666,Hackescher Markt,9,1976558
1165,197667,U-Bhf. Ruhleben,0,19761617
1166,197667,Friedhaus Ruhleben,1,1976418
1167,197667,Güterbahn Ruhleben,2,1976555
1168,197667,Teltower Strasse,3,19761516
1169,197667,Tiefwerderweg,4,19761531
1170,197667,Grenadierstrasse,5,1976515
1171,197667,Stresowplatz,6,19761489
1172,197667,"Spandau, Markt",7,19761435
1173,197667,Rathaus Spandau,8,19761194
1174,197667,Galenstrasse,9,1976447
1175,197667,Staakener Strasse,10,19761453
1176,197667,Dallgower Strasse,11,1976297
1177,197667,Seegefelder Strasse,12,19761392
1178,197667,Spekteweg,13,19761442
1179,197667,Merziger Strasse,14,1976965
1180,197667,Falkenseer Chaussee,15,1976376
1181,197667,Siegener Strasse (Friedhof),16,19761407
1182,197667,Mühlheimer Strasse,17,19761000
1183,197667,Am Kiesteich,18,197671
1184,197667,Falkenseer Chaussee/Stadtrandstrasse,19,1976377
1185,197667,Nervenklinik Spandau,20,19761014
1186,197668,Rolandstrasse,0,19761253
1187,197668,Kurt-Fischer-Strasse,1,1976814
1188,197668,Bürgerpark,2,1976262
1189,197668,Dolomitenstrasse,3,1976315
1190,197668,U-Bhf. Pankow,4,19761607
1191,197669,Grunewald Roseneck,0,1976533
1192,197669,Rheinbabenallee,1,19761234
1193,197669,Hohenzollerndamm,2,1976642
1194,197669,Berkaer Strasse/ Elsterplatz,3,1976144
1195,197669,Forckenbeckstrasse,4,1976397
1196,197669,Landecker Strasse,5,1976835
1197,197669,Cunostrasse,6,1976289
1198,197669,Rudolstädter Strasse,7,19761263
1202,197669,Berliner Strasse,8,1976150
1204,197669,U-Bhf. Fehrbelliner Platz,9,19761563
1205,197669,Emser Platz,10,1976355
1206,197669,Uhlandstrasse,11,19761649
1210,197669,Nassauische Strasse,12,19761009
1211,197669,Bundesallee,13,1976252
1212,197669,Prager Platz,14,19761156
1213,197669,Landshuter Strasse,15,1976840
1214,197669,U-Bhf. Viktoria-Luise-Platz,16,19761641
1215,197669,Martin-Luther-Strasse,17,1976953
1217,197669,Eisenacher Strasse,18,1976346
1218,197669,Winterfeldtplatz,19,19761740
1221,197669,Potsdamer Strasse,20,19761150
1224,197669,Mansteinstrasse,21,1976931
1225,197669,Schöneberg Mansteinstraße,22,19761373
1226,197670,"Buch, Sandhaus",0,1976242
1227,197670,S-Bhf. Buch,1,19761289
1228,197670,Akademie der Wissenschaften,2,197612
1229,197670,"Zepernick, Kirche",3,19761774
1230,197670,Zepernicker Strasse,4,19761775
1231,197671,Achtermannstrasse,0,19760
1232,197671,Paracelsiusstrasse,1,19761103
1233,197671,Galenusstrasse,2,1976448
1234,197671,Granitzstrasse,3,1976507
1235,197671,Prenzlauer Promendade,4,19761163
1236,197671,U-Bhf. Pankow,5,19761607
1237,197672,Rudow Stubenrauchstrasse,0,19761266
1238,197672,Seidelbastweg,1,19761398
1239,197672,Efeuweg,2,1976331
1240,197672,Rudower Strasse,3,19761267
1241,197672,Lipschitzallee,4,1976900
1242,197672,Loewensteinring,5,1976904
1243,197672,Fritz-Erler-Allee,6,1976434
1244,197672,U-Bhf. Johannisthaler Chaussee,7,19761578
1245,197672,Kölner Damm,8,1976818
1246,197672,Buckower Damm,9,1976248
1247,197672,Buckower Friedhof,10,1976249
1248,197672,Quarzweg,11,19761176
1250,197672,Lichtenrader Damm,12,1976875
1251,197672,Kettinger Strasse,13,1976741
1252,197672,Buckower Chaussee,14,1976246
1253,197672,Motzener Strasse,15,1976989
1254,197672,Gutshof Marienfeld,16,1976549
1255,197672,Alt-Marienfelde,17,197639
1256,197672,Ahrensdorfer Strasse,18,197611
1257,197672,Baußnerweg,19,1976129
1258,197672,Marienfelde Stadrandsiedlung,20,1976947
1259,197673,Degnerstrasse,0,1976300
1260,197673,Landsberger Chaussee,1,1976839
1261,197673,S-Bhf. Friedrichsfelde Ost,2,19761290
1262,197673,U-Bhf. Friedrichsfelde,3,19761566
1263,197673,Mellenstrasse,4,1976963
1264,197674,Nikolassee Alemannenstrasse,0,19761033
1265,197674,An der Rehwiese,1,197692
1266,197674,Krottnauererstrasse,2,1976798
1267,197674,Waldemarplatz,3,19761670
1268,197674,Argentinische Allee,4,197698
1269,197674,Forststrasse,5,1976398
1270,197674,U-Bhf. Krumme Lanke,6,19761585
1271,197674,Sven-Hedin-Strasse,7,19761500
1272,197674,Hartmannsweiler Weg,8,1976578
1274,197674,Potsdamer Strasse,9,19761149
1278,197674,Teltower Damm,10,19761515
1279,197674,Rathaus Zehlendorf,11,19761200
1280,197674,Machnower Strasse,12,1976920
1281,197674,Knesebeckstrasse,13,1976768
1282,197674,Dahlemer Weg,14,1976295
1283,197674,Osteweg,15,19761078
1284,197674,Luzerner Strasse,16,1976912
1285,197674,Thuner Platz,17,19761527
1286,197674,Goerzallee,18,1976492
1287,197674,Drakestrasse,19,1976321
1288,197674,Ostpreußendamm Ecke Königsbergerstrasse,20,19761080
1290,197674,Marienstrasse,21,1976950
1291,197674,Morgensternstrasse,22,1976985
1292,197674,Kranoldplatz,23,1976794
1293,197674,Lichterfelde Oberhofer Platz,24,1976878
1294,197675,Artur-Becker-Strasse,0,1976103
1295,197675,S-Bhf. Leninallee,1,19761302
1296,197675,Ho-Chi-Minh-Strasse,2,1976634
1297,197675,Genslerstrasse,3,1976471
1298,197675,Heizkraftwerk,4,1976609
1299,197675,Stadtberg,5,19761457
1300,197675,Bürknersfelde,6,1976264
1301,197675,Stadtberg,7,19761457
1302,197675,Elisabethstrasse,8,1976350
1303,197675,S-Bhf. Biesdorf,9,19761288
1304,197675,Am Tierpark,10,197681
1305,197675,Irenenstrasse,11,1976684
1306,197676,Spandau Johannesstift,0,19761430
1307,197676,Stadtpark/Cautiusstrasse,1,19761459
1308,197676,Hohenzollernring,2,1976645
1309,197676,Lynarstrasse,3,1976914
1310,197676,Wröhmännerpark,4,19761759
1311,197676,Moritzstrasse,5,1976987
1312,197676,Rathaus Spandau,6,19761194
1313,197676,Brunsbütteler Damm Ecke Klosterstrasse,7,1976238
1314,197676,Teltower Strasse,8,19761516
1315,197676,Friedhof Ruhleben,9,1976419
1316,197676,U-Bhf. Ruhleben,10,19761617
1317,197676,Reichsstrasse,11,19761217
1318,197676,Klinikum Westend,12,1976761
1319,197676,Königin-Elisabeth-Strasse,13,1976821
1320,197676,Spandauer-Damm-Brücke,14,19761440
1321,197676,Sophie-Charlotten-Strasse,15,19761426
1322,197676,Klausenerplatz,16,1976754
1323,197676,Luisenplatz,17,1976910
1324,197676,Wilmersdorfer Strasse,18,19761735
1325,197676,Richard-Wagner-Platz,19,19761239
1326,197676,Leibnizstrasse,20,1976850
1327,197676,U-Bhf. Ernst-Reuter-Platz,21,19761562
1328,197676,Jebensstrasse/Amerikahaus,22,1976693
1329,197676,"Zoo, Hardenbergplatz",23,19761786
1330,197677,"Zoo, Hardenbergplatz",0,19761786
1331,197677,Ernst-Reuter-Platz,1,1976364
1332,197677,Cauerstraße,2,1976273
1333,197677,Luisenplatz,3,1976910
1334,197677,Klausenerplatz,4,1976754
1335,197677,Fürstenbrunner Weg,5,1976445
1336,197677,Kirschenallee,6,1976749
1337,197677,Schloß Ruhwald,7,19761349
1338,197677,U-Bhf. Ruhleben,8,19761617
1339,197677,Rathaus Spandau,9,19761194
1340,197677,Moritzstraße,10,1976988
1341,197677,Wröhmännerpark,11,19761759
1342,197677,Predigergarten,12,19761157
1343,197677,Lynarstraße,13,1976915
1344,197677,Klinkeplatz,14,1976762
1345,197678,Fontanestrasse,0,1976396
1346,197678,Edelweißstrasse,1,1976329
1347,197678,"Pankow, Rathaus",2,19761092
1348,197678,S-Bhf. Pankow,3,19761309
1349,197678,U-Bhf. Pankow,4,19761607
1350,197678,Prenzlauer Promenade,5,19761162
1351,197678,"Heinersdorf, Kirche",6,1976605
1352,197678,Pasedagplatz,7,19761109
1353,197678,Klement-Gottwald-Allee,8,1976756
1354,197678,Piesporter Strasse,9,19761129
1355,197679,"Zoo, Hardenbergplatz",0,19761786
1356,197679,Jebensstrasse/Amerikahaus,1,1976693
1357,197679,Ernst-Reuter-Platz,2,1976364
1358,197679,Leibnizstrasse,3,1976850
1359,197679,Richard-Wagner-Platz,4,19761239
1360,197679,Luisenplatz,5,1976910
1361,197679,Tauroggener Strasse,6,19761509
1362,197679,Landgericht/Osnabrücker Strasse,7,1976838
1363,197679,Olbersstrasse/DRK-Krankenhaus,8,19761053
1365,197679,Jakob-Kaiser-Platz,9,1976690
1366,197679,Letterhausweg,10,1976864
1367,197679,Quellweg,11,19761177
1368,197679,Siemens-Verwaltungsgebäude,12,19761410
1369,197679,Paulsternstrasse,13,19761113
1372,197679,Gartenfelder Strasse,14,1976452
1373,197679,Haselhorster Damm,15,1976579
1374,197679,Am Juliusturm,16,197669
1376,197679,Zitadellenweg,17,19761783
1377,197679,Zur Zitadelle,18,19761790
1378,197679,Breite Strasse/Am Juliusturm,19,1976217
1379,197679,Carl-Schurz-Strasse,20,1976271
1380,197679,Wröhmännerpark,21,19761759
1381,197679,Lynastrasse,22,1976916
1382,197679,Hohenzollernring,23,1976645
1383,197679,Spandau Hakenfelde,24,19761429
1384,197680,Nüßlerstrasse,0,19761043
1385,197680,Hamburger Platz,1,1976567
1386,197680,S-Bhf. Prenzlauer Allee,2,19761313
1388,197680,Greifswalder Strasse,3,1976511
1389,197680,S-Bhf. Leninallee,4,19761302
1390,197680,Artur-Becker-Strasse,5,1976103
1391,197681,U-Bhf. Ruhleben,0,19761617
1392,197681,Friedhof Ruhleben,1,1976419
1393,197681,Klärwerkstrasse,2,1976766
1394,197681,Freiheit 42/43,3,1976412
1395,197681,Pichelswerderstrasse,4,19761128
1396,197681,Stresowplatz,5,19761489
1397,197681,Charlottenstrasse Ecke Breitestrasse,6,1976278
1398,197681,"Spandau, Markt",7,19761435
1399,197681,Carl-Schurz-Strasse,8,1976271
1400,197681,Wröhmännerpark,9,19761759
1401,197681,Triftstrasse,10,19761544
1403,197681,Lynar-/Parkstrasse,11,1976913
1404,197681,Schäferstrasse,12,19761371
1405,197681,Hohenzollernring,13,1976645
1406,197681,Reußstrasse,14,19761232
1407,197681,Rauchstrasse,15,19761208
1408,197681,Mertensstrasse,16,1976964
1409,197681,Spandau Hakenfelde,17,19761429
1410,197682,Artur-Becker-Strasse,0,1976103
1411,197682,Hufelandstrasse,1,1976653
1412,197682,Am Friedrichshain,2,197665
1413,197682,Alexanderplatz,3,197620
1414,197682,Deutsche Staatsoper,4,1976305
1415,197682,Charlottenstrasse Ecke Unter den Linden,5,1976279
1416,197682,Bhf. Friedrichstrasse,6,1976168
1417,197682,Reinhardtstrasse,7,19761220
1418,197682,Oranienburger Tor,8,19761066
1419,197682,Platz vor dem Neuen Tor,9,19761139
1420,197682,Scharnhorststrasse,10,19761337
1421,197683,Zittauer Strasse,0,19761784
1422,197683,U-Bhf. Zwickauer Damm,1,19761646
1423,197683,Neuköllner Strasse,2,19761029
1424,197683,Seidelbastweg,3,19761398
1425,197683,Köpenicker Strasse/Kanalstrasse,4,1976830
1426,197683,Alt-Rudow/Köpenicker Strasse,5,197646
1427,197683,U-Bhf. Rudow,6,19761615
1429,197683,Lockenhuhnweg,7,1976902
1430,197683,Geflügelsteig,8,1976463
1431,197683,Rhodeländerweg,9,19761236
1432,197683,Groß-Ziethener-Chaussee,10,1976524
1433,197683,U-Bhf. Rudow,11,19761615
1435,197683,Alt-Rudow/Köpenicker Strasse,12,197646
1436,197683,Köpenicker Strasse/Kanalstrasse,13,1976830
1437,197683,Seidelbastweg,14,19761398
1438,197683,Neuköllner Strasse,15,19761029
1439,197683,U-Bhf. Zwickauer Damm,16,19761646
1440,197683,Zittauer Strasse,17,19761784
1441,197684,"Wannsee, Kronprinzessinnenweg",0,19761679
1442,197684,Kronprinzessinnenweg,1,1976797
1443,197684,Am Kleinen Wannsee,2,197672
1444,197684,Wernerstrasse,3,19761705
1445,197684,Pfaueninselchausee,4,19761120
1446,197684,Rathaus Wannsee,5,19761198
1448,197684,Friedenstrasse,6,1976417
1449,197684,Schaferberg z. Golfplatz,7,19761335
1450,197684,Schloß Glienicke,8,19761348
1451,197684,Glienicker Brücke,9,1976485
1452,197685,Wittenbergplatz,0,19761746
1453,197685,Breitscheidplatz,1,1976225
1454,197685,Joachimstaler Strasse,2,1976698
1455,197685,Kantstrasse,3,1976721
1456,197685,Kurfürsten Damm/U-Bhf. Uhlandstrasse,4,1976803
1457,197685,Lietzenburger Strasse,5,1976885
1458,197685,Ludwigkirchstrasse,6,1976909
1459,197685,U-Bhf. Hohenzollernplatz,7,19761575
1460,197685,Güntzelstrasse,8,1976554
1461,197685,U-Bhf. Blissestrasse,9,19761556
1462,197685,Blissestrasse,10,1976198
1463,197685,U-Bhf. Heidelberger Platz,11,19761574
1464,197685,Binger Strasse,12,1976176
1465,197685,Sodener Strasse,13,19761416
1466,197685,Kirchstrasse,14,1976747
1468,197685,Berkaer Strasse,15,1976143
1469,197685,Rathaus Schmargendorf,16,19761191
1470,197685,Elsterplatz,17,1976352
1471,197685,Roseneck,18,19761255
1472,197685,Königen-Luise-Strasse,19,1976819
1473,197685,U-Bhf. Oskar-Helene-Heim,20,19761604
1474,197685,Krankenhaus Oskar-Helene-Heim,21,1976791
1475,197685,Berliner Strasse,22,1976147
1480,197685,Rathaus Zehlendorf,23,19761200
1481,197686,Gartenplatz,0,1976453
1482,197686,Voltastrasse Ecke Brunnenstrasse,1,19761666
1483,197686,Bernauer Strasse,2,1976156
1485,197686,Brunnenstrasse,3,1976236
1486,197686,Usedomer Strasse,4,19761657
1487,197686,Gustav-Meyer-Allee,5,1976545
1488,197686,Ramlerstraße,6,19761185
1489,197686,U-Bhf. Gesundbrunnen,7,19761567
1490,197686,Pankstraße,8,19761099
1491,197686,Exerzierstraße,9,1976368
1492,197686,U-Bhf. Osloer Straße,10,19761606
1493,197686,Reginhardstrasse,11,19761212
1494,197686,Pankower Allee/Schäfersee,12,19761097
1495,197686,Emmentaler Strasse,13,1976353
1497,197686,Residenzstrasse,14,19761227
1498,197686,Aroser Allee,15,1976102
1499,197686,Roedernallee Ecke Lindauer Allee,16,19761251
1500,197686,Gemeindefriedhof,17,1976468
1501,197686,Sebastianfriedhof,18,19761389
1502,197686,Humboldtstrasse,19,1976658
1504,197686,Friedrich-Karl-Strasse,20,1976421
1505,197686,Kurt-Schumacher-Platz,21,1976816
1506,197686,Scharnweberstrasse,22,19761339
1507,197686,U-Bhf. Scharnweberstrasse,23,19761620
1508,197687,Wilhelmsruher Damm Märkisches Viertel,0,19761730
1509,197687,Treuenbrietzener Strasse,1,19761543
1510,197687,Gemeindezentrum,2,1976469
1511,197687,Oranienburger Strasse,3,19761064
1513,197687,Roedernallee Ecke Oranienburgerstrasse,4,19761252
1514,197687,Alt-Wittenau,5,197651
1516,197687,Karl-Bonhoeffer-Nerven-Klinik,6,1976724
1517,197687,Lindauer Allee,7,1976888
1518,197687,Auguste-Viktoria-Allee,8,1976112
1519,197687,U-Bhf. Kurt-Schumacher-Platz,9,19761588
1520,197687,Kaserne Napoleon,10,1976737
1521,197687,Kaserne Südtor,11,1976738
1522,197687,Staatwinkler Damm,12,19761454
1523,197687,Heckerdamm,13,1976590
1525,197687,Jakob-Kaiser-Platz,14,1976690
1527,197687,Olbersstrasse/DRK-Krankenhaus,15,19761054
1528,197687,Landgericht,16,1976836
1530,197687,Schloßbrücke,17,19761350
1531,197687,Luisenplatz,18,1976910
1532,197687,Wilmersdorfer Strasse,19,19761735
1533,197687,Richard-Wagner-Platz,20,19761239
1534,197687,Leibnizstrasse,21,1976850
1535,197687,U-Bhf. Ernst-Reuter-Platz,22,19761562
1536,197687,Steinplatz,23,19761470
1537,197687,"Zoo, Hardenbergplatz",24,19761786
1538,197688,Spandau Radelandstrasse E. Niederheideweg,0,19761432
1539,197688,Niederheideweg,1,19761031
1540,197688,Pflegeheim,2,19761122
1541,197688,Kolonie Waldfrieden,3,1976774
1542,197688,Bötzow-Bahn,4,1976259
1543,197688,Glienweg,5,1976487
1544,197688,Schwanter Weg,6,19761368
1545,197688,Kisselnallee,7,1976750
1546,197688,Pionierstrasse,8,19761132
1547,197688,Falkenseer Chaussee,9,1976376
1548,197688,Zweibrücker Strasse,10,19761791
1549,197688,Askanierring,11,1976106
1550,197688,Flankenschanze,12,1976389
1551,197688,Falkenseer Platz,13,1976378
1552,197688,"Spandau, Markt",14,19761435
1553,197688,Rathaus Spandau,15,19761194
1554,197688,Galenstrasse,16,1976447
1555,197688,Staakener Strasse,17,19761453
1556,197688,Petzoldweg,18,19761119
1557,197688,Zeppelinstrasse,19,19761776
1558,197688,Schulzenstrasse,20,19761367
1559,197688,Dryotzer Strasse,21,1976323
1560,197688,Straße 392,22,19761486
1561,197688,Spandau Seegefelder Weg,23,19761433
1562,197689,Gartenstadt,0,1976454
1563,197689,Wartenberger Strasse,1,19761686
1564,197689,Suermondtstrasse,2,19761497
1565,197689,Oberseestrasse,3,19761047
1566,197689,Ho-Chi-Minh-Strasse,4,1976635
1567,197689,S-Bhf. Leninallee,5,19761303
1568,197689,Dimitroffstrasse,6,1976310
1571,197689,Leninplatz,7,1976857
1572,197689,Hans-Beimler-Strasse,8,1976570
1573,197689,Prenzlauer Allee,9,19761160
1574,197689,U-Bhf. Luxemburgplatz,10,19761592
1575,197689,Hackescher Markt,11,1976558
1576,197689,Oranienburger Tor,12,19761067
1577,197689,Stadion der Weltjugend,13,19761456
1578,197690,Krüllsstrasse,0,1976800
1579,197690,S-Bhf. Treptower Park,1,19761319
1580,197690,"Treptow, Rathaus",2,19761541
1581,197690,S-Bhf. Treptower Park,3,19761319
1582,197690,Wiener Brücke,4,19761715
1583,197691,Senftenberger Ring Märkisches Zentrum,0,19761402
1584,197691,Calauer Strasse,1,1976268
1585,197691,Eichhorster Weg Ecke Finsterwalderstrasse,2,1976340
1586,197691,Wilhelmsruher Damm Ecke Schorfheidestrasse,3,19761729
1587,197691,Dannenwalder Weg,4,1976298
1588,197691,Roadernallee,5,19761248
1589,197691,Tessenowstrasse Ecke Roedernallee,6,19761523
1590,197691,Lindauer Allee,7,1976888
1591,197691,Humboldt-Krankenhaus,8,1976656
1592,197691,Gotthardstrasse,9,1976500
1593,197691,Holländerstrasse/Friedhöfe,10,1976646
1594,197691,Müllerstrasse Ecke Londonerstrasse,11,19761005
1595,197691,Afrikanische Strasse,12,197610
1596,197691,Seestrasse,13,19761396
1597,197691,U-Bhf. Amrumer Strasse,14,19761553
1598,197691,U-Bhf. Leopoldplatz,15,19761590
1599,197691,U-Bhf. Nauener Platz Exerzierstrasse,16,19761599
1600,197691,Uferstrasse,17,19761647
1601,197691,Pankstrasse,18,19761098
1602,197691,U-Bhf. Gesundbrunnen,19,19761567
1603,197691,Gustav-Meyer-Allee,20,1976545
1604,197691,Usedomer Strasse,21,19761657
1605,197691,Bernauer Strasse,22,1976156
1606,197691,Vinetaplatz,23,19761664
1607,197692,Krüllsstrasse,0,1976800
1608,197692,S-Bhf. Treptower Park,1,19761319
1609,197692,S-Bhf. Plänterwald,2,19761312
1610,197692,S-Bhf. Baumschulenweg,3,19761287
1611,197692,Baumschulenstrasse,4,1976127
1612,197692,Bhf. Schöneweide,5,1976172
1613,197692,S-Bhf. Oberspree,6,19761307
1614,197692,Oberspree,7,19761048
1615,197693,Wedding Seestrasse E. Müllerstrasse,0,19761690
1616,197693,Müllerstrasse/U-Bhf. Seestrasse,1,19761006
1617,197693,Afrikanische Strasse,2,197610
1619,197693,Beusselstrasse,3,1976164
1620,197693,Paul-Hertz-Siedlung,4,19761111
1621,197693,Jakob-Kaiser-Platz,5,1976690
1622,197693,Spandauer Damm,6,19761437
1623,197693,Messedamm,7,1976966
1624,197693,Rathenauplatz,8,19761203
1625,197693,Hohenzollerndamm,9,1976642
1626,197693,Mecklenburgische Strasse,10,1976961
1627,197693,Bundesallee,11,1976252
1628,197693,Innsbrucker Strasse,12,1976680
1629,197693,Hauptstrasse,13,1976583
1630,197693,Sportzentrum Schöneberg,14,19761446
1631,197693,Gotenstrasse,15,1976499
1632,197693,Alboinstrasse,16,197615
1633,197693,Berlinickeplatz,17,1976154
1634,197693,U-Bhf. Alt-Tempelhof,18,19761552
1635,197693,Hermannstrasse,19,1976616
1636,197693,Bendastrasse,20,1976137
1637,197693,U-Bhf. Neukölln,21,19761601
1638,197693,Sonnenallee,22,19761419
1641,197693,Grenzallee,23,1976516
1643,197693,Neukölln Schulenburgpark,24,19761027
1644,197694,Krüllsstrasse,0,1976800
1645,197694,S-Bhf. Treptower Park,1,19761319
1646,197694,S-Bhf. Plänterwald,2,19761312
1647,197694,S-Bhf. Baumschulenweg,3,19761287
1648,197694,Bhf. Schöneweide,4,1976172
1649,197694,Sterndamm,5,19761474
1650,197694,Lindhorstweg,6,1976898
1651,197694,Springbornstrasse,7,19761448
1652,197695,"Zoo, Hardenbergplatz",0,19761786
1653,197695,Joachimstaler Strasse,1,1976698
1657,197695,Uhlandstrasse,2,19761652
1658,197695,Savignyplatz,3,19761333
1659,197695,Schlüterstrasse,4,19761356
1660,197695,Leibnizstrasse,5,1976850
1661,197695,Wilmersdorfer Strasse,6,19761735
1662,197695,Kaiser-Friedrich-Strasse,7,1976712
1663,197695,Suarezstrasse/Amtsgericht,8,19761496
1664,197695,Kuno-Fischer-Strasse,9,1976802
1665,197695,Dernburgstrasse,10,1976303
1666,197695,Messedamm,11,1976966
1667,197695,Avus-Einfahrt Nikolassee,12,1976115
1668,197695,Wannseebauweg,13,19761681
1669,197695,Am Beelitzhof,14,197662
1670,197695,Am Sandwerder,15,197678
1671,197695,Tillmannsweg,16,19761536
1672,197695,Wannsee,17,19761676
1673,197695,Königstrasse,18,1976825
1674,197695,Am Großen Wannsee,19,197667
1675,197695,Pfaueninselchaussee,20,19761121
1676,197695,Rathaus Wannsee,21,19761198
1678,197695,Charlottenstrasse,22,1976277
1679,197695,Wilhelmstrasse,23,19761731
1682,197695,Stölpchensee Glienicker Strasse,24,19761493
1683,197696,VEB Kombinat Auto Trans,0,19761661
1684,197696,Bhf. Schöneweide,1,1976172
1685,197696,Krematorium,2,1976795
1686,197696,Hänselstrasse,3,1976667
1687,197696,S-Bhf. Plänterwald,4,19761312
1688,197696,"Treptow, Rathaus",5,19761541
1689,197696,S-Bhf. Treptower Park,6,19761319
1690,197697,S-Bhf Köpenick,0,19761283
1691,197697,Lindenstrasse,1,1976892
1693,197697,Schloßplatz,2,19761351
1694,197697,Pablo-Neruda-Strasse,3,19761086
1695,197697,"Krankenaus, Köpenick",4,1976788
1696,197697,Salvador-Allende Strasse Ecke Wendenschloßstrasse,5,19761328
1697,197698,Dahlem Clayallee E. Königin-Luise-Strasse,0,1976292
1698,197698,Thielallee/Pacelliallee,1,19761525
1699,197698,U-Bhf. Dahlem-Dorf,2,19761560
1700,197698,"Postamt, Museum Dahlem",3,19761144
1701,197698,Botanischer Garten,4,1976210
1702,197698,Lepsiusstrasse,5,1976861
1703,197698,U-Bhf. Rathaus Steglitz,6,19761612
1705,197698,Breite Strasse,7,1976215
1707,197698,Südendstrasse,8,19761506
1708,197698,Bergstrasse/Filandastrasse,9,1976141
1710,197698,Bismarckstrasse,10,1976184
1714,197698,Munsterdamm,11,1976992
1715,197698,Priesterweg,12,19761166
1717,197698,Röblingstrasse/Arnulfstrasse,13,19761274
1718,197698,Alboinstrasse Ecke Arnulfstrasse,14,197616
1719,197698,Attilaplatz,15,1976108
1720,197698,Friedrich-Karl-Strasse,16,1976420
1724,197698,Albrechtstrasse,17,197619
1725,197698,U-Bhf. Kaiserin-Augusta-Strasse,18,19761580
1726,197698,Rathaus Tempelhof,19,19761196
1727,197698,U-Bhf. Alt-Tempelhof,20,19761552
1728,197698,Ringbahnstrasse/U-Bhf. Tempelhof,21,19761243
1729,197698,U-Bhf. Tempelhof Hoeppnerstrasse,22,19761630
1730,197699,Eichkamp Dauerwaldweg,0,1976342
1731,197699,Waldschulallee,1,19761672
1732,197699,Jaffestrasse/Deutschlandhalle,2,1976687
1733,197699,Messedamm,3,1976966
1734,197699,Rathenauplatz,4,19761203
1735,197699,Henriettenplatz,5,1976610
1737,197699,Joachim-Friedrich-Strasse,6,1976697
1738,197699,Lehniner Platz,7,1976846
1739,197699,Adenauerplatz,8,19764
1740,197699,Olivaer Platz,9,19761055
1741,197699,Sächsische Strasse,10,19761502
1744,197699,Uhlandstrasse,11,19761651
1746,197699,Joachimstaler Strasse,12,1976698
1747,197699,U-Bhf. Kurfürstendamm,13,19761586
1748,197699,Kantstrasse,14,1976721
1749,197699,Breitscheidplatz,15,1976225
1750,197699,Bayreuther Strasse,16,1976132
1751,197699,Lützowplatz,17,1976918
1752,197699,Tiergartenstrasse,18,19761533
1753,197699,Großer Stern,19,1976529
1754,197699,Schloß Bellevue,20,19761347
1755,197699,Kongreßhalle,21,1976777
1756,197699,Entlastungsstrasse,22,1976357
1757,197699,Kongreßhalle-Reichstag,23,1976778
1758,1976100,"Glienicke, Kirche",0,1976484
1759,1976100,Schildow,1,19761341
1760,1976100,Blankenfelde,2,1976193
1761,1976100,Nordend-Arena,3,19761038
1762,1976100,Nordend,4,19761036
1763,1976100,Kurt-Fischer-Strasse,5,1976814
1764,1976100,"Pankow, Rathaus",6,19761092
1765,1976100,"Pankow, Kirche",7,19761090
1766,1976100,S-Bhf. Pankow,8,19761309
1767,1976100,U-Bhf. Pankow,9,19761607
1768,1976101,U-Bhf. Alt-Mariendorf,0,19761550
1769,1976101,Körtingstrasse,1,1976832
1771,1976101,Rennbahn Mariendorf,2,19761225
1772,1976101,Pilatusweg,3,19761130
1773,1976101,Titlisweg/Siedlung Daheim,4,19761538
1774,1976101,Säntisstrasse,5,19761503
1775,1976101,Daimlerstrasse,6,1976296
1776,1976101,Brandaustrasse,7,1976213
1777,1976101,Buckower Chaussee,8,1976246
1778,1976101,Motzener Strasse/Nachmitzer Damm,9,1976990
1779,1976101,Nunsdorfer Ring/Nord,10,19761040
1780,1976101,Nunsdorfer Ring/Süd,11,19761041
1781,1976101,Schichauweg,12,19761340
1782,1976101,"Lichtenrade, Motzener Strasse (Egestorffstrasse)",13,1976873
1783,1976102,Wollankstrasse E. Kattegatstraße,0,19761754
1784,1976102,Elisabeth-Friedhof,1,1976349
1785,1976102,Saldiner Strasse,2,19761327
1786,1976102,Osloer Strasse,3,19761074
1787,1976102,Badstrasse,4,1976116
1788,1976102,Brunnenplatz,5,1976234
1789,1976102,Wisenstrasse,6,19761742
1790,1976102,Nettelbeckplatz,7,19761015
1791,1976102,Ravenestrasse,8,19761209
1792,1976102,Müllerstrasse/Weddingplatz,9,19761007
1793,1976102,Am Nordhafen,10,197675
1794,1976102,Lehrter Strasse,11,1976849
1795,1976102,Stephanstrasse,12,19761473
1797,1976102,Rathenower Strasse,13,19761206
1799,1976102,Birkenstrasse,14,1976180
1800,1976102,Turmstrasse,15,19761548
1801,1976102,Wilsnacker Strasse,16,19761737
1802,1976102,Krankenhaus Moabit,17,1976790
1803,1976102,U-Bhf. Turmstraße,18,19761638
1804,1976102,Rathaus Tiergarten,19,19761197
1805,1976102,Ottostrasse,20,19761085
1807,1976102,Gotzkowskystrasse,21,1976503
1808,1976102,Reuchlinstrasse,22,19761229
1809,1976102,Huttenstrasse,23,1976664
1810,1976102,Moabit Wiebestraße,24,1976973
1811,1976103,Falkenberger Strasse,0,1976373
1812,1976103,Suermondtstrasse,1,19761497
1813,1976103,Stadion Buschallee,2,19761455
1814,1976103,Kniprodeallee,3,1976769
1815,1976103,Klement-Gottwald-Allee,4,1976757
1816,1976103,Antonplatz,5,197697
1817,1976103,Wisbyer Strasse,6,19761741
1818,1976103,Humannplatz,7,1976655
1819,1976103,U-Bhf. Dimitroffstrasse,8,19761561
1820,1976103,Brunnenstrasse,9,1976237
1821,1976103,Oranienburger Tor,10,19761067
1822,1976103,Bhf. Friedrichstrasse,11,1976169
1823,1976103,Am Kupfergraben,12,197673
1824,1976104,Vinetaplatz,0,19761664
1825,1976104,Ramlerstrasse,1,19761184
1826,1976104,U-Bhf. Gesundbrunnen,2,19761567
1827,1976104,Badstrasse,3,1976116
1828,1976104,Osloer Strasse,4,19761074
1829,1976104,Prinzenallee,5,19761169
1830,1976104,Soldiner Strasse,6,19761417
1831,1976104,Koloniestrasse,7,1976775
1832,1976104,Provinzstrasse/Papierstrasse,8,19761171
1833,1976104,Letteplatz/Reginhardstrasse,9,1976863
1834,1976104,Pankower Allee/Schäfersee,10,19761097
1835,1976104,Stargardtstrasse,11,19761461
1836,1976104,Emmentaler Strasse,12,1976353
1838,1976104,Residenzstrasse/Lindauer Allee,13,19761228
1839,1976104,Wilhelmsruh Kopenhagener Strasse,14,19761726
1840,1976105,"Heinersdorf, Romain-Rolland-Strasse",0,1976607
1841,1976105,"Heinersdorf, Kirche",1,1976606
1842,1976105,Am Steinberg,2,197680
1843,1976105,Wisbyer Strasse,3,19761741
1844,1976105,S-Bhf. Prenzlauer Allee,4,19761314
1847,1976105,Dimitroffstrasse,5,1976312
1848,1976105,Knaackstrasse,6,1976767
1849,1976105,Wilhelm-Pieck-Strasse,7,19761717
1850,1976105,U-Bhf. Luxemburgplatz,8,19761592
1851,1976105,Hackescher markt,9,1976559
1852,1976105,Oranienburger Tor,10,19761067
1853,1976105,Am Kupfergraben,11,197673
1854,1976106,Alt-Reinickendorf,0,197645
1855,1976106,Lindauer Allee,1,1976888
1856,1976106,Pankower Allee,2,19761095
1857,1976106,Louise-Schroeder-Platz,3,1976905
1858,1976106,U-Bhf. Nauener Platz,4,19761598
1859,1976106,Nettelbeckplatz,5,19761015
1860,1976106,Weddingplatz/Müllerstrasse,6,19761694
1861,1976106,Lehrter Strasse,7,1976849
1864,1976106,Rathenower Strasse,8,19761207
1865,1976106,Stromstrasse,9,19761490
1867,1976106,U-Bhf. Turmstrasse,10,19761637
1868,1976106,Rathaus Tiergarten,11,19761197
1870,1976106,Gotzkowskystrasse,12,1976503
1871,1976106,Wiebestrasse,13,19761714
1872,1976106,Kaiserin-Augusta-Allee,14,1976717
1873,1976106,Tauroggener Strasse,15,19761509
1874,1976106,Landgericht,16,1976836
1876,1976106,Olbersstrasse/DRK-Krankenhaus,17,19761053
1878,1976106,Jakob-Kaiser-Platz,18,1976690
1879,1976106,Letterhausweg,19,1976864
1880,1976106,Ohmstrasse,20,19761051
1881,1976106,Quellweg,21,19761177
1882,1976106,Paulsternstrasse,22,19761113
1885,1976106,Gartenfelder Strasse,23,1976452
1886,1976106,Gartenfeld,24,1976450
1887,1976107,Pasedagplatz,0,19761110
1888,1976107,Buschallee,1,1976255
1889,1976107,Wisbyer Strasse,2,19761741
1890,1976107,S-Bhf. Prenzlauer Allee,3,19761314
1893,1976107,Dimitroffstrasse,4,1976312
1894,1976107,Knaackstrasse,5,1976767
1895,1976107,Wilhelm-Pieck-Strasse,6,19761717
1896,1976107,U-Bhf. Luxemburgplatz,7,19761592
1897,1976107,Hackescher Markt,8,1976558
1898,1976108,Zoo Hardenbergplatz,0,19761785
1899,1976108,Marburger Strasse/Breitscheidplatz,1,1976933
1900,1976108,U-Bhf. Wittenbergplatz,2,19761644
1901,1976108,Martin-Luther-Strasse/An der Urania,3,1976954
1902,1976108,Motzstrasse,4,1976991
1903,1976108,Hohenstaufenstrasse,5,1976641
1904,1976108,Barbarossastrasse,6,1976122
1905,1976108,Grunewaldstrasse,7,1976536
1906,1976108,John-F.-Kennedy-Platz,8,1976705
1907,1976108,Hauptstrasse,9,1976583
1908,1976108,Sportzentrum Schöneberg,10,19761446
1909,1976108,Gotenstrasse,11,1976499
1910,1976108,Reichartstrasse,12,19761215
1911,1976108,Alboinstrasse,13,197615
1912,1976108,Berlinickeplatz,14,1976154
1913,1976108,U-Bhf. Alt-Tempelhof,15,19761552
1914,1976108,Oberlandstrasse,16,19761046
1915,1976108,Linzer Strasse,17,1976899
1916,1976108,Gottlieb-Dunkel-Strasse,18,1976501
1917,1976108,Karl-Elsasser-Strasse,19,1976726
1918,1976108,Gradestrasse,20,1976504
1919,1976108,Britzer Damm,21,1976231
1920,1976108,U-Bhf. Blaschkoallee,22,19761555
1921,1976108,"Britz, Buschkrug",23,1976227
1922,1976109,Pasedagplatz,0,19761110
1923,1976109,Buschallee,1,1976255
1924,1976109,Lichtenberger Strasse,2,1976868
1925,1976109,Antonplatz,3,197697
1926,1976109,S-Bhf. Greifswald Strasse,4,19761294
1928,1976109,Dimitroffstrasse,5,1976311
1930,1976109,Mollstrasse,6,1976980
1931,1976109,U-Bhf. Luxemburgplatz,7,19761592
1932,1976109,Hackescher Markt,8,1976558
1933,1976109,Oranienburger Tor,9,19761067
1934,1976109,Stadion der Weltjugend,10,19761456
1935,1976110,Charlottenburg Königin-Elisabeth-Strasse,0,1976276
1936,1976110,Spandauer Damm,1,19761437
1937,1976110,Spandauer-Damm-Brücke,2,19761440
1938,1976110,Sophie-Charlotten-Strasse,3,19761426
1939,1976110,Schloßstrasse,4,19761354
1940,1976110,U-Bhf. Sophie-Charlotte-Platz,5,19761626
1941,1976110,Neue Kantstrasse/Amtsgericht,6,19761019
1942,1976110,Kaiser-Friedrich-Strasse,7,1976712
1943,1976110,Mommsenstrasse,8,1976984
1944,1976110,Adenauerplatz,9,19764
1945,1976110,Ravensberger Strasse,10,19761210
1946,1976110,Konstanzer Strasse,11,1976780
1947,1976110,U-Bhf. Berliner Strasse,12,19761554
1948,1976110,Kufsteiner Strasse,13,1976801
1949,1976110,John-F.-Kennedy-Platz,14,1976705
1950,1976110,Hauptstrasse,15,1976583
1951,1976110,Sportzentrum Schöneberg,16,19761446
1952,1976110,Gotenstrasse,17,1976499
1953,1976110,Alboinstrasse,18,197615
1954,1976110,Eresburgstrasse,19,1976359
1955,1976110,Alboinplatz,20,197614
1956,1976110,Lindenhof,21,1976891
1957,1976111,Bernkasteler Strasse,0,1976157
1958,1976111,Buschallee,1,1976255
1959,1976111,Lichtenberger Strasse,2,1976868
1960,1976111,Antonplatz,3,197697
1961,1976111,S-Bhf. Greifswald Strasse,4,19761294
1963,1976111,Dimitroffstrasse,5,1976311
1965,1976111,Mollstrasse,6,1976980
1966,1976111,Leninplatz,7,1976857
1967,1976111,Bersarinstrasse,8,1976159
1968,1976111,S-Bhf. Leninallee,9,19761303
1969,1976111,Ho-Chi-Minh-Strasse,10,1976635
1970,1976111,Haupstrasse,11,1976580
1971,1976111,Falkenberger Strasse,12,1976373
1972,1976112,Steglitzer Damm E. Munsterdamm,0,19761467
1973,1976112,Steglitzer Damm,1,19761465
1975,1976112,Bismarckstrasse,2,1976183
1980,1976112,Bergstrasse,3,1976139
1982,1976112,Feuerbachstrasse,4,1976384
1983,1976112,Kaisereiche,5,1976715
1984,1976112,Rathaus Friedenau,6,19761187
1985,1976112,U-Bhf. Innsbrucker Platz,7,19761577
1986,1976112,Albertstrasse,8,197613
1987,1976112,Kaiser-Wilhelm-Platz,9,1976713
1988,1976112,U-Bhf. Kleistpark,10,19761582
1990,1976112,Goebenstrasse,11,1976491
1991,1976112,Bülowstrasse,12,1976261
1992,1976112,U-Bhf. Kurfürstenstrasse,13,19761587
1993,1976112,Lützowstrasse,14,1976919
1994,1976112,Potsdamer Brücke,15,19761146
1995,1976112,Askanischer Platz,16,1976107
1996,1976112,U-Bhf. Kochstrasse/Friedrichstrasse,17,19761583
1998,1976112,Lindenstrasse,18,1976893
1999,1976112,U-Bhf. Moritzplatz,19,19761596
2000,1976112,Adalbertstrasse,20,19761
2001,1976112,U-Bhf. Görlitzer Bhf.,21,19761570
2002,1976112,Spreewaldplatz,22,19761447
2005,1976112,Sonnenallee,23,19761421
2006,1976112,Hermannplatz,24,1976613
2007,1976113,Bernkasteler Strasse,0,1976157
2008,1976113,Buschallee,1,1976255
2009,1976113,Lichtenberger Strasse,2,1976868
2010,1976113,Antonplatz,3,197697
2011,1976113,S-Bhf. Greifswald Strasse,4,19761294
2013,1976113,Dimitroffstrasse,5,1976311
2015,1976113,Mollstrasse,6,1976980
2016,1976113,U-Bhf. Luxemburgplatz,7,19761592
2017,1976113,Hackescher Markt,8,1976558
2018,1976114,U-Bhf. Walther-Schreiber-Platz,0,19761642
2019,1976114,Alsen-/Fregestrasse,1,197625
2022,1976114,Bismarckstrasse,2,1976185
2025,1976114,Rubensstrasse/Krankenhaus,3,19761262
2026,1976114,Bergstrasse/Sternwarte und Planetarium,4,1976142
2028,1976114,Priesterweg,5,19761167
2029,1976114,Röblingstrasse,6,19761273
2030,1976114,Attilastrasse,7,1976109
2031,1976114,Kaiserstrasse,8,1976719
2032,1976114,Großbeerenstrasse Ecke Lankwitzerstrasse,9,1976527
2033,1976114,Mariendorfer Damm,10,1976942
2034,1976114,U-Bhf. Alt-Mariendorf/Reißeckstrasse,11,19761551
2035,1976114,Körtingstrasse,12,1976832
2037,1976114,Rennbahn Mariendorf,13,19761225
2038,1976114,Pilatusweg,14,19761130
2039,1976114,"Titlisweg/Siedlung ""Daheim""",15,19761537
2040,1976114,Säntisstrasse/Tauernallee,16,19761504
2041,1976114,Buckower Chaussee/Marienfelder Chaussee,17,1976247
2042,1976114,Goethestrasse,18,1976493
2043,1976114,Grimmstrasse,19,1976521
2044,1976114,Steinstrasse Ecke Barnetstrasse,20,19761472
2045,1976114,Goltzstrasse,21,1976497
2046,1976114,Steinstrasse Ecke Bahnhofstrasse,22,19761471
2047,1976114,Lichtenrade Blohmstrasse E. Wünsdorfer Strasse,23,1976871
2048,1976115,U-Bhf. Alt-Mariendorf,0,19761550
2049,1976115,Körtingstrasse,1,1976832
2051,1976115,Rennbahn Mariendorf,2,19761225
2052,1976115,Pilatusweg,3,19761130
2053,1976115,"Titlisweg/Siedlung ""Daheim""",4,19761537
2054,1976115,Säntisstrasse/Tauernallee,5,19761504
2055,1976115,Göllweg,6,1976551
2056,1976115,Buckower Chaussee/Marienfelder Chaussee,7,1976247
2057,1976115,Raabestrasse,8,19761180
2058,1976115,Goethestrasse,9,1976493
2059,1976115,Barnetstrasse/Finchleystrasse,10,1976125
2060,1976115,Steinstrasse Ecke Barnetstrasse,11,19761472
2061,1976115,Rhinstrasse,12,19761235
2062,1976115,John-Locke-Strasse/Hochhaus,13,1976706
2063,1976115,Riedingerstrasse,14,19761242
2064,1976115,Lichtenrade Bahnhofstrasse,15,1976870
2065,1976116,Neukölln Britzer Allee,0,19761025
2066,1976116,Naumburger Strasse,1,19761012
2067,1976116,Neukölln Grenzallee,2,19761026
2068,1976116,U-Bhf. Neukölln/Karl-Marx-Strasse,3,19761602
2069,1976116,Bendastrasse,4,1976137
2070,1976116,Eschersheimer Strasse,5,1976367
2071,1976116,Gottlieb-Dunkel-Strasse,6,1976501
2072,1976116,Eisenacher Strasse,7,1976345
2074,1976116,Imbrosweg,8,1976676
2075,1976116,Alt-Mariendorf,9,197637
2076,1976116,U-Bhf. Alt-Mariendorf,10,19761550
2077,1976116,Großbeerenstrasse Ecke Lankwitzerstrasse,11,1976527
2079,1976116,Körtingstrasse,12,1976833
2080,1976116,Wilhelm-von-Siemens-Strasse,13,19761719
2081,1976116,Daimlerstrasse,14,1976296
2082,1976116,Marienfelde Daimlerstrasse,15,1976946
2083,1976117,Arkonaplatz,0,1976100
2084,1976117,Brunnenstrasse,1,1976235
2086,1976117,Invalidenstrasse,2,1976683
2087,1976117,Rosenthaler Platz,3,19761257
2088,1976117,Rosa-Luxemburg-Strasse,4,19761254
2089,1976117,Alexanderplatz,5,197620
2090,1976117,S-Bhf. Jannowitzbrücke,6,19761298
2091,1976117,Adalbertstrasse,7,19761
2092,1976117,Annenstrasse,8,197696
2093,1976117,U-Bhf. Märkisches Museum,9,19761597
2095,1976117,Breite Strasse,10,1976216
2096,1976117,Oberwallstrasse,11,19761050
2097,1976117,Bhf. Friedrichstrasse,12,1976168
2098,1976117,Rober-Koch-Platz,13,19761249
2099,1976118,Alt-Buckow,0,197627
2100,1976118,Buckower Friedhof,1,1976249
2101,1976118,An den Achterhöfen,2,197689
2102,1976118,Delmer Steig,3,1976302
2103,1976118,Quarzweg,4,19761176
2104,1976118,Asbestweg,5,1976105
2105,1976118,Tropfsteinweg,6,19761546
2106,1976118,Grünsteinweg,7,1976543
2107,1976118,Tauernallee,8,19761508
2108,1976118,Watzmannweg,9,19761688
2109,1976118,Mariendorfer Damm,10,1976942
2110,1976118,"Titlisweg/Siedlung ""Daheim""",11,19761537
2111,1976118,Pilatusweg,12,19761130
2112,1976118,Rennbahn Mariendorf,13,19761225
2113,1976118,Körtingstrasse,14,1976832
2115,1976118,U-Bhf. Alt-Mariendorf,15,19761550
2116,1976119,Alexanderstrasse,0,197623
2117,1976119,S-Bhf. Jannowitzbrücke,1,19761298
2118,1976119,U-Bhf. Märkisches Museum,2,19761597
2119,1976119,Französische Strasse,3,1976408
2120,1976119,U-Bhf. Thälmannplatz,4,19761634
2121,1976120,Mahlsdorfer Allee,0,1976927
2122,1976120,Hultschiner Damm,1,1976654
2123,1976120,Sadowastrasse,2,19761325
2124,1976120,Köpenicker Strasse,3,1976828
2126,1976120,Dohlengrund,4,1976314
2127,1976120,Oberfeldstrasse,5,19761044
2128,1976120,Am Tierpark,6,197681
2129,1976120,"Bhf. Berlin-Lichtenberg, Irenenstrasse",7,1976167
2130,1976121,Flughafen Berlin-Tegel,0,1976392
2131,1976121,Flugsteig 8,1,1976395
2132,1976121,Flugsteig 15,2,1976394
2133,1976121,Haupthalle,3,1976581
2134,1976121,Saatwinkler Damm (Einfahrt Flughafen),4,19761323
2135,1976121,Kaserne Südtor,5,1976738
2136,1976121,U-Bhf. Kurt-Schumacher-Platz,6,19761588
2137,1976121,Humboldtstrasse/Aug.-Viktoria-Allee,7,1976659
2138,1976121,Landauer Allee/Ollenhauer-/Waldstrasse,8,1976834
2139,1976121,Teichstrasse/Roedernalle,9,19761514
2140,1976121,Lindauer Allee/Aroser Allee,10,1976889
2141,1976122,U-Bhf. Ruhleben,0,19761617
2142,1976122,Friedhof Ruhleben,1,1976419
2143,1976122,Güterbahn Ruhleben,2,1976555
2144,1976122,Teltower Strasse,3,19761516
2145,1976122,Tiefwerderweg,4,19761531
2146,1976122,Grenadierstrasse,5,1976515
2147,1976122,Stresowplatz,6,19761489
2148,1976122,"Spandau, Markt",7,19761435
2149,1976122,Rathaus Spandau,8,19761194
2150,1976122,Brunsbütteler Damm Ecke Klosterstrasse,9,1976238
2151,1976122,Elsflether Weg,10,1976351
2152,1976122,Grünhofer Weg,11,1976542
2153,1976122,Nauener Strasse,12,19761011
2154,1976122,Päwesiner Weg,13,19761175
2155,1976122,Egelpfuhlstrasse,14,1976332
2156,1976122,Harburger Weg,15,1976574
2157,1976122,Brunsbütteler Damm Ecke Magistratsweg,16,1976239
2159,1976122,Louise-Schroeder-Siedlung,17,1976907
2160,1976122,Zweiwinkelweg,18,19761792
2161,1976122,Nennhauser Damm E. Brunsbütteler Damm,19,19761013
2162,1976123,U-Bhf. Friedrich-Wilhelm-Platz,0,19761564
2163,1976123,Stubenrauchstrasse,1,19761491
2164,1976123,U-Bhf. Walther-Schreiber-Platz,2,19761642
2165,1976123,Alsen-/Fregstrasse,3,197626
2166,1976123,Bismarckstrasse,4,1976183
2171,1976123,Bergstrasse,5,1976139
2174,1976123,Steglitzer Damm,6,19761466
2175,1976123,Halskestrasse,7,1976566
2176,1976123,Albrechtstrasse,8,197617
2180,1976123,Leonorenstrasse,9,1976859
2181,1976123,Calandrellistrasse/Stadtbad,10,1976266
2182,1976123,Rathaus Lankwitz,11,19761188
2183,1976123,"Lankwitz, Kirche",12,1976842
2184,1976123,Bruchwitzstrasse,13,1976233
2185,1976123,Alt-Lankwitz,14,197631
2187,1976123,Mühlenstrasse,15,1976999
2188,1976123,"Alt-Lankwitz, Dorfaue",16,197632
2189,1976123,Greinerstrasse/Dederingstrasse,17,1976514
2190,1976123,Alt-Mariendorf,18,197637
2191,1976123,U-Bhf. Alt-Mariendorf,19,19761550
2192,1976123,Am Heidefriedhof,20,197668
2193,1976123,Britzer Strasse,21,1976232
2194,1976123,Dardanellenweg,22,1976299
2195,1976123,Mariendorf Dardanellenweg,23,1976940
2196,1976124,Blohmstrasse/Wünsdorfer Strasse,0,1976200
2197,1976124,Kirchhainer Damm,1,1976746
2198,1976124,Augsburger Strasse,2,1976111
2199,1976124,Pechsteinstrasse,3,19761116
2200,1976124,Bamberger Strasse,4,1976121
2201,1976124,Münchener Strasse,5,19761008
2202,1976124,Goltzstrasse,6,1976497
2203,1976124,Groß-Ziethener-Strasse,7,1976525
2204,1976124,Töpchiner Weg,8,19761549
2205,1976124,Potsdamer Strasse Ecke Alt-Lichtenrade,9,19761153
2206,1976124,Lichtenrader Damm,10,1976874
2208,1976124,Halker Zeile,11,1976564
2209,1976124,Grimmstrasse,12,1976521
2210,1976124,Barnetstrasse,13,1976124
2211,1976124,Simpsonweg,14,19761415
2212,1976124,Illigstrasse,15,1976673
2213,1976124,Cecilienstrasse,16,1976274
2214,1976124,Blohmstrasse/Wünsdorfer Strasse,17,1976200
2215,1976125,"Mahlsdorf-Süd, Hubertus",0,1976926
2216,1976125,Uhlenhorst,1,19761653
2217,1976125,S-Bhf. Köpenick,2,19761301
2218,1976125,Insitut für Lehrerbildung,3,1976681
2219,1976125,Pionierpark,4,19761131
2220,1976125,Rathenaustrasse,5,19761204
2221,1976125,Edisonstrasse,6,1976330
2222,1976125,Hegemeisterweg,7,1976598
2223,1976125,Ehrlichstrasse,8,1976333
2224,1976125,Hönower Wiesenweg,9,1976670
2225,1976125,Kraftwerk Klingenberg,10,1976785
2226,1976125,Karlshorster Strasse,11,1976731
2227,1976125,S-Bhf. Ostkreuz,12,19761308
2228,1976126,Nettelbeckplatz,0,19761015
2229,1976126,Müllerstrasse Ecke Fennstrasse,1,19761004
2230,1976126,Am Nordhafen,2,197675
2231,1976126,Invalidenstrasse,3,1976683
2232,1976126,Platz der Republik,4,19761138
2233,1976126,Philharmonie,5,19761123
2234,1976126,Potsdamer Brücke,6,19761146
2235,1976126,U-Bhf. Kurfürstenstrasse,7,19761587
2236,1976126,Bülowstrasse,8,1976261
2238,1976126,Goebenstrasse,9,1976491
2239,1976126,U-Bhf. Kleistpark,10,19761582
2240,1976126,Kaiser-Wilhelm-Platz,11,1976713
2241,1976126,U-Bhf. Innsbrucker Platz,12,19761577
2242,1976126,Grazer Platz,13,1976508
2244,1976126,Canovastrasse/Krankenhaus,14,1976269
2246,1976126,Bergstrasse,15,1976140
2247,1976126,Sternwarte und Planetarium,16,19761476
2249,1976126,Steglitzer Damm,17,19761466
2250,1976126,Albrechtstrasse,18,197617
2253,1976126,Calandrellistrasse/Stadtbad,19,1976266
2254,1976126,Rathaus Lankwitz,20,19761188
2255,1976126,"Lankwitz, Kirche",21,1976842
2256,1976126,Malteserstrasse,22,1976928
2257,1976126,Belßstrasse,23,1976135
2258,1976126,Belßstrasse E. Preysingstrasse,24,1976136
2259,1976127,S-Bhf. Mahlsdorf,0,19761305
2260,1976127,Alt-Mahlsdorf,1,197636
2261,1976127,Rahnsdorfer Strasse,2,19761183
2262,1976127,Bürgerwäldchen,3,1976263
2263,1976127,Ruhlsdorfer Strasse,4,19761270
2264,1976127,Mahlsdorf-Süd,5,1976925
2265,1976127,Wongrowitzer Steig,6,19761757
2266,1976127,S-Bhf. Köpenick,7,19761301
2267,1976127,Lindenstrasse,8,1976894
2268,1976127,Grünstrasse,9,1976544
2269,1976127,Strassenbahn-Betriebshof,10,19761479
2270,1976127,RFT-Werk,11,19761179
2271,1976127,VEB Bootswerft,12,19761660
2272,1976127,Wendenschloß,13,19761700
2273,1976128,Ringstrasse E. Weißwasserweg,0,19761245
2274,1976128,Finckensteinallee,1,1976386
2275,1976128,Baseler Strasse,2,1976126
2276,1976128,Kadettenweg,3,1976711
2277,1976128,Karwendelstrasse,4,1976736
2278,1976128,Hindenburgdamm,5,1976629
2279,1976128,Bäkestrasse,6,1976257
2280,1976128,Krahmerstrasse,7,1976786
2281,1976128,Moltkestrasse (Klinikum),8,1976983
2282,1976128,Klingsorstrasse,9,1976759
2283,1976128,Haydnstrasse,10,1976588
2284,1976128,Händelplatz,11,1976666
2285,1976128,Fronhoferstrasse,12,1976438
2287,1976128,Albrechtstrasse,13,197618
2289,1976128,Düppelstrasse,14,1976327
2290,1976128,Friedenauer Brücke,15,1976415
2292,1976128,Sachsendamm,16,19761324
2293,1976128,Torgauer Strasse,17,19761539
2294,1976128,Gustav-Müller-Platz,18,1976546
2295,1976128,Kolonnenstrasse,19,1976776
2296,1976128,Kaiser-Wilhelm-Platz,20,1976713
2297,1976128,U-Bhf. Kleistpark,21,19761582
2299,1976128,Goebenstrasse,22,1976491
2300,1976128,Bülowstrasse,23,1976261
2301,1976128,U-Bhf. Kurfürstenstrasse,24,19761587
2302,1976129,Wasserwerk,0,19761687
2303,1976129,Brauerei,1,1976214
2304,1976129,S-Bhf. Friedrichshagen,2,19761292
2305,1976129,Hirschgarten,3,1976631
2306,1976129,Lindenstrasse,4,1976894
2307,1976129,Grünstrasse,5,1976544
2308,1976129,S-Bhf. Spindlersfeld,6,19761318
2309,1976129,S-Bhf. Adlershof,7,19761285
2310,1976129,"Altglienicke, Kirche",8,197660
2311,1976129,Am Falkenberg,9,197664
2312,1976130,Lichterfelde-Süd Holtheimer Weg,0,1976883
2313,1976130,Ostpreußendamm Ecke Wismarerstrasse,1,19761082
2314,1976130,Goerzallee,2,1976492
2315,1976130,Thuner Platz,3,19761527
2316,1976130,Osteweg,4,19761078
2317,1976130,Rittberg-Krankenhaus,5,19761246
2318,1976130,Finckensteinallee,6,1976386
2319,1976130,Drakestrasse,7,1976321
2320,1976130,Gardeschützenweg,8,1976449
2321,1976130,Moltkestrasse,9,1976982
2322,1976130,Händelplatz,10,1976666
2323,1976130,Birkbuschstrasse Ecke Wolfensteindamm,11,1976178
2324,1976130,Schloßstrasse/Wrangelstrasse,12,19761355
2326,1976130,U-Bhf. Rathaus Steglitz,13,19761613
2327,1976130,U-Bhf. Walther-Schreiber-Platz,14,19761642
2328,1976130,Kaisereiche,15,1976715
2329,1976130,Rathaus Friedenau,16,19761187
2330,1976130,U-Bhf. Innsbrucker Platz,17,19761577
2331,1976130,Rathaus Schöneberg,18,19761192
2332,1976130,Grunewaldstrasse,19,1976536
2333,1976130,Barbarossastrasse,20,1976122
2334,1976130,Hohenstaufenstrasse,21,1976641
2335,1976130,Motzstrasse,22,1976991
2336,1976130,Wittenbergplatz,23,19761746
2337,1976131,Haeckelstrasse,0,1976560
2338,1976131,Bhf. Schöneweide,1,1976173
2339,1976131,Wilhelminenhofstrasse,2,19761720
2340,1976131,Pionierpark,3,19761131
2341,1976131,Alte Försterei,4,197654
2342,1976131,Bahnhofstrasse,5,1976120
2343,1976131,Grünstrasse,6,1976544
2344,1976131,Wendenschloßstrasse,7,19761702
2345,1976131,Strassenbahn-Betriebshof,8,19761479
2346,1976131,VEB Bootswerft,9,19761660
2347,1976131,Wendenschloß,10,19761700
2348,1976132,Invalidenstrasse,0,1976683
2349,1976132,Rathenower Strasse,1,19761205
2353,1976132,Kirchstrasse,2,1976748
2354,1976132,U-Bhf. Turmstrasse,3,19761636
2356,1976132,Gotzkowskystrasse,4,1976502
2358,1976132,U-Bhf. Ernst-Reuter-Platz,5,19761562
2359,1976132,Cauerstrasse/Leibnizstrasse,6,1976272
2360,1976132,Richard-Wagner-Platz/Rathaus,7,19761240
2361,1976132,Luisenplatz,8,1976910
2365,1976132,Bismarckstrasse,9,1976186
2367,1976132,Stuttgarter Platz,10,19761492
2368,1976132,Adenauerplatz,11,19764
2369,1976132,Ravensberger Strasse,12,19761210
2370,1976132,Konstanzer Strasse,13,1976780
2371,1976132,U-Bhf. Fehrbelliner Platz,14,19761563
2372,1976132,U-Bhf. Blissestrasse,15,19761556
2373,1976132,Am Volkspark,16,197683
2374,1976132,U-Bhf. Bundesplatz,17,19761559
2375,1976132,U-Bhf. Friedrich-Wilhelms-Platz,18,19761565
2376,1976132,U-Bhf. Schloßstraße,19,19761623
2377,1976132,U-Bhf. Rathaus Steglitz,20,19761612
2379,1976132,Fronhofer-/Wrangelstrasse,21,1976437
2380,1976132,Klingsorstrasse,22,1976759
2381,1976132,Steglitz Birkbuschstrasse,23,19761464
2382,1976133,"Mahlsdorf-Süd, Hubertus",0,1976926
2383,1976133,Uhlenhorst,1,19761653
2384,1976133,Hirtestrasse,2,1976632
2385,1976133,S-Bhf. Köpenick,3,19761301
2386,1976133,Lindenstrasse,4,1976894
2387,1976133,Schloßplatz,5,19761352
2388,1976133,VEB Kühlbetrieb,6,19761662
2389,1976133,VEB Berlin-Chemie,7,19761659
2390,1976133,Schule,8,19761362
2391,1976133,S-Bhf. Grünau,9,19761296
2392,1976133,Regattatribüne,10,19761211
2393,1976133,Richtershorn,11,19761241
2394,1976133,Karolinenhof,12,1976732
2395,1976133,Reifenwerk,13,19761218
2396,1976133,Alt-Schmöckwitz,14,197647
2397,1976134,Richard-Wagner-Platz,0,19761239
2398,1976134,Wilmersdorfer Strasse,1,19761735
2399,1976134,Luisenplatz,2,1976910
2400,1976134,Klausenerplatz,3,1976754
2401,1976134,Sophie-Charlotten-Strasse,4,19761426
2402,1976134,Mollwitzstrasse,5,1976981
2403,1976134,Heubnerweg,6,1976624
2404,1976134,Pulsstraße,7,19761172
2405,1976135,U-Bhf. Rathaus Steglitz,0,19761612
2407,1976135,Fronhoferstrasse/Wrangelstrasse,1,1976439
2408,1976135,Birkbuschstrasse Ecke Wolfensteindamm,2,1976178
2409,1976135,Breite Strasse/Haydnstrasse,3,1976218
2410,1976135,Klingsorstrasse,4,1976759
2411,1976135,Amfortasweg,5,197685
2412,1976135,Klinikum Steglitz,6,1976760
2413,1976135,Klingsorplatz (Klinikum),7,1976758
2414,1976136,Bornholmer Strasse,0,1976208
2415,1976136,Prinzenallee,1,19761169
2416,1976136,Drontheimer Strasse,2,1976322
2417,1976136,U-Bhf. Osloer Strasse,3,19761605
2418,1976136,Louise-Schroeder-Platz,4,1976905
2419,1976136,Indische Strasse,5,1976677
2420,1976136,U-Bhf. Seestrasse/Müllerstrasse,6,19761625
2421,1976136,Afrikanische Strasse,7,197610
2422,1976136,Seestrasse/Friedhöfe,8,19761397
2423,1976136,Plötzensee/Dohnagestell,9,19761142
2425,1976136,Beusselstrasse,10,1976164
2426,1976136,Sickingenstrasse,11,19761406
2427,1976136,Wittstocker Strasse,12,19761749
2428,1976136,Huttenstrasse/Turmstrasse,13,1976665
2429,1976136,Wiebestrasse,14,19761714
2430,1976136,Kaiserin-Augusta-Allee,15,1976717
2431,1976136,Tauroggener Strasse,16,19761509
2432,1976136,Tegeler Weg,17,19761512
2433,1976136,Luisenplatz,18,1976910
2434,1976136,Hebbelstrasse,19,1976589
2438,1976136,Bismarckstrasse,20,1976186
2440,1976136,Stuttgarter Platz,21,19761492
2441,1976136,Adenauerplatz,22,19764
2442,1976136,Konstanzer Strasse,23,1976780
2443,1976136,Fehrbelliner Platz,24,1976380
2444,1976137,John-Schehr-Strasse,0,1976707
2445,1976137,Am Friedrichshain,1,197665
2446,1976137,Mollstrasse,2,1976979
2447,1976137,Alexanderplatz,3,197620
2448,1976137,Spandauer Strasse,4,19761438
2451,1976137,Breite Strasse,5,1976216
2452,1976137,Friedrichstrasse,6,1976430
2453,1976137,Unter den Linden Ecke Otto-Grotewohl-Strasse,7,19761655
2454,1976138,Flughafen Berlin-Tegel,0,1976392
2455,1976138,Flugsteig 8,1,1976395
2456,1976138,Flugsteig 15,2,1976394
2457,1976138,Haupthalle,3,1976581
2458,1976138,Saatwinkler Damm (Einfahrt Flughafen),4,19761323
2460,1976138,Heckerdamm,5,1976591
2461,1976138,Jakob-Kaiser-Platz,6,1976690
2462,1976138,Luisenplatz,7,1976910
2463,1976138,Kantstrasse,8,1976721
2464,1976138,Adenauerplatz,9,19764
2465,1976138,Olivaer Platz/Leibnizstrasse,10,19761056
2466,1976138,Bleibtreustrasse,11,1976196
2468,1976138,Uhlandstrasse,12,19761650
2471,1976138,Joachimstaler Strasse/Kantstrasse,13,1976699
2472,1976138,Hardenbergstrasse/U-Bhf. Zoologischer Garten,14,1976576
2474,1976138,Kurfürstenstrasse,15,1976811
2476,1976138,Wichmannstrasse,16,19761713
2477,1976138,Budapester Strasse,17,1976250
2478,1976139,"Zoo, Hardenbergplatz",0,19761786
2479,1976139,Hardenbergstrasse,1,1976575
2480,1976139,Steinplatz,2,19761470
2481,1976139,U-Bhf. Ernst-Reuter-Platz,3,19761562
2482,1976139,Marchstrasse,4,1976936
2483,1976139,Dovebrücke,5,1976320
2484,1976139,Franklinstrasse,6,1976404
2486,1976139,Alt-Moabit,7,197641
2489,1976139,U-Bhf. Turmstrasse,8,19761637
2491,1976139,Kirchstrasse,9,1976748
2492,1976139,Rathenower Strasse,10,19761205
2496,1976139,Seydlitzstrasse,11,19761404
2497,1976139,Lehrter Strasse,12,1976849
2498,1976139,Poststadion,13,19761145
2499,1976139,Perleberger Strasse,14,19761117
2500,1976139,Am Nordhafen,15,197675
2501,1976139,Müllerstrasse,16,19761002
2503,1976139,U-Bhf. Reinickendorfer Strasse,17,19761614
2504,1976139,Neue Hochstrasse,18,19761018
2505,1976139,Gartenstrasse,19,1976456
2506,1976139,Hussitenstrasse,20,1976661
2507,1976139,Voltastrasse Ecke Brunnenstrasse,21,19761666
2509,1976139,Brunnenstrasse,22,1976236
2510,1976139,Swinemünder Strasse,23,19761501
2511,1976139,Wedding Vinetplatz,24,19761692
2512,1976140,Buckow-Süd,0,1976244
2513,1976140,Am Eichenquast,1,197663
2514,1976140,Ringslebenstraße,2,19761244
2515,1976140,Buckower Damm,3,1976248
2516,1976140,Mollnerweg,4,1976978
2517,1976140,An den Achterhöfen,5,197689
2518,1976140,Alt-Buckow,6,197627
2519,1976140,Parkfriedhof Neukölln,7,19761107
2520,1976140,Dachdeckerweg,8,1976291
2521,1976140,Zimmererweg,9,19761782
2522,1976140,Schlosserweg,10,19761346
2523,1976140,Gutschmidtstraße,11,1976548
2524,1976140,Mohriner Allee,12,1976976
2525,1976140,Tempelhofer Weg,13,19761520
2526,1976140,Gradestraße/Blaschkoallee,14,1976505
2527,1976140,Franz-Körner-Strasse,15,1976405
2528,1976140,Germaniapromenade,16,1976473
2529,1976140,Mariendorfer Weg,17,1976943
2530,1976140,Siegfriedstraße/Emser Strasse,18,19761409
2531,1976140,U-Bhf. Leinestraße Kienitzer Strasse,19,19761589
2532,1976140,U-Bhf. Boddinstraße,20,19761557
2533,1976140,Karlsgartenstraße,21,1976728
2534,1976140,Hermannplatz,22,1976613
2535,1976141,Staaken Brunsbütteler Damm,0,19761451
2536,1976141,Louise-Schroeder-Siedlung,1,1976906
2538,1976141,Brunsbütteler Damm Ecke Magistratsweg,2,1976239
2539,1976141,Maulbeerallee,3,1976959
2540,1976141,Seeburger Weg,4,19761391
2541,1976141,Schmidt-Knobelsdorf-Strasse,5,19761358
2542,1976141,Adamstrasse/Wilhelmstrasse,6,19763
2543,1976141,Földerichstrasse,7,1976444
2545,1976141,Pichelsdorfer Strasse,8,19761126
2546,1976141,Heerstrasse,9,1976594
2547,1976141,Freybrücke,10,1976413
2548,1976141,Pichelswerder,11,19761127
2549,1976141,Stößenseebrücke,12,19761494
2550,1976141,Reichssportfeldstrasse,13,19761216
2551,1976141,Mohrunger Allee,14,1976977
2552,1976141,U-Bhf. Theodor-Heuss-Platz,15,19761631
2554,1976141,Ausstellungshallen,16,1976114
2555,1976141,Funkturm/Omnibusbahnhof,17,1976441
2556,1976141,Suaresstrasse/Amtsgericht,18,19761495
2557,1976141,Kaiser-Friedrich-Strasse,19,1976712
2558,1976141,Leibnizstrasse,20,1976850
2559,1976141,Savignyplatz,21,19761333
2563,1976141,Uhlandstrasse,22,19761652
2564,1976141,"Zoo, Hardenbergplatz",23,19761786
2565,1976142,U-Bhf. Alt-Mariendorf,0,19761550
2566,1976142,Alt-Mariendorf,1,197637
2567,1976142,Britzer Strasse,2,1976232
2568,1976142,Goldenes Horn,3,1976495
2569,1976142,Rotkopfweg,4,19761260
2570,1976142,Windröschenweg,5,19761738
2571,1976142,Im Rosengrund,6,1976675
2572,1976142,Straße 247,7,19761484
2573,1976142,Massiner Weg,8,1976957
2574,1976142,Buckower Damm,9,1976248
2575,1976142,Gutschmidtstrasse,10,1976547
2576,1976142,Wesenberger Ring West,11,19761708
2577,1976142,Britz-Süd Gutschmidtstrasse,12,1976230
2578,1976143,Heerstrasse Ecke Reimerweg,0,1976595
2580,1976143,Wilhelmstrasse,1,19761732
2582,1976143,Gatower Strasse,2,1976460
2583,1976143,Pichelsdorfer Strasse,3,19761125
2585,1976143,Alt-Pichelsdorf/Freybrücke,4,197644
2586,1976143,Pichelswerder,5,19761127
2587,1976143,Stößenseebrücke,6,19761494
2588,1976143,Scholzplatz,7,19761359
2589,1976143,Reichssportfeldstrasse,8,19761216
2590,1976143,Mohrunger Allee,9,1976977
2591,1976143,Preußenallee,10,19761164
2593,1976143,U-Bhf. Theodor-Heuss-Platz,11,19761632
2594,1976143,Ausstellungshallen,12,1976114
2595,1976143,Funkturm/Omnibusbahnhof,13,1976441
2596,1976143,Dernburgstrasse,14,1976303
2597,1976143,Kuno-Fischer-Strasse,15,1976802
2598,1976143,Suarezstrasse/Amtsgericht,16,19761496
2599,1976143,Kaiser-Friedrich-Strasse,17,1976712
2600,1976143,Wilmersdorfer Strasse,18,19761735
2601,1976143,Leibnizstrasse,19,1976850
2602,1976143,Schlüterstrasse,20,19761356
2603,1976143,Savignyplatz,21,19761333
2607,1976143,Uhlandstrasse,22,19761652
2608,1976143,Joachimstaler Strasse,23,1976698
2609,1976143,"Zoo, Hardenbergplatz",24,19761786
2610,1976144,Sonnenallee Ecke Schwarzer Weg,0,19761423
2611,1976144,Schulenburg-Park,1,19761363
2612,1976144,Planetenstrasse,2,19761134
2613,1976144,Grenzallee,3,1976516
2615,1976144,Ziegrastrasse,4,19761779
2616,1976144,Saalestrasse,5,19761322
2617,1976144,Mareschstrasse,6,1976937
2618,1976144,Hertzbergplatz,7,1976621
2619,1976144,Geygerstrasse,8,1976479
2620,1976144,Erkstrasse/Wildenbruchstrasse,9,1976363
2621,1976144,Fuldastrasse,10,1976440
2622,1976144,Reuterstrasse/Pannierstrasse,11,19761231
2625,1976144,Sonnenallee,12,19761421
2626,1976144,Hermannplatz,13,1976613
2627,1976144,Jahnstrasse/Schönleinstrasse,14,1976688
2628,1976144,Körtestrasse,15,1976831
2629,1976144,Geibelstrasse/Urban-Krankenhaus,16,1976466
2630,1976144,Baerwaldstrasse,17,1976117
2631,1976144,Blücherstrasse,18,1976202
2632,1976144,Johanniterstrasse,19,1976703
2633,1976144,Neuenburger Strasse,20,19761020
2634,1976144,Alte-Jakobstrasse,21,197656
2636,1976144,Gitschiner Strasse,22,1976481
2637,1976144,U-Bhf. Hallesches Tor,23,19761571
2638,1976145,Platz der Luftbrücke,0,19761137
2639,1976145,Manfred-v.-Richthofen-Strasse,1,1976930
2640,1976145,Bayernring,2,1976131
2641,1976145,Schreiberring,3,19761361
2642,1976145,Adolf-Scheidt-Platz/Krankenhaus,4,19768
2643,1976145,Hoeppnerstrasse,5,1976638
2644,1976145,Berlinickeplatz,6,1976154
2647,1976145,Albrechtstrasse,7,197619
2648,1976145,Friedrich-Wilhelm-Strasse,8,1976424
2649,1976145,Attilaplatz,9,1976108
2650,1976145,Paul-Schmidt-Strasse,10,19761112
2651,1976145,Röblingstrasse,11,19761273
2653,1976145,Steglitzer Damm,12,19761466
2654,1976145,Crailsheimer Strasse,13,1976288
2655,1976145,Alt-Lankwitz/Krankenhaus,14,197633
2656,1976145,Bruchwitzstrasse,15,1976233
2657,1976145,Leonorenstrasse,16,1976858
2659,1976145,Seydlitzstrasse,17,19761403
2661,1976145,Amalienstrasse,18,197684
2662,1976145,Kranoldplatz,19,1976794
2663,1976145,Morgensternstrasse,20,1976985
2664,1976145,Ostpreußendamm Ecke Wismarerstrasse,21,19761082
2665,1976145,"Dorfaue, Osdorfer Strasse",22,1976319
2666,1976145,Wismarer Strasse,23,19761743
2667,1976145,Lichterfelde Lindenstraße,24,1976877
2668,1976146,Heerstrasse/Stadtgrenze,0,1976596
2669,1976146,Reimerweg,1,19761219
2670,1976146,Magistratsweg,2,1976923
2671,1976146,Sandstrasse,3,19761332
2673,1976146,Wilhelmstrasse,4,19761732
2675,1976146,Gatower Strasse,5,1976460
2676,1976146,Jaczostrasse,6,1976686
2678,1976146,Pichelsdorfer Strasse,7,19761126
2679,1976146,Genfenbergstrasse,8,1976470
2680,1976146,Adamstrasse,9,19762
2681,1976146,Weißenburger Strasse,10,19761698
2682,1976146,Metzer Strasse,11,1976968
2683,1976146,Ruhlebener Strasse,12,19761269
2684,1976146,Rathaus Spandau,13,19761194
2685,1976146,"Spandau, Markt",14,19761435
2687,1976146,Am Juliusturm,15,197670
2688,1976146,Wröhmännerpark,16,19761759
2689,1976146,Triftstrasse,17,19761544
2691,1976146,Parkstrasse/Lynarstrasse,18,19761108
2692,1976146,Schäferstrasse,19,19761371
2693,1976146,Hohenzollernring,20,1976645
2694,1976146,Rauchstrasse,21,19761208
2695,1976146,Mertensstrasse,22,1976964
2696,1976146,Werderstrasse,23,19761703
2697,1976146,Hakenfelde Aalemannufer,24,1976562
2698,1976147,Wedding Usedomer Strasse,0,19761691
2699,1976147,Gustav-Meyer-Allee,1,1976545
2700,1976147,U-Bhf. Gesundbrunnen,2,19761567
2701,1976147,Pankstrasse,3,19761098
2702,1976147,Nettelbeckplatz,4,19761015
2703,1976147,Müllerstrasse/Weddingplatz,5,19761007
2704,1976147,Wilhelmshavener Strasse,6,19761723
2705,1976147,Beusselstrasse,7,1976163
2707,1976147,Weibestrasse,8,19761695
2708,1976147,Neues Ufer,9,19761022
2709,1976147,Olbersstrasse/DRK-Krankenhaus,10,19761053
2711,1976147,Jakob-Kaiser-Platz,11,1976690
2712,1976147,Quellweg,12,19761177
2714,1976147,Paulsternstrasse,13,19761114
2716,1976147,Gartenfelder Strasse,14,1976452
2717,1976147,Carl-Schurz-Strasse,15,1976271
2718,1976147,Rathaus Spandau,16,19761194
2719,1976147,Zeppelinstrasse,17,19761776
2720,1976147,Falkenseer Chaussee,18,1976376
2721,1976147,Am Kiesteich,19,197671
2722,1976147,Stadtrandstrasse,20,19761460
2723,1976147,Spandau Freudstraße,21,19761428
2724,1976148,S-Bhf. Friedrichshagen (Grenze),0,19761293
2725,1976148,"Schöneiche, Waldstrasse",1,19761380
2726,1976148,"Schöneiche, Goethepark",2,19761376
2727,1976148,"Schöneiche, Dorfstrasse",3,19761375
2728,1976148,Dorfaue,4,1976318
2729,1976148,"Schöneiche, Schillerstrasse",5,19761379
2730,1976148,"Schöneiche, Grätzwalde",6,19761377
2731,1976148,"Schöneiche, Jägerstrasse",7,19761378
2732,1976148,"Rüdersdorf, Berghof",8,19761276
2733,1976148,"Rüdersdorf, Torellplatz",9,19761281
2734,1976148,"Rüdersdorf, Heinitzstrasse",10,19761277
2735,1976148,"Rüdersdorf, Post",11,19761279
2736,1976148,"Rüdersdorf, Schulstrasse",12,19761280
2737,1976148,"Rüdersdorf, Karl-Marx-Platz",13,19761278
2738,1976149,S-Bhf. Rahnsdorf,0,19761315
2739,1976149,Goethestrasse,1,1976494
2740,1976149,Eichendamm,2,1976338
2741,1976149,Lerchenstrasse,3,1976862
2742,1976149,Fasanenstrasse,4,1976379
2743,1976149,Thälmannplatz,5,19761528
2744,1976149,Blumenstrasse,6,1976201
2745,1976149,"Woltersdorf, Krankenhaus",7,19761755
2746,1976149,Woltersdorfer Schleuse,8,19761756
2747,1976150,Friedrichstrasse,0,1976431
2748,1976150,Marx-Engels-Platz,1,1976955
2749,1976150,Alexanderplatz,2,197621
2750,1976150,Jannowitzbrücke,3,1976691
2751,1976150,Ostbahnhof,4,19761077
2752,1976150,Warschauer Strasse,5,19761683
2753,1976150,Ostkreuz,6,19761079
2754,1976150,Nöldnerplatz,7,19761042
2755,1976150,Lichtenberg,8,1976865
2756,1976150,Friedrichsfelde Ost,9,1976426
2757,1976150,Biesdorf,10,1976175
2758,1976150,Kaulsdorf,11,1976740
2759,1976150,Mahlsdorf,12,1976924
2760,1976150,Hoppegarten (Mark),13,1976651
2761,1976150,Neuenhagen (b Bln),14,19761021
2762,1976150,Fredersdorf (b Bln),15,1976409
2763,1976150,Petershagen Nord,16,19761118
2764,1976150,Strausberg,17,19761480
2765,1976150,Strausberg Stadt,18,19761482
2766,1976150,Strausberg Nord,19,19761481
2767,1976151,Friedrichstrasse,0,1976431
2768,1976151,Marx-Engels-Platz,1,1976955
2769,1976151,Alexanderplatz,2,197621
2770,1976151,Jannowitzbrücke,3,1976691
2771,1976151,Ostbahnhof,4,19761077
2772,1976151,Warschauer Strasse,5,19761683
2773,1976151,Ostkreuz,6,19761079
2774,1976151,Rummelsburg,7,19761271
2775,1976151,Betriebsbhf. Rummelsburg,8,1976160
2776,1976151,Karlshorst,9,1976730
2777,1976151,Wuhlheide,10,19761760
2778,1976151,Köpenick,11,1976826
2779,1976151,Hirschgarten,12,1976630
2780,1976151,Friedrichshagen,13,1976427
2781,1976151,Rahnsdorf,14,19761181
2782,1976151,Wilhelmshagen,15,19761722
2783,1976151,Erkner,16,1976360
2784,1976152,Friedrichstrasse,0,1976431
2785,1976152,Marx-Engels-Platz,1,1976955
2786,1976152,Alexanderplatz,2,197621
2787,1976152,Jannowitzbrücke,3,1976691
2788,1976152,Ostbahnhof,4,19761077
2789,1976152,Warschauer Strasse (< Ostkreuz),5,19761684
2790,1976152,Treptower Park,6,19761542
2791,1976152,Plänterwald,7,19761141
2792,1976152,Baumschulenweg,8,1976128
2793,1976152,Schöneweide,9,19761381
2794,1976152,Betriebsbhf. Schöneweide,10,1976161
2795,1976152,Adlershof,11,19766
2796,1976152,Grünau,12,1976537
2797,1976152,Eichwalde,13,1976343
2798,1976152,Zeuthen,14,19761778
2799,1976152,Wildau,15,19761716
2800,1976152,Königs Wusterhausen,16,1976823
2801,1976153,Friedrichstrasse,0,1976431
2802,1976153,Marx-Engels-Platz,1,1976955
2803,1976153,Alexanderplatz,2,197621
2804,1976153,Jannowitzbrücke,3,1976691
2805,1976153,Ostbahnhof,4,19761077
2806,1976153,Warschauer Strasse (< Ostkreuz),5,19761684
2807,1976153,Treptower Park,6,19761542
2808,1976153,Plänterwald,7,19761141
2809,1976153,Baumschulenweg,8,1976128
2810,1976153,Schöneweide,9,19761381
2811,1976153,Betriebsbhf. Schöneweide,10,1976161
2812,1976153,Adlershof,11,19766
2813,1976153,Altglienicke,12,197658
2814,1976153,Grünbbergallee,13,1976538
2815,1976153,Zentralflughafen Berlin-Schönefeld,14,19761771
2816,1976154,Oranienburg,0,19761063
2817,1976154,Lehnitz,1,1976847
2818,1976154,Borgsdorf,2,1976207
2819,1976154,Birkenwerder,3,1976181
2820,1976154,Hohen Neuendorf (b Bln),4,1976639
2821,1976154,Bergfelde (b Bln),5,1976138
2822,1976154,Schönfließ,6,19761382
2823,1976154,Blankenburg,7,1976192
2824,1976154,Pankow-Heinersdorf,8,19761094
2825,1976154,Pankow,9,19761088
2826,1976154,Schönhauser Allee,10,19761383
2827,1976154,Prenzlauer Allee,11,19761159
2828,1976154,Greifswalder Strasse,12,1976512
2829,1976154,Leninallee,13,1976853
2830,1976154,Zentralviehhof,14,19761772
2831,1976154,Frankfurter Allee,15,1976399
2832,1976154,Ostkreuz,16,19761079
2833,1976154,Treptower Park,17,19761542
2834,1976154,Plänterwald,18,19761141
2835,1976154,Baumschulenweg,19,1976128
2836,1976154,Schöneweide,20,19761381
2837,1976154,Betriebsbhf. Schöneweide,21,1976161
2838,1976154,Adlershof,22,19766
2839,1976154,Altglienicke,23,197658
2840,1976154,Grünbergallee,24,1976539
2841,1976154,Zentralflughafen Berlin-Schönefeld,25,19761771
2842,1976155,Bernau (b Bln),0,1976155
2843,1976155,Zepernick (b Bernau),1,19761773
2844,1976155,Röntgental,2,19761275
2845,1976155,Buch,3,1976241
2846,1976155,Karow,4,1976734
2847,1976155,Blankenburg,5,1976192
2848,1976155,Pankow-Heinersdorf,6,19761094
2849,1976155,Pankow,7,19761088
2850,1976155,Schönhauser Allee,8,19761383
2851,1976155,Prenzlauer Allee,9,19761159
2852,1976155,Greifswalder Strasse,10,1976512
2853,1976155,Leninallee,11,1976853
2854,1976155,Zentralviehhof,12,19761772
2855,1976155,Frankfurter Allee,13,1976399
2856,1976155,Ostkreuz,14,19761079
2857,1976155,Treptower Park,15,19761542
2858,1976155,Plänterwald,16,19761141
2859,1976155,Baumschulenweg,17,1976128
2860,1976155,Schöneweide,18,19761381
2861,1976155,Betriebsbhf. Schöneweide,19,1976161
2862,1976155,Adlershof,20,19766
2863,1976155,Grünau,21,1976537
2864,1976155,Eichwalde,22,1976343
2865,1976155,Zeuthen,23,19761778
2866,1976156,Blankenburg,0,1976192
2867,1976156,Pankow-Heinersdorf,1,19761094
2868,1976156,Pankow,2,19761088
2869,1976156,Schönhauser Allee,3,19761383
2870,1976156,Prenzlauer Allee,4,19761159
2871,1976156,Greifswalder Strasse,5,1976512
2872,1976156,Leninallee,6,1976853
2873,1976156,Zentralviehhof,7,19761772
2874,1976156,Frankfurter Allee,8,1976399
2875,1976156,Ostkreuz,9,19761079
2876,1976156,Treptower Park,10,19761542
2877,1976156,Plänterwald,11,19761141
2878,1976156,Baumschulenweg,12,1976128
2879,1976156,Schöneweide,13,19761381
2880,1976156,Oberspree,14,19761049
2881,1976156,Spindlersfeld,15,19761444
2882,1976157,Pankow (Vinetastrasse),0,19761089
2883,1976157,Schönhauser Allee,1,19761385
2884,1976157,Dimitroffstrasse,2,1976313
2885,1976157,Senefelderplatz,3,19761401
2886,1976157,Luxemburgplatz,4,1976911
2887,1976157,Alexanderplatz,5,197622
2888,1976157,Klosterstrasse,6,1976764
2889,1976157,Märkisches Museum,7,1976993
2890,1976157,Spittelmarkt,8,19761445
2891,1976157,Hausvogteiplatz,9,1976586
2892,1976157,Stadtmitte,10,19761458
2893,1976157,Thälmannplatz,11,19761529
2894,1976158,Alexanderplatz,0,197622
2895,1976158,Schillingstrasse,1,19761342
2896,1976158,Strausberger Platz,2,19761483
2897,1976158,Marchlewskistrasse,3,1976935
2898,1976158,Frankfurter Tor,4,1976403
2899,1976158,Samariterstrasse,5,19761330
2900,1976158,Frankfurter Allee,6,1976401
2901,1976158,Magdalenenstrasse,7,1976921
2902,1976158,Lichtenberg,8,1976866
2903,1976158,Friedrichsfelde,9,1976425
2904,1976158,Tierpark,10,19761535
2905,1976159,Schlesisches Tor,0,19761345
2906,1976159,Görlitzer Bahnhof (Oranienstr.),1,1976552
2907,1976159,Kottbusser Tor,2,1976784
2908,1976159,Prinzenstr.,3,19761170
2909,1976159,Hallesches Tor,4,1976565
2910,1976159,Möckernbrücke,5,1976994
2911,1976159,Gleisdreieck,6,1976482
2912,1976159,Kurfürstenstr.,7,1976809
2913,1976159,Nollendorfplatz,8,19761034
2914,1976159,Wittenbergplatz,9,19761747
2915,1976159,Zoologischer Garten,10,19761788
2916,1976159,Ernst-Reuter-Platz,11,1976365
2917,1976159,Deutsche Oper (Bismarckstr.),12,1976304
2918,1976159,Sophie-Charlotte-Platz,13,19761424
2919,1976159,Kaiserdamm,14,1976714
2920,1976159,Theodor-Heuss-Platz,15,19761524
2921,1976159,Neu-Westend,16,19761016
2922,1976159,Olympia-Stadion,17,19761058
2923,1976159,Ruhleben,18,19761268
2924,1976160,Wittenbergplatz,0,19761747
2925,1976160,Augsburger Str.,1,1976110
2926,1976160,Spichernstr. (Bundesallee),2,19761443
2927,1976160,Hohenzollernplatz,3,1976644
2928,1976160,Fehrbelliner Platz,4,1976381
2929,1976160,Heidelberger Platz,5,1976599
2930,1976160,Rüdesheimer Platz,6,19761282
2931,1976160,Breitenbachplatz,7,1976221
2932,1976160,Podbielskiallee,8,19761143
2933,1976160,Dahlem-Dorf,9,1976294
2934,1976160,Thielplatz,10,19761526
2935,1976160,Oskar-Helene-Heim,11,19761072
2936,1976160,Onkel Toms Hütte,12,19761062
2937,1976160,Krumme Lanke,13,1976799
2938,1976161,Wittenbergplatz,0,19761747
2939,1976161,Kurfürstendamm (Joachimstaler Str.),1,1976806
2940,1976161,Uhlandstr.,2,19761648
2941,1976162,Nollendorfplatz,0,19761034
2942,1976162,Viktoria-Luise-Platz,1,19761663
2943,1976162,Bayerischer Platz,2,1976130
2944,1976162,Rathaus Schöneberg,3,19761193
2945,1976162,Innsbrucker Platz (Hauptstr.),4,1976679
2946,1976163,Tegel,0,19761511
2947,1976163,Borsigwerke,1,1976209
2948,1976163,Holzhauser Str.,2,1976649
2949,1976163,Seidelstr. (Flughafen Tegel),3,19761399
2950,1976163,Scharnweberstr. (Eichborndamm),4,19761338
2951,1976163,Kurt-Schumacher-Platz,5,1976817
2952,1976163,Afrikanische Str. (Friedrich-Ebert-Siedlung),6,19769
2953,1976163,Rehberge,7,19761213
2954,1976163,Seestr.,8,19761395
2955,1976163,Leopoldplatz,9,1976860
2956,1976163,Bahnhof Wedding,10,1976119
2957,1976163,Reinickendorfer Str.,11,19761223
2958,1976163,Bahnhof Friedrichstr. (Stadtbahn),12,1976118
2959,1976163,Kochstr.,13,1976770
2960,1976163,Hallesches Tor,14,1976565
2961,1976163,Mehringdamm,15,1976962
2962,1976163,Flughafen,16,1976390
2963,1976163,Paradestr.,17,19761104
2964,1976163,Tempelhof,18,19761518
2965,1976163,Alt-Tempelhof,19,197650
2966,1976163,Kaiserin-Augusta-Str.,20,1976718
2967,1976163,Ullsteinstr.,21,19761654
2968,1976163,Westpfahlweg,22,19761712
2969,1976163,Alt-Mariendorf,23,197638
2970,1976164,Fehrbelliner Platz,0,1976381
2971,1976164,Blissestr.,1,1976197
2972,1976164,Berliner Str.,2,1976146
2973,1976164,Bayerischer Platz,3,1976130
2974,1976164,Eisenacher Str.,4,1976344
2975,1976164,Kleistpark,5,1976755
2977,1976164,Möckernbrücke,7,1976994
2978,1976164,Mehringdamm,8,1976962
2979,1976164,Gneisenaustr.,9,1976488
2980,1976164,Südstern,10,19761507
2981,1976164,Hermannplatz,11,1976614
2982,1976164,Rathaus Neukölln,12,19761189
2983,1976164,Karl-Marx-Str.,13,1976727
2984,1976164,Neukölln,14,19761024
2985,1976164,Grenzallee,15,1976518
2986,1976164,Blaschkoallee,16,1976195
2987,1976164,Parchimer Allee,17,19761106
2988,1976164,Britz-Süd,18,1976229
2989,1976164,Johannisthaler Ch. (Gropiusstadt),19,1976701
2990,1976164,Lipschitzallee,20,1976901
2991,1976164,Wutzkyallee,21,19761761
2992,1976164,Zwickauer Damm,22,19761794
2993,1976164,Rudow,23,19761264
2994,1976165,Gesundbrunnen,0,1976477
2995,1976165,Voltastr.,1,19761665
2996,1976165,Moritzplatz,2,1976986
2997,1976165,Kottbusser Tor,3,1976784
2998,1976165,Kottbusser Damm (Schönleinstr.),4,1976783
2999,1976165,Hermannplatz,5,1976614
3000,1976165,Boddinstr.,6,1976203
3001,1976165,Leinestr.,7,1976851
3002,1976166,Osloer Str.,0,19761073
3003,1976166,Nauener Platz,1,19761010
3004,1976166,Leopoldplatz,2,1976860
3005,1976166,Amrumer Str. (Rudolf-Virchow-Krankenhaus),3,197686
3006,1976166,Putlitzstr. (Westhafen),4,19761174
3007,1976166,Birkenstr.,5,1976179
3008,1976166,Turmstr.,6,19761547
3009,1976166,Hansaplatz,7,1976573
3010,1976166,Zoologischer Garten,8,19761788
3011,1976166,Kurfürstendamm (Joachimstaler Str.),9,1976806
3012,1976166,Spichernstr. (Bundesallee),10,19761443
3013,1976166,Güntzelstr.,11,1976553
3014,1976166,Berliner Str.,12,1976146
3015,1976166,Bundesplatz,13,1976254
3016,1976166,Friedrich-Wilhelm-Platz,14,1976423
3017,1976166,Walther-Schreiber-Platz,15,19761675
3018,1976166,Schloßstr.,16,19761353
3019,1976166,Rathaus Steglitz,17,19761195
3020,1976167,Heiligensee,0,1976600
3021,1976167,Schulzendorf (b Tegel),1,19761365
3022,1976167,Tegel,2,19761510
3023,1976167,Eichbornstrasse,3,1976336
3024,1976167,Wittenau (Kremmener Bahn),4,19761744
3025,1976167,Reinickendorf,5,19761221
3026,1976167,Schönholz,6,19761386
3027,1976167,Wollankstrasse,7,19761753
3028,1976167,Gesundbrunnen,8,1976476
3029,1976167,Humboldthain,9,1976657
3030,1976167,Friedrichstrasse,10,1976431
3031,1976167,Anhalter Bahnhof,11,197695
3032,1976167,Yorckstrasse,12,19761762
3033,1976167,Papestrasse,13,19761102
3034,1976167,Priesterweg,14,19761168
3035,1976167,Mariendorf,15,1976939
3036,1976167,Marienfelde,16,1976944
3037,1976167,Buckower Ch.,17,1976245
3038,1976167,Lichtenrade,18,1976869
3039,1976168,Heiligensee,0,1976600
3040,1976168,Schulzendorf (b Tegel),1,19761365
3041,1976168,Tegel,2,19761510
3042,1976168,Eichbornstrasse,3,1976336
3043,1976168,Wittenau (Kremmener Bahn),4,19761744
3044,1976168,Reinickendorf,5,19761221
3045,1976168,Schönholz,6,19761386
3046,1976168,Wollankstrasse,7,19761753
3047,1976168,Gesundbrunnen,8,1976476
3048,1976168,Humboldthain,9,1976657
3049,1976168,Friedrichstrasse,10,1976431
3050,1976168,Anhalter Bahnhof,11,197695
3051,1976168,Yorckstrasse,12,19761762
3052,1976168,Papestrasse,13,19761102
3053,1976168,Priesterweg,14,19761168
3054,1976168,Südende,15,19761505
3055,1976168,Lankwitz,16,1976841
3056,1976168,Lichterfelde Ost,17,1976879
3057,1976168,Lichterfelde Süd,18,1976880
3058,1976169,Friedrichstrasse,0,1976431
3059,1976169,Lehrter Stadtbahnhof,1,1976848
3060,1976169,Bellevue,2,1976134
3061,1976169,Tiergarten,3,19761532
3062,1976169,Zoologischer Garten,4,19761787
3063,1976169,Savignyplatz,5,19761334
3064,1976169,Charlottenburg,6,1976275
3065,1976169,Westkreuz,7,19761711
3066,1976169,Grunewald,8,1976532
3067,1976169,Nikolassee,9,19761032
3068,1976169,Wannsee,10,19761677
3069,1976170,Gesundbrunnen,0,1976476
3070,1976170,Wedding,1,19761689
3071,1976170,Putlitzstr.,2,19761173
3072,1976170,Beusselstr.,3,1976162
3073,1976170,Jungfernheide,4,1976708
3074,1976170,Westend,5,19761709
3075,1976170,Witzleben,6,19761750
3076,1976170,Westkreuz,7,19761711
3077,1976170,Halensee,8,1976563
3078,1976170,Hohenzollerndamm,9,1976643
3079,1976170,Schmargendorf,10,19761357
3080,1976170,Wilmersdorf,11,19761734
3081,1976170,Innsbrucker Platz,12,1976678
3082,1976170,Schöneberg,13,19761372
3083,1976170,Papestr.,14,19761101
3084,1976170,Tempelhof,15,19761517
3085,1976170,Hermannstr.,16,1976615
3086,1976170,Neukölln,17,19761023
3087,1976170,Sonnenallee,18,19761422
3088,1976171,Frohnau,0,1976435
3089,1976171,Hermsdorf,1,1976618
3090,1976171,Waidmannslust,2,19761667
3091,1976171,Wittenau (Nordbahn),3,19761745
3092,1976171,Wilhelmsruh,4,19761724
3093,1976171,Schönholz,5,19761386
3094,1976171,Wollankstr.,6,19761752
3095,1976171,Gesundbrunnen,7,1976476
3096,1976171,Humboldthain,8,1976657
3097,1976171,Friedrichstr.,9,1976429
3098,1976171,Anhalter Bahnhof,10,197695
3099,1976171,Großgörschenstr.,11,1976530
3100,1976171,Schöneberg,12,19761372
3101,1976171,Friedenau,13,1976414
3102,1976171,Feuerbachstr.,14,1976383
3103,1976171,Steglitz,15,19761463
3104,1976171,Botanischer Garten,16,1976211
3105,1976171,Lichterfelde West,17,1976881
3106,1976171,Sundgauer Str.,18,19761498
3107,1976171,Zehlendorf,19,19761766
3108,1976171,Lindenthaler Allee,20,1976896
3109,1976171,Schlachtensee,21,19761343
3110,1976171,Nikolassee,22,19761032
3111,1976171,Wannsee,23,19761677
3112,1976172,Zehlendorf,0,19761766
3113,1976172,Zehlendorf Süd,1,19761768
3114,1976172,Düppel,2,1976325
3115,1976173,Friedrichstr.,0,1976429
3116,1976173,Lehrter Stadtbahnhof,1,1976848
3117,1976173,Bellevue,2,1976134
3118,1976173,Tiergarten,3,19761532
3119,1976173,Zoologischer Garten,4,19761787
3120,1976173,Savignyplatz,5,19761334
3121,1976173,Charlottenburg,6,1976275
3122,1976173,Westkreuz,7,19761711
3123,1976173,Eichkamp,8,1976341
3124,1976173,Heerstr.,9,1976593
3125,1976173,Olympiastadion,10,19761059
3126,1976173,Pichelsberg,11,19761124
3127,1976173,Spandau,12,19761427
3128,1976173,Spandau West,13,19761434
3129,1976173,Staaken,14,19761450
3130,1976174,Beusselstr.,0,1976162
3131,1976174,Jungfernheide,1,1976708
3132,1976174,Siemensstadt-Fürstenbrunn,2,19761413
3133,1976174,Spandau,3,19761427
3134,1976174,Spandau West,4,19761434
3135,1976175,Beusselstr.,0,1976162
3136,1976175,Jungfernheide,1,1976708
3137,1976175,Wernerwerk,2,19761706
3138,1976175,Siemensstadt,3,19761411
3139,1976175,Gartenfeld,4,1976451
