,stop_id,stop_name,type,in_lines
0,1,Adlershof,s-bahn,"{'KBS 103', 'KBS 106'}"
1,2,"Ahrensfeld, Kirche",bus,{'A46'}
2,3,Albrechtshof,s-bahn,{'KBS 103'}
3,4,Alexanderplatz,s-bahn,"{'KBS 101', 'KBS 102', 'KBS 103'}"
4,5,Alexanderplatz,u-bahn,"{'A', 'E'}"
5,6,"Alexanderplatz, Elisabethstrasse",strassenbahn,{'82'}
6,7,"Alexanderplatz, Grunerstrasse",strassenbahn,{'71'}
7,8,"Alexanderplatz, Leninallee",strassenbahn,{'64'}
8,9,"Alexanderplatz, Memhardstr.",strassenbahn,"{'72', '74', '11', '1', '63', '74E', '22'}"
9,10,"Alt-Biesdorf, Oberfeldstrasse",bus,"{'A8E', 'O37', 'A8'}"
10,11,Alt-Friedrichsfelde Ecke Am Tierpark,bus,"{'A8E', 'O37', 'A8', 'A43'}"
11,12,Alt-Friedrichsfelde Ecke Am Tierpark,strassenbahn,{'69'}
12,13,"Alt-Marzahn, Kirche",bus,{'O37'}
13,14,Alt-Schmöckwitz,bus,"{'Schmöckwitz<>Ziegenhals (VEB Kraftverkehr Schöneiche-Rüdersdorf)', 'Schmöckwitz<>Eichwalde (VEB Kraftverkehr Schöneiche-Rüdersdorf)'}"
14,15,Alt-Schmöckwitz,strassenbahn,{'86'}
15,16,"Altglienicke, Am Falkenberg",strassenbahn,{'84'}
16,17,"Altglienicke, Kirche",bus,{'A23'}
17,18,Am Kupfergraben,strassenbahn,"{'46', '1', '70'}"
18,19,Am Rosenhag,bus,"{'A44', 'A44E'}"
19,20,Am Steinberg,bus,"{'A55', 'A45', 'A42'}"
20,21,Am Steinberg,strassenbahn,{'71'}
21,22,Am Treptower Park Ecke Elsenstrasse,strassenbahn,{'87'}
22,23,Andreasstrasse,bus,{'O30'}
23,24,Antonplatz,strassenbahn,"{'72', '74', '70', '3', '74E'}"
24,25,Babelsberg,s-bahn,{'KBS 102'}
25,26,Bahnhof Lichtenberg (Zentralfriedhof),u-bahn,{'E'}
26,27,Bahnhofstrasse Ecke Lindenstrasse,bus,{'A27'}
27,28,Bahnhofstrasse Ecke Lindenstrasse,strassenbahn,"{'84', '95', '86', '87', '82', '83'}"
28,29,Baumschulenstrasse,strassenbahn,"{'92', '95'}"
29,30,Baumschulenstrasse Ecke Südostallee,bus,{'A47'}
30,31,Baumschulenweg,s-bahn,"{'KBS 103', 'KBS 106', 'KBS 103a'}"
31,32,Benzolwerk,strassenbahn,{'84'}
32,33,Bernau (b Bln),s-bahn,{'KBS 106'}
33,34,Bersarinplatz,strassenbahn,"{'13', '4'}"
34,35,Betriebsbahnhof Rummelsburg,s-bahn,{'KBS 102'}
35,36,Betriebsbahnhof Schöneweide,s-bahn,"{'KBS 103', 'KBS 106'}"
36,37,Bf. Siegfriedstrasse,bus,{'O30'}
37,38,Bhf. Drewitz,bus,"{'S-Bhf. Grünau <> Potsdam, Bassinplatz (VEB Potsdam-Babelsberg)'}"
38,39,Bhf. Eichwalde,bus,{'Schmöckwitz<>Eichwalde (VEB Kraftverkehr Schöneiche-Rüdersdorf)'}
39,40,Bhf. Friedrichstrasse,bus,"{'A57', 'A9'}"
40,41,Bhf. Friedrichstrasse,strassenbahn,"{'46', '1', '70'}"
41,42,Bhf. Groß Ziethen,bus,{'AZ'}
42,43,Bhf. Köpenick,strassenbahn,{'83'}
43,44,Bhf. Lichtenberg,bus,"{'O37', 'O30'}"
44,45,Bhf. Lichtenberg,strassenbahn,{'69'}
45,46,Bhf. Mahlow,bus,"{'S-Bhf. Grünau <> Potsdam, Bassinplatz (VEB Potsdam-Babelsberg)'}"
46,47,Bhf. Rosenthal,strassenbahn,{'22'}
47,48,Bhf. Schöneweide,bus,"{'Flughafen Schönefeld <> Strausberger Platz', 'A47', 'A26'}"
48,49,Bhf. Schöneweide,strassenbahn,"{'69', '92', '95'}"
49,50,"Bhf. Schöneweide, Brückenstrasse",strassenbahn,{'87'}
50,51,Bhf. Siegfriedstrasse,strassenbahn,{'69'}
51,52,Bhf. Stalinallee,strassenbahn,{'3'}
52,53,Bhf. Teltow,bus,"{'S-Bhf. Grünau <> Potsdam, Bassinplatz (VEB Potsdam-Babelsberg)'}"
53,54,Biesdorf,s-bahn,{'KBS 101'}
54,55,Birkenwerder,s-bahn,{'KBS 104'}
55,56,Björnsonstrasse,strassenbahn,{'3'}
56,57,Blankenburg,s-bahn,{'KBS 106'}
57,58,"Blankenburg, Bahnhofstrasse",bus,{'A42'}
58,59,Blankenburger Strasse Ecke Pasewalker Strasse,strassenbahn,{'49'}
59,60,Blankenfelde,s-bahn,{'KBS 105'}
60,61,"Blankenfelde, Hauptstrasse",bus,{'A7'}
61,62,Blumenstrasse,bus,{'S-Bhf. Rahnsdorf <> Woltersdorfer Schleuse (VEB Woltersdorf)'}
62,63,"Bohnsdorf, Kirche",bus,{'AD/36'}
63,64,"Bohnsdorf, Waldstrasse",bus,{'A38'}
64,65,Borgsdorf,s-bahn,{'KBS 104'}
65,66,Bornholmer Strasse Ecke Schönhauser Allee,strassenbahn,{'49'}
66,67,Boxhagenerstrasse Ecke Holteistrasse,bus,{'O30'}
67,68,Boxhagenerstrasse Ecke Holteistrasse,strassenbahn,"{'13', '3'}"
68,69,Brauerei,strassenbahn,{'84'}
69,70,Breslauer Strasse Ecke Andreasstrasse,strassenbahn,{'1'}
70,71,Brunnenstrasse,strassenbahn,"{'46', '70'}"
71,72,Brunnenstrasse Ecke Invalidenstrasse,strassenbahn,{'11'}
72,73,Buch,s-bahn,{'KBS 106'}
73,74,"Buch, Kiesgruben",bus,{'A42'}
74,75,"Buchholz, Hauptstrasse",strassenbahn,{'49'}
75,76,Buschallee Ecke Berliner Allee,strassenbahn,{'72'}
76,77,Buschallee Ecke Klement-Gottwald-Alle,bus,{'A46'}
77,78,Buschallee Ecke Klement-Gottwald-Allee,strassenbahn,{'70'}
78,79,"Bölschestrasse, Brauerei",strassenbahn,{'87'}
79,80,Bürgerwäldchen,strassenbahn,{'83'}
80,81,Bürknersfelde,bus,"{'O37', 'A43'}"
81,82,Carl-von-Ossietzky-Werk,bus,"{'S-Bhf. Grünau <> Potsdam, Bassinplatz (VEB Potsdam-Babelsberg)'}"
82,83,Charlottenstrasse Ecke Leipziger Strasse,strassenbahn,{'72'}
83,84,Chemische Fabrik,strassenbahn,{'86'}
84,85,Chemnitzer Ecke Ulmenstrasse,bus,"{'A8E', 'A8'}"
85,86,Chemnitzer Strasse Ecke Alt-Kaulsdorf,bus,{'A27'}
86,87,Dahlewitz,s-bahn,{'KBS 105'}
87,88,Dankmarsteig,bus,{'A23'}
88,89,Degnerstrasse,strassenbahn,"{'64', '63'}"
89,90,"Diepensee, Flughafen",bus,{'AD/36'}
90,91,Dimitroffstr.,u-bahn,{'A'}
91,92,Dimitroffstrasse,bus,{'A9'}
92,93,Dimitroffstrasse,strassenbahn,"{'72', '74', '71', '63', '74E', '64'}"
93,94,Dimitroffstrasse Ecke Leninallee,bus,{'O37'}
94,95,Dingelstädter Strasse,bus,{'O37'}
95,96,Dorfaue,bus,"{'S-Bhf. Friedrichshagen <> Rüdersdorf, Karl-Marx-Platz (VEB Schöneiche-Rüdersdorf)'}"
96,97,Dönhoffplatz,strassenbahn,{'64'}
97,98,Eberswalderstrasse Ecke Oderberger Strasse,strassenbahn,{'4'}
98,99,Ebertystrasse Ecke Leninallee,bus,{'O30'}
99,100,Edisonstrasse,strassenbahn,{'95'}
100,101,Ehrenmal,bus,"{'A55', 'A45'}"
101,102,Eichbuschallee,bus,{'A47'}
102,103,Eichbuschplatz,bus,{'A38'}
103,104,Eichendamm,bus,{'S-Bhf. Rahnsdorf <> Woltersdorfer Schleuse (VEB Woltersdorf)'}
104,105,Eichwalde,s-bahn,{'KBS 103'}
105,106,"Eichwalde, Uhlandstrasse",bus,{'Schmöckwitz<>Eichwalde (VEB Kraftverkehr Schöneiche-Rüdersdorf)'}
106,107,Elisabethstrasse,bus,{'O37'}
107,108,Elisabethstrasse,strassenbahn,{'22'}
108,109,Elsässer Strasse,bus,{'A7'}
109,110,Erkner,s-bahn,{'KBS 102'}
110,111,Fahlenbergstrasse Ecke Fürstenwalder Allee,bus,{'A22'}
111,112,Falkenberger Chaussee,bus,{'A39'}
112,113,Falkenbergerstrasse Ecke Wartenberger Strasse,strassenbahn,{'63'}
113,114,Falkensee,s-bahn,{'KBS 103'}
114,115,Fasanenstrasse,bus,{'S-Bhf. Rahnsdorf <> Woltersdorfer Schleuse (VEB Woltersdorf)'}
115,116,Feldtmannstrasse,bus,{'A46'}
116,117,"Fichtenau, Stadtgrenze",bus,{'A22'}
117,118,Fichtestrasse Ecke Schopenhauerstrasse,bus,{'A8'}
118,119,Flughafen Schönefeld,bus,{'Flughafen Schönefeld <> Strausberger Platz'}
119,120,Frankfurter Tor,u-bahn,{'E'}
120,121,Frankfurter Tor/Stalinallee,strassenbahn,"{'13', '4'}"
121,122,Fredersdorf (b Bln),s-bahn,{'KBS 101'}
122,123,Freibad Grünau,strassenbahn,{'86'}
123,124,Friedrich-Junge-Strasse,bus,{'A82P'}
124,125,Friedrichsfelde (Tierpark),u-bahn,{'E'}
125,126,Friedrichsfelde Ost,s-bahn,{'KBS 101'}
126,127,Friedrichshagen,s-bahn,{'KBS 102'}
127,128,"Friedrichshagen, Wasserwerk",strassenbahn,{'84'}
128,129,Friedrichstr.,s-bahn,"{'KBS 101', 'KBS 102', 'KBS 103'}"
129,130,Friedrichstrasse Ecke Leipzigerstrasse,strassenbahn,{'74'}
130,131,Friedrichstrasse Ecke Unter den Linden,bus,"{'A57', 'A9'}"
131,132,Fürstenwalder Damm,strassenbahn,{'84'}
132,133,"Galenusstrasse, Krankenhaus Pankow",strassenbahn,{'49'}
133,134,Gartenstadtweg,bus,{'AD/36'}
134,135,Genslerstrasse Ecke Siegfriedstrasse,bus,{'O37'}
135,136,Gerosteig,bus,{'A23'}
136,137,Giebelsee,s-bahn,{'KBS 101'}
137,138,Glasow,bus,"{'S-Bhf. Grünau <> Potsdam, Bassinplatz (VEB Potsdam-Babelsberg)'}"
138,139,"Glienicke, Kirche",bus,{'A7'}
139,140,Goethestrasse,bus,{'S-Bhf. Rahnsdorf <> Woltersdorfer Schleuse (VEB Woltersdorf)'}
140,141,Greifswalder Str.,s-bahn,"{'KBS 106', 'KBS 103a'}"
141,142,Greifswalder Strasse,bus,"{'A44', 'A44E'}"
142,143,Greifswalder Strasse,strassenbahn,"{'13', '4'}"
143,144,Greifswalderstrasse Ecke Dimitroffstrasse,bus,{'O30'}
144,145,Griebnitzsee,s-bahn,{'KBS 102'}
145,146,Grottkauer Strasse,bus,{'A49'}
146,147,Groß Ziethen,bus,{'AZ'}
147,148,Große Seestrasse Ecke Berliner Allee,bus,{'A55'}
148,149,Grünau,s-bahn,"{'KBS 103', 'KBS 106'}"
149,150,Grünberger Strasse,strassenbahn,{'4'}
150,151,Gustav-Adolf-Strasse Ecke Rennbahnstrasse,bus,{'A55'}
151,152,Güteraußenring,bus,{'A42'}
152,153,Güterbahnhof Springpfuhl,bus,{'A43'}
153,154,"Hackescher Markt, Große Präsidentenstrasse",strassenbahn,"{'49', '63'}"
154,155,Hamburger Platz,bus,"{'A55', 'A45', 'A56'}"
155,156,Hannoversche Strasse,strassenbahn,{'11'}
156,157,Hauptstrasse Ecke Edelweißstrasse,bus,"{'A55', 'A45'}"
157,158,Hauptstrasse Ecke Karlshorster Strasse,strassenbahn,{'82'}
158,159,Hauptstrasse Ecke Suermondtstrasse,strassenbahn,{'70'}
159,160,Hausvogteiplatz,u-bahn,{'A'}
160,161,"Heinersdorf, Kirche",bus,{'A42'}
161,162,"Heinersdorf, Kirche",strassenbahn,{'71'}
162,163,"Heinersdorf, Romain-Rolland-Str.",strassenbahn,{'71'}
163,164,Heinrich-Duncker-Strasse Ecke Ehrlichstrasse,strassenbahn,{'82'}
164,165,Heinrich-Heine-Strasse,strassenbahn,"{'11', '64'}"
165,166,Heinrich-Mann-Platz,bus,"{'A55', 'A45'}"
166,167,Hennigsdorf (b Bln),s-bahn,{'KBS 105'}
167,168,Hennigsdorf Nord,s-bahn,{'KBS 105'}
168,169,"Hessenwinkel, Lindenstrasse",bus,{'A22'}
169,170,Hirschgarten,s-bahn,{'KBS 102'}
170,171,Hirschgarten,strassenbahn,"{'84', '87'}"
171,172,Hirtestrasse,strassenbahn,{'86'}
172,173,Hochschule für Ökonomie,strassenbahn,{'69'}
173,174,Hohen-Neuendorf (b Bln),s-bahn,{'KBS 104'}
174,175,"Hohenschönhausen, Falkenberger Strasse",bus,{'A39'}
175,176,"Hohenschönhausen, Falkenberger Strasse",strassenbahn,"{'64', '70'}"
176,177,"Hohenschönhausen, Gartenstadt",strassenbahn,{'63'}
177,178,"Hohenschönhausen, Hauptstrasse",strassenbahn,"{'64', '63'}"
178,179,Hohenschönhauser Strasse,strassenbahn,{'3'}
179,180,Hohenschöpping,s-bahn,{'KBS 105'}
180,181,Hoppegarten (Mark),s-bahn,{'KBS 101'}
181,182,Hultschiner Damm,bus,{'A8'}
182,183,Humannplatz,strassenbahn,{'70'}
183,184,"Hönow, Dorfstrasse",bus,{'A44'}
184,185,Invalidenstrasse Ecke Chausseestrasse,strassenbahn,{'1'}
185,186,Jannowitzbrücke,s-bahn,"{'KBS 101', 'KBS 102', 'KBS 103'}"
186,187,Joachimstrasse,bus,{'A38'}
187,188,"Johannisthal, Haeckelstrasse",strassenbahn,{'69'}
188,189,Johannisthaler Chaussee,bus,{'A47'}
189,190,"Jüdenstrasse, Molkenmarkt",strassenbahn,{'71'}
190,191,Kali-Chemie,strassenbahn,"{'92', '95'}"
191,192,Karlshorst,s-bahn,{'KBS 102'}
192,193,Karlshorster Strasse,strassenbahn,{'13'}
193,194,Karolinenhof Mitte,strassenbahn,{'86'}
194,195,Karow,s-bahn,{'KBS 106'}
195,196,"Karow, Bahnhofstrasse",bus,{'A42'}
196,197,Karower Strasse Ecke Alt-Buch,bus,{'A42'}
197,198,Kaulsdorf,s-bahn,{'KBS 101'}
198,199,"Kaulsdorf, Bausdorfstrasse",bus,{'A49'}
199,200,Kinderheim,bus,{'A82P'}
200,201,Klein Ziethen,bus,{'AZ'}
201,202,Klement-Gottwald-Allee Ecke Indira-Ghandi-Strasse,strassenbahn,{'3'}
202,203,Klement-Gottwald-Allee Ecke Rennbahnstrasse,bus,"{'A45', 'A46'}"
203,204,Klement-Gottwald-Allee Ecke Rennbahnstrasse,strassenbahn,"{'72', '74', '74E'}"
204,205,"Klingenberg, Blockdammweg",strassenbahn,"{'13', '82'}"
205,206,Klosterstr.,u-bahn,{'A'}
206,207,Klosterstrasse,bus,{'O30'}
207,208,Kniprodestrasse,strassenbahn,"{'13', '4'}"
208,209,Kniprodestrasse Ecke Ermländische Strasse,bus,{'A57'}
209,210,"Kolonie ""Land in Sonne""",bus,{'A39'}
210,211,Konsum Wernsdorf,bus,{'Schmöckwitz<>Ziegenhals (VEB Kraftverkehr Schöneiche-Rüdersdorf)'}
211,212,Konsum Ziegenhals,bus,{'Schmöckwitz<>Ziegenhals (VEB Kraftverkehr Schöneiche-Rüdersdorf)'}
212,213,Kopernikusstrasse Ecke Warschauer Strasse,strassenbahn,"{'3', '4'}"
213,214,Kosterstrasse,bus,{'O30'}
214,215,Kraftwerk Klingenberg,strassenbahn,"{'13', '82'}"
215,216,Krankenhaus Köpenick,strassenbahn,{'95'}
216,217,Kurische Strasse,bus,{'A9'}
217,218,Kurt-Fischer-Platz,bus,{'A7'}
218,219,Kurt-Fischer-Platz,strassenbahn,"{'46', '22'}"
219,220,Köllnischer Platz,strassenbahn,"{'86', '84'}"
220,221,Königs Wusterhausen,s-bahn,{'KBS 103'}
221,222,Königstor,bus,"{'A57', 'A9', 'O40'}"
222,223,Königstor,strassenbahn,"{'74', '74E'}"
223,224,Köpenick,s-bahn,{'KBS 102'}
224,225,"Köpenick, Krankenhaus",bus,{'A27'}
225,226,Köpenicker Landstrasse Ecke Baumschulenstrasse,strassenbahn,{'87'}
226,227,Köpenicker Strasse,strassenbahn,{'84'}
227,228,Küstriner Platz,bus,"{'O30', 'O40'}"
228,229,LPG Falkenberg,bus,{'A46'}
229,230,Landsberger Chaussee Ecke Weißenseer Weg,strassenbahn,{'3'}
230,231,Langhans Strasse Ecke Gustav-Adolf-Strasse,bus,{'A45'}
231,232,Langhansstrasse Ecke Gustav-Adolf-Strasse,bus,{'A55'}
232,233,Lehnitz,s-bahn,{'KBS 104'}
233,234,Leipziger Strasse Ecke Wilhelmstrasse,strassenbahn,{'74'}
234,235,Leninallee,s-bahn,"{'KBS 106', 'KBS 103a'}"
235,236,Leninallee,strassenbahn,"{'13', '4'}"
236,237,Leninplatz,bus,{'O40'}
237,238,Leninplatz,strassenbahn,"{'64', '1', '63'}"
238,239,Lerchenstrasse,bus,{'S-Bhf. Rahnsdorf <> Woltersdorfer Schleuse (VEB Woltersdorf)'}
239,240,Lichtenberg,s-bahn,{'KBS 101'}
240,241,Lichtenberger Strasse Ecke Berliner Allee,strassenbahn,"{'72', '74', '74E', '70'}"
241,242,Lindenberg,bus,{'AL'}
242,243,Lutherplatz,bus,"{'S-Bhf. Grünau <> Potsdam, Bassinplatz (VEB Potsdam-Babelsberg)'}"
243,244,Luxemburgplatz,u-bahn,{'A'}
244,245,Magdalenenstr.,u-bahn,{'E'}
245,246,Mahlow,s-bahn,{'KBS 105'}
246,247,Mahlsdorf,s-bahn,{'KBS 101'}
247,248,Mahlsdorf-Süd,strassenbahn,{'83'}
248,249,"Mahlsdorf-Süd, Hubertus",strassenbahn,"{'86', '82'}"
249,250,"Malchow, Dorfstrasse",bus,"{'AL', 'A46'}"
250,251,Malchower Weg,bus,{'A46'}
251,252,Marchlewskistr.,u-bahn,{'E'}
252,253,Markgrafendamm,bus,{'A82P'}
253,254,Marktplatz Adlershof,strassenbahn,{'84'}
254,255,Marx-Engels-Platz,bus,"{'A57', 'A9'}"
255,256,Marx-Engels-Platz,s-bahn,"{'KBS 101', 'KBS 102', 'KBS 103'}"
256,257,"Marzahn, Berliner Chaussee",bus,{'A43'}
257,258,Marzahner Chaussee,bus,{'O37'}
258,259,Molkenmarkt,strassenbahn,"{'72', '74', '74E'}"
259,260,Märkisches Museum,u-bahn,{'A'}
260,261,Müggelheim,bus,{'A27'}
261,262,Müggelseeperle,bus,{'A27'}
262,263,Neu-Lindenberg,bus,{'AL'}
263,264,Neuenhagen (b Bln),s-bahn,{'KBS 101'}
264,265,"Niederschönhausen, Schillerstrasse",strassenbahn,{'46'}
265,266,Nordend,bus,{'A7'}
266,267,Nordend,strassenbahn,{'46'}
267,268,Nordendstrasse,strassenbahn,{'22'}
268,269,Nöldnerplatz,s-bahn,{'KBS 101'}
269,270,Oberspree,s-bahn,{'KBS 103a'}
270,271,"Oberspree, Bruno-Bürgel-Weg",strassenbahn,{'92'}
271,272,Oderberger Strasse Ecke Eberswalderstrasse,strassenbahn,{'13'}
272,273,Oranienburg,s-bahn,{'KBS 104'}
273,274,Oranienburger Tor,bus,"{'A9', 'O40'}"
274,275,Oranienburger Tor,strassenbahn,"{'11', '46', '1', '70'}"
275,276,Ossietzkyplatz,strassenbahn,{'46'}
276,277,Ostbahnhof,bus,"{'Flughafen Schönefeld <> Strausberger Platz', 'O40'}"
277,278,Ostbahnhof,s-bahn,"{'KBS 101', 'KBS 102', 'KBS 103'}"
278,279,Ostbahnhof,strassenbahn,"{'82', '1'}"
279,280,Ostkreuz,s-bahn,"{'KBS 103', 'KBS 101', 'KBS 106', 'KBS 102', 'KBS 103a'}"
280,281,Pankow,s-bahn,{'KBS 106'}
281,282,Pankow (Vinetastr.),u-bahn,{'A'}
282,283,"Pankow, Kirche",bus,"{'A55', 'A45'}"
283,284,"Pankow, Kirche",strassenbahn,"{'49', '22'}"
284,285,"Pankow, Rathaus",bus,"{'A55', 'A45', 'A7'}"
285,286,"Pankow, Rathaus",strassenbahn,{'46'}
286,287,Pankow-Heinersdorf,s-bahn,{'KBS 106'}
287,288,Parkstrasse,strassenbahn,"{'82', '95', '87'}"
288,289,Pistoriusstrasse Ecke Klement-Gottwald-Allee,bus,{'A45'}
289,290,Platz vor dem Neuen Tor,bus,{'A9'}
290,291,Plänterwald,s-bahn,"{'KBS 103', 'KBS 106', 'KBS 103a'}"
291,292,Post,bus,"{'S-Bhf. Friedrichshagen <> Rüdersdorf, Karl-Marx-Platz (VEB Schöneiche-Rüdersdorf)'}"
292,293,Potsdam,s-bahn,{'KBS 102'}
293,294,"Potsdam, Bassinplatz",bus,"{'S-Bhf. Grünau <> Potsdam, Bassinplatz (VEB Potsdam-Babelsberg)'}"
294,295,Prenzlauer Allee,s-bahn,{'KBS 106'}
295,296,Prenzlauer Allee,strassenbahn,"{'13', '4'}"
296,297,Prenzlauer Allee Ecke Wisbyer Strasse,strassenbahn,{'71'}
297,298,Prenzlauer Promenade,bus,{'A56'}
298,299,Prenzlauer Promenade,strassenbahn,"{'72', '3', '70'}"
299,300,Prenzlauer Promenade (Spitze),bus,{'A42'}
300,301,Prenzlauer Promenade Ecke Granitzstrasse,bus,{'A55'}
301,302,Prenzlauer Promenade Ecke Kissingenstrasse,bus,{'A45'}
302,303,Prenzlauer Tor,bus,{'O40'}
303,304,Prenzlauer Tor,strassenbahn,{'71'}
304,305,Proskauer Ecke Dolziger Strasse,bus,{'O30'}
305,306,Rahnsdorf,s-bahn,{'KBS 102'}
306,307,Rahnsdorf,strassenbahn,{'87'}
307,308,Rangsdorf,s-bahn,{'KBS 105'}
308,309,Rathaus Lichtenberg,strassenbahn,{'3'}
309,310,Rathaus Mahlsdorf,strassenbahn,{'83'}
310,311,Reifenwerk,bus,{'Schmöckwitz<>Ziegenhals (VEB Kraftverkehr Schöneiche-Rüdersdorf)'}
311,312,Rennbahnstrasse Ecke Gustav-Adolf-Strasse,bus,{'A56'}
312,313,Richtershorn,strassenbahn,{'86'}
313,314,Ridbacher Strasse,bus,{'A49'}
314,315,Robert-Koch-Platz,bus,"{'A57', 'O40'}"
315,316,Roederplatz,bus,{'O30'}
316,317,Roederplatz,strassenbahn,{'3'}
317,318,Rosenthaler Platz,bus,{'O40'}
318,319,Rosenthaler Platz,strassenbahn,"{'11', '49', '22', '1'}"
319,320,Rosenthalerweg,strassenbahn,{'49'}
320,321,Rummelsburg,s-bahn,{'KBS 102'}
321,322,Röntgental,s-bahn,{'KBS 106'}
322,323,"Rüdersdorf, Karl-Marx-Platz",bus,"{'S-Bhf. Friedrichshagen <> Rüdersdorf, Karl-Marx-Platz (VEB Schöneiche-Rüdersdorf)'}"
323,324,"Rüdersdorf, Thälmannstrasse",bus,"{'S-Bhf. Friedrichshagen <> Rüdersdorf, Karl-Marx-Platz (VEB Schöneiche-Rüdersdorf)'}"
324,325,S-Bhf. Adlershof,strassenbahn,{'84'}
325,326,S-Bhf. Alexanderplatz,bus,"{'A57', 'A9', 'O30'}"
326,327,S-Bhf. Baumschulenweg,bus,{'A47'}
327,328,S-Bhf. Baumschulenweg,strassenbahn,"{'95P', '95'}"
328,329,S-Bhf. Biesdorf,bus,{'O37'}
329,330,S-Bhf. Friedrichsfelde-Ost,bus,{'A43'}
330,331,S-Bhf. Friedrichshagen,bus,"{'S-Bhf. Friedrichshagen <> Rüdersdorf, Karl-Marx-Platz (VEB Schöneiche-Rüdersdorf)'}"
331,332,S-Bhf. Friedrichshagen,strassenbahn,"{'84', '87'}"
332,333,S-Bhf. Greifswalder Strasse,strassenbahn,"{'74', '74E'}"
333,334,S-Bhf. Grünau,bus,"{'A38', 'AD/36', 'S-Bhf. Grünau <> Potsdam, Bassinplatz (VEB Potsdam-Babelsberg)', 'AZ'}"
334,335,S-Bhf. Grünau,strassenbahn,{'86'}
335,336,S-Bhf. Jannowitzbrücke,strassenbahn,"{'82', '11', '64'}"
336,337,S-Bhf. Karlshorst,strassenbahn,{'69'}
337,338,"S-Bhf. Kaulsdorf, Planitzstrasse",bus,{'A27'}
338,339,S-Bhf. Köpenick,bus,{'A27'}
339,340,S-Bhf. Köpenick,strassenbahn,"{'86', '82', '83'}"
340,341,S-Bhf. Mahlsdorf,bus,"{'A44', 'A44E'}"
341,342,S-Bhf. Mahlsdorf,strassenbahn,{'83'}
342,343,S-Bhf. Ostkreuz,strassenbahn,{'82'}
343,344,S-Bhf. Pankow,bus,{'A55'}
344,345,S-Bhf. Pankow,strassenbahn,"{'46', '49', '22'}"
345,346,S-Bhf. Pankow-Heinersdorf,strassenbahn,{'49'}
346,347,S-Bhf. Plänterwald,strassenbahn,"{'92', '87'}"
347,348,S-Bhf. Prenzlauer Allee,strassenbahn,"{'72', '71'}"
348,349,S-Bhf. Rahnsdorf,bus,"{'S-Bhf. Rahnsdorf <> Woltersdorfer Schleuse (VEB Woltersdorf)', 'A22'}"
349,350,S-Bhf. Rummelsburg,bus,{'O30'}
350,351,S-Bhf. Schönhauser Allee,strassenbahn,"{'46', '49', '22'}"
351,352,S-Bhf. Spindlersfeld,strassenbahn,{'84'}
352,353,"S-Bhf. Tremptower Park, Elsenstrasse",strassenbahn,{'92'}
353,354,S-Bhf. Treptower Park,bus,{'A47'}
354,355,S-Bhf. Wilhelmshagen,bus,{'A22'}
355,356,SaarBrücker Strasse,strassenbahn,"{'72', '71'}"
356,357,Sadowastrasse,bus,"{'A8E', 'A8'}"
357,358,Samariterstr.,u-bahn,{'E'}
358,359,Scharnhorststrasse,bus,{'A57'}
359,360,Scharnhorststrasse Ecke Kieler Strasse,bus,{'A9'}
360,361,"Schildow, Kirche",bus,{'A7'}
361,362,Schillingstr.,u-bahn,{'E'}
362,363,Schumannstrasse Ecke Luisenstrasse,bus,{'A57'}
363,364,"Schönefeld, Siedlung",bus,"{'AD/36', 'AZ'}"
364,365,"Schöneiche, Goethepark",bus,"{'S-Bhf. Friedrichshagen <> Rüdersdorf, Karl-Marx-Platz (VEB Schöneiche-Rüdersdorf)'}"
365,366,Schöneweide,s-bahn,"{'KBS 103', 'KBS 106', 'KBS 103a'}"
366,367,Schönhauser Allee,s-bahn,{'KBS 106'}
367,368,Schönhauser Allee,u-bahn,{'A'}
368,369,Schönhauser Allee Ecke Bornholmer Strasse,strassenbahn,{'3'}
369,370,Schüßlerplatz,strassenbahn,{'84'}
370,371,Seelenbinderstrasse,strassenbahn,"{'86', '82', '84', '83'}"
371,372,Seelenbinderstrasse Ecke Bahnhofstrasse,strassenbahn,{'87'}
372,373,Selchow,bus,"{'S-Bhf. Grünau <> Potsdam, Bassinplatz (VEB Potsdam-Babelsberg)', 'AZ'}"
373,374,Senefelderplatz,u-bahn,{'A'}
374,375,Sonnenallee,strassenbahn,{'95P'}
375,376,Spindlersfeld,s-bahn,{'KBS 103a'}
376,377,Spittelmarkt,strassenbahn,"{'72', '74', '64', '74E'}"
377,378,Spittelmarkt,u-bahn,{'A'}
378,379,Stadion Buschallee,strassenbahn,{'70'}
379,380,Stadtmitte,u-bahn,{'A'}
380,381,"Stahnsdorf, Waldschänke",bus,"{'S-Bhf. Grünau <> Potsdam, Bassinplatz (VEB Potsdam-Babelsberg)'}"
381,382,Stalinallee,bus,{'O40'}
382,383,Stalinallee,s-bahn,"{'KBS 106', 'KBS 103a'}"
383,384,Stalinallee (Ringbahn),u-bahn,{'E'}
384,385,Sterndamm,bus,{'A47'}
385,386,Steuerhaus,bus,{'O37'}
386,387,Steuerhaus,strassenbahn,"{'64', '63'}"
387,388,Stralauer Allee Ecke Markgrafendamm,strassenbahn,{'82'}
388,389,Strasse 78,bus,{'A42'}
389,390,Strasse nach Wartenberg,bus,{'A46'}
390,391,Strausberg,s-bahn,"{'KBS 101', 'KBS 101c'}"
391,392,Strausberg Nord,s-bahn,{'KBS 101c'}
392,393,Strausberg Stadt,s-bahn,{'KBS 101c'}
393,394,Strausberger Platz,bus,{'Flughafen Schönefeld <> Strausberger Platz'}
394,395,Strausberger Platz,u-bahn,{'E'}
395,396,Taubenstrasse,strassenbahn,{'72'}
396,397,Thälmannplatz,bus,{'S-Bhf. Rahnsdorf <> Woltersdorfer Schleuse (VEB Woltersdorf)'}
397,398,Thälmannplatz,u-bahn,{'A'}
398,399,Tierpark Berlin,strassenbahn,{'69'}
399,400,"Treptow, Rathaus",bus,{'A47'}
400,401,Treptower Park,s-bahn,"{'KBS 103', 'KBS 106', 'KBS 103a'}"
401,402,U-Bhf. Dimitroffstrasse,strassenbahn,"{'13', '4', '70', '49', '46', '22'}"
402,403,U-Bhf. Friedrichsfelde,bus,"{'A8E', 'A8', 'A43'}"
403,404,U-Bhf. Strausberger Platz,strassenbahn,{'1'}
404,405,U-Bhf. Vinetastrasse,bus,{'A7'}
405,406,U-Bhf. Vinetastrasse,strassenbahn,"{'46', '49', '22'}"
406,407,Uckermarkstrasse,bus,{'A49'}
407,408,Ulmenstrasse,bus,{'A27'}
408,409,VEB Bautransporte,bus,{'A26'}
409,410,VEB Schiffswerft,strassenbahn,{'83'}
410,411,Velten (Mark),s-bahn,{'KBS 105'}
411,412,"Waldesruh, Malhlsdorfer Allee",bus,{'A8'}
412,413,Waldschänke,bus,{'A22'}
413,414,Walterdorfer Chaussee (Spinne),bus,"{'S-Bhf. Grünau <> Potsdam, Bassinplatz (VEB Potsdam-Babelsberg)'}"
414,415,Waltersdorf,bus,{'A38'}
415,416,Waltersdorfer Chaussee (Spinne),bus,{'AD/36'}
416,417,Waltersforder Chaussee (Spinne),bus,{'AZ'}
417,418,Warschauer Brücke,strassenbahn,"{'3', '4'}"
418,419,Warschauer Str.,s-bahn,"{'KBS 101', 'KBS 102', 'KBS 103'}"
419,420,Warschauer Strasse,bus,{'O30'}
420,421,Warschauer Strasse,strassenbahn,"{'82', '3', '4'}"
421,422,"Wartenberg, Dorfstrasse",bus,{'A39'}
422,423,"Wartenberg, Siedlung",bus,{'A39'}
423,424,Wasserwerk,strassenbahn,{'87'}
424,425,"Waßmannsdorf, Warteh.",bus,{'AZ'}
425,426,"Weißensee, Liebermannstrasse Ecke Piesporter Strasse",bus,{'A55'}
426,427,"Weißensee, Nüßlerstrasse",bus,{'A56'}
427,428,"Weißensee, Pasedagplatz",strassenbahn,"{'72', '74'}"
428,429,"Weißensee, Schwarzelfenweg",bus,{'A45'}
429,430,Weißenseer Weg,bus,{'O37'}
430,431,Weißenseer Weg,strassenbahn,"{'64', '63'}"
431,432,Wendenschloß Ecke Ekhofstrasse,strassenbahn,{'83'}
432,433,Wicherstrasse Ecke Prenzlauer Allee,bus,{'A56'}
433,434,Wiener Brücke,strassenbahn,"{'92', '87'}"
434,435,Wildau,s-bahn,{'KBS 103'}
435,436,Wilhelminenhof- Ecke Edisonstrasse,strassenbahn,"{'82', '87'}"
436,437,Wilhelminenhofstrasse,strassenbahn,{'69'}
437,438,Wilhelmshagen,s-bahn,{'KBS 102'}
438,439,"Wilhelmsruh, Fontanestrasse",bus,"{'A55', 'A45'}"
439,440,Woltersdorfer Schleuse,bus,{'S-Bhf. Rahnsdorf <> Woltersdorfer Schleuse (VEB Woltersdorf)'}
440,441,Wongrowitzer Strasse,bus,{'A27'}
441,442,Wuhlheide,s-bahn,{'KBS 102'}
442,443,Zentralschule,bus,{'A22'}
443,444,Zentralviehhof,s-bahn,"{'KBS 106', 'KBS 103a'}"
444,445,Zepernick (b Bernau),s-bahn,{'KBS 106'}
445,446,Zeuthen,s-bahn,{'KBS 103'}
446,447,"Ziegenhals, VA Dienststelle",bus,{'Schmöckwitz<>Ziegenhals (VEB Kraftverkehr Schöneiche-Rüdersdorf)'}
