,line_id,stop_name,stop_order,stop_id
0,19841,"Moabit, Waldstrasse Ecke Turmstrasse",0,19841023
1,19841,Turmstrasse,1,19841640
3,19841,Alt-Moabit,2,198450
4,19841,Franklinstrasse,3,1984424
5,19841,Otto-Suhr-Allee,4,19841133
7,19841,Bismarckstrasse,5,1984192
12,19841,Kantstrasse,6,1984745
13,19841,Kurfürstendamm,7,1984828
14,19841,Olivaer Platz,8,19841096
15,19841,U-Bhf. Konstanzer Strasse,9,19841684
16,19841,U-Bhf. Fehrbelliner Platz,10,19841659
17,19841,U-Bhf. Blissestrasse,11,19841651
18,19841,Hildegardstrasse,12,1984647
19,19841,Laubacher Strasse,13,1984870
20,19841,U-Bhf. Breitenbachplatz,14,19841654
21,19841,U-Bhf. Dahlem-Dorf,15,19841656
22,19841,Pacelli-/Thielallee,16,19841138
23,19841,Königin-Luise-Strasse,17,1984842
24,19841,U-Bhf. Oskar-Helene-Heim,18,19841706
25,19841,Winfriedstrasse,19,19841855
26,19841,Berliner Strasse,20,1984145
29,19841,Rathaus Zehlendorf,21,19841254
30,19841,Hampsteadstrasse,22,1984586
31,19841,Wismarer Strasse,23,19841857
32,19841,"Lichterfelde, Lindenstrasse",24,1984913
33,19842,"Marzahn, Betriebshof",0,19841000
34,19842,"Marzahn, Kirche",1,19841002
35,19842,Rebhuhnweg,2,19841265
36,19842,Bruno-Baum-Strasse,3,1984251
37,19842,S-Bhf. Marzahn,4,19841372
38,19842,Franz-Stenzer-Strasse,5,1984428
39,19843,Haselhorster Damm,0,1984595
41,19843,Gartenfelder Strasse,1,1984469
42,19843,Paulsternstrasse,2,19841168
44,19843,Nonnendammallee,3,19841078
45,19843,U-Bhf. Rohrdamm,4,19841718
46,19843,Fürstenbrunner Weg/Friedhof,5,1984461
48,19843,Spandauer Damm,6,19841518
49,19843,U-Bhf. Kaiserdamm,7,19841679
50,19843,ICC/Omnibusbahnhof,8,1984693
51,19843,Dernburgstrasse,9,1984316
52,19843,Amtgerichtsplatz,10,198488
53,19843,Kurfürstendamm,11,1984828
54,19843,Henriettenplatz,12,1984626
55,19843,Rathenauplatz,13,19841256
56,19843,Herbertstrasse,14,1984627
57,19843,Elsterplatz,15,1984365
58,19843,Hundekehlestrasse,16,1984682
59,19843,Königen-Luise-Strasse/Museum Dahlem,17,1984840
60,19843,U-Bhf. Thielplatz,18,19841736
61,19843,Corrensplatz,19,1984301
62,19843,Berliner Strasse,20,1984145
65,19843,Teltower Damm,21,19841604
66,19843,Rathaus Zehlendorf,22,19841254
67,19843,Behring-Krankenhaus,23,1984131
68,19843,"Zehlendorf-Süd, Sachtlebenstrasse Ecke Lupsteiner Weg",24,19841883
69,19844,Dahlem Waldfriedhof,0,1984308
70,19844,U-Bhf. Oskar-Helene-Heim,1,19841706
71,19844,Garystrasse,2,1984472
72,19844,Corrensplatz,3,1984301
74,19844,Berliner Strasse,4,1984146
77,19844,Drakestrasse,5,1984335
78,19844,Gardeschützenweg,6,1984466
79,19844,Ringstrasse,7,19841295
80,19844,Karwendelstrasse,8,1984759
81,19844,Hindenburgdamm/Wiesenbaude,9,1984650
83,19844,Ostpreußendamm,10,19841125
84,19844,Marienstrasse,11,1984991
86,19844,Morgensternstrasse,12,19841034
87,19844,Kranoldplatz,13,1984814
88,19844,Lange Strasse,14,1984866
89,19844,Geraer Strasse,15,1984492
90,19844,Georgenstrasse,16,1984491
92,19844,Hildburghauser Strasse,17,1984646
93,19844,Sondershauser Strasse,18,19841498
94,19844,Stadtilmer Weg,19,19841541
95,19844,Waldsassener Strasse,20,19841783
96,19844,Marienfelder Allee,21,1984988
98,19844,Alt-Marienfelde,22,198446
99,19845,Elisabethstrasse,0,1984363
100,19845,Alt-Marzahn,1,198448
101,19845,Bruno-Leuschner-Strasse,2,1984254
102,19845,Bruno-Baum-Strasse,3,1984252
103,19845,S-Bhf. Marzahn,4,19841373
104,19845,BWF Marzahn,5,1984115
106,19845,Rhinstrasse,6,19841288
107,19845,Genslerstrasse,7,1984490
108,19845,Zechliner Strasse,8,19841881
110,19845,Ho-Chi-Minh-Strasse,9,1984657
111,19845,S-Bhf. Leninallee,10,19841366
112,19845,Dimitroffstrasse,11,1984323
115,19845,Krankenhaus Friedrichshain,12,1984809
116,19845,Leninplatz,13,1984890
117,19845,Hans-Beimler-Strasse,14,1984588
118,19845,U-Bhf. Rosa-Luxemburg-Platz,15,19841720
119,19845,Rosenthaler Platz,16,19841315
120,19845,Veteranenstrasse,17,19841771
121,19845,"Invalidenstrasse, Post",18,1984707
122,19845,Stadion der Weltjugend,19,19841538
123,19845,Pflugstrasse,20,19841178
124,19846,"Wedding, Bernauer Strasse",0,19841805
125,19846,Voltastrasse,1,19841776
126,19846,Scheringstrasse,2,19841417
127,19846,Nettelbeckplatz,3,19841062
128,19846,U-Bhf. Leopoldplatz,4,19841692
129,19846,Limburger Strasse/Rathaus Wedding,5,1984920
130,19846,U-Bhf. Seestrasse,6,19841727
131,19846,Barfusstrasse,7,1984121
132,19846,Holländerstrasse,8,1984667
134,19846,Emmentaler Strasse,9,1984367
137,19846,Roedernallee,10,19841302
139,19846,Am Nordgraben,11,198474
140,19846,Oranienburger Strasse,12,19841105
142,19846,Eichborndamm,13,1984349
144,19846,Hermsdorfer Strasse,14,1984637
145,19846,Cyclopstrasse,15,1984305
146,19846,Zabel-Krüger-Damm,16,19841880
147,19846,Dianastrasse,17,1984320
149,19846,Hermsdorfer Damm,18,1984634
150,19846,Burgfrauen Strasse,19,1984274
151,19846,Zeltinger Platz,20,19841884
152,19846,Ludolfinger Platz,21,1984944
153,19846,Donnersmarckplatz,22,1984330
154,19846,Maximiliankorso Ecke Hainbuchenstrasse,23,19841008
155,19847,"Marzahn, Henneckestrasse",0,19841001
156,19847,Otto-Winzer-Strasse,1,19841135
157,19847,Bruno-Baum-Strasse,2,1984252
158,19847,S-Bhf. Marzahn,3,19841373
159,19847,BWF Marzahn,4,1984115
161,19847,Rhinstrasse,5,19841288
162,19847,Genslerstrasse,6,1984490
163,19847,Zechliner Strasse,7,19841881
165,19847,Ho-Chi-Minh-Strasse,8,1984657
168,19847,Leninallee,9,1984888
170,19847,Herzbergstrasse,10,1984642
171,19847,Rathaus Lichtenberg,11,19841243
172,19847,Bhf. Frankfurter Allee,12,1984168
173,19847,Scharnweberstrasse,13,19841415
174,19848,Alt-Heiligensee,0,198436
175,19848,Heiligenseestrasse,1,1984611
176,19848,Konradshöher Strasse,2,1984799
177,19848,Karolinenstrasse,3,1984756
178,19848,U-Bhf. Tegel,4,19841733
179,19848,U-Bhf. Borsigwerke,5,19841653
180,19848,U-Bhf. Holzhauser Strasse,6,19841674
181,19848,Neheimer Strasse,7,19841061
182,19848,Maienwerder Weg,8,1984967
184,19848,Paulsternstrasse,9,19841169
185,19848,Haselhorster Damm,10,1984595
186,19848,Am Juliusturm,11,198471
187,19848,Zur Zitadelle,12,19841906
188,19848,Rathaus Spandau,13,19841249
189,19848,Brunsbütteler Damm,14,1984255
190,19848,Seeburger Strasse,15,19841461
192,19848,Adamstrasse,16,19843
193,19848,Am Omnibushof,17,198476
195,19848,Heerstrasse,18,1984606
196,19848,Spandau Weinmeisterhornweg,19,19841513
197,19849,Eberswalder Strasse,0,1984342
198,19849,U-Bhf. Dimitroffstrasse,1,19841657
200,19849,Prenzlauer Allee,2,19841214
202,19849,Greifswalder Strasse,3,1984533
203,19849,Bötzowstrasse,4,1984281
204,19849,Artur-Becker-Strasse,5,1984104
205,19849,Leninallee,6,1984886
208,19849,Besarinplatz,7,1984160
209,19849,U-Bhf. Frankfurter Tor,8,19841661
210,19849,Holteistrasse,9,1984670
211,19849,Hauptstrasse,10,1984598
213,19849,VEB Gummiwerke,11,19841765
214,19849,Heizkraftwerk,12,1984621
215,19849,Hönower Wiesenweg,13,1984689
216,198410,U-Bhf. Osloer Strasse,0,19841707
217,198410,Drontheimer Strasse,1,1984337
218,198410,Pankower Allee,2,19841148
223,198410,Emmentaler Strasse,3,1984369
226,198410,Residenzstrasse,4,19841282
227,198410,Aroser Allee,5,1984101
229,198410,Paracelsus-Bad,6,19841156
231,198410,Ollenhauerstrasse,7,19841099
232,198410,Karl-Bonhoeffer-Nervenklinik,8,1984747
233,198410,Tessenowstrasse,9,19841609
235,198410,Jansenstrasse,10,1984715
237,198410,Alt-Wittenau,11,198460
238,198410,Eichborndamm,12,1984349
239,198410,Hermsdorfer Strasse,13,1984636
241,198410,Ziekow-/Eschnachstrasse,14,19841892
242,198410,U-Bhf. Tegel,15,19841733
243,198410,Ruppiner Chausee,16,19841333
244,198410,Diakoniezentrum,17,1984318
245,198410,Hennigsdorfer Strasse,18,1984625
246,198410,Heiligenseestrasse,19,1984611
247,198410,Fährstrasse,20,1984459
248,198410,Alt-Heiligensee,21,198436
249,198411,"Marzahn, Henneckestrasse",0,19841001
250,198411,Otto-Winzer-Strasse,1,19841135
251,198411,Bruno-Baum-Strasse,2,1984252
252,198411,S-Bhf. Marzahn,3,19841373
253,198411,BWF Marzahn,4,1984115
255,198411,Rhinstrasse,5,19841288
256,198411,Genslerstrasse,6,1984490
257,198411,Zechliner Strasse,7,19841881
259,198411,Ho-Chi-Minh-Strasse,8,1984657
260,198411,S-Bhf. Leninallee,9,19841366
261,198411,Dimitroffstrasse,10,1984323
264,198412,Alt-Heiligensee,0,198436
265,198412,Fährstrasse,1,1984459
266,198412,Havelblick,2,1984601
267,198412,Strandbad Heiligensee,3,19841568
269,198412,Gemeindefriedhof,4,1984486
270,198412,Rallenweg,5,19841238
271,198412,Rohrweihstrasse,6,19841308
272,198412,Sperberstrasse,7,19841523
273,198412,Habichtstrasse/Strandbad,8,1984574
274,198412,Falkenplatz,9,1984387
275,198413,Wittenauer Strasse Märkisches Viertel,0,19841859
276,198413,Lübarser Strasse,1,1984953
277,198413,Finsterwalder Strasse,2,1984404
278,198413,Wilhelmsruher Damm,3,19841844
281,198413,Oranienburger Strasse,4,19841106
283,198413,Alt-Wittenau,5,198460
284,198413,Rathaus Reinickendorf,6,19841245
285,198413,Pannwitzstrasse,7,19841154
286,198413,Olbendorfer Weg,8,19841094
287,198413,Breitenbachstrasse,9,1984231
288,198413,Holzhauser Strasse,10,1984671
289,198413,Eschachstrasse/Ziekowstrasse,11,1984378
290,198413,Buddestrasse,12,1984270
291,198413,U-Bhf. Tegel,13,19841733
292,198413,Hermsdorfer Damm,14,1984633
294,198413,Mühlenfeldstrasse,15,19841050
295,198413,Falkentaler Steig,16,1984391
296,198413,Hermsdorfer Friedhof,17,1984635
297,198413,Donnersmarckplatz,18,1984330
298,198413,Ludolfinger Platz,19,1984944
299,198413,Zeltinger Platz,20,19841884
300,198413,Am Pilz,21,198477
301,198413,Frohnau Invalidensiedlung,22,1984453
302,198414,Bhf. Berlin-Lichtenberg,0,1984167
303,198414,Straßenbahn-Betriebshof,1,19841580
304,198414,Josef-Orlopp-Strasse,2,1984728
305,198414,Herzbergstrasse,3,1984641
307,198414,Ho-Chi-Minh-Strasse,4,1984656
309,198414,Franz-Jacob-Strasse,5,1984425
310,198414,S-Bhf. Leninallee,6,19841366
311,198414,Dimitroffstrasse,7,1984323
314,198415,Reinickendorf Klemkestrasse/Sommerstrasse,0,19841276
315,198415,Reginhardstrasse,1,19841268
317,198415,Pankower Allee,2,19841149
319,198415,Residenzstrasse,3,19841280
322,198415,U-Bhf. Osloer Strasse,4,19841707
323,198415,Luise-Schröder-Platz,5,1984947
324,198415,U-Bhf. Seestrasse,6,19841727
325,198415,Amrumer Strasse,7,198486
326,198415,U-Bhf. Amrumer Strasse,8,19841647
327,198415,Fennstrasse,9,1984398
328,198415,Turmstrasse,10,19841640
329,198415,S-Bhf. Bellevue,11,19841345
330,198415,U-Bhf. Hansaplatz,12,19841671
331,198415,Großer Stern,13,1984550
332,198415,Lützowplatz,14,1984956
333,198415,U-Bhf. Nollendorfplatz,15,19841704
334,198415,Martin-Luther-Strasse,16,1984995
336,198415,Rathaus Schöneberg,17,19841247
337,198415,U-Bhf. Innsbrucker Platz,18,19841675
338,198415,U-Bhf. Bundesplatz,19,19841655
339,198415,Wiesbadener Strasse,20,19841830
340,198415,Breitenbachplatz,21,1984229
341,198416,S-Bhf. Grunewald,0,19841355
342,198416,Hagenplatz,1,1984580
343,198416,Teplitzer Strasse,2,19841608
344,198416,Roseneck,3,19841312
345,198416,Berkaer Strasse,4,1984142
346,198416,U-Bhf. Rüdesheimer Platz,5,19841723
347,198416,Laubacher Strasse/Südwestkorso,6,1984871
348,198416,U-Bhf. Friedrich-Wilhelm-Platz,7,19841662
349,198416,Kaisereiche/Schmiljanstrasse,8,1984738
350,198416,U-Bhf. Walther-Schreiber-Platz,9,19841744
351,198416,U-Bhf. Schloßstrasse,10,19841726
352,198416,Kieler Strasse,11,1984768
353,198416,U-Bhf. Rathaus Steglitz,12,19841715
354,198416,Klingsorstrasse,13,1984784
356,198416,Bismarckstrasse,14,1984192
360,198416,Stindestrasse,15,19841562
362,198416,Siemensstrasse,16,19841492
364,198416,Leonorenstrasse,17,1984891
365,198416,Birkbuschstrasse,18,1984186
367,198416,Königsberger Strasse,19,1984844
368,198416,Marienstrasse/Königswark. Krankenhaus,20,1984993
370,198416,Morgensternstrasse,21,19841034
371,198416,Kranoldplatz,22,1984814
372,198416,Oberhofer Platz,23,19841088
373,198416,Lichterfelde Celsiusstrasse,24,1984907
374,198417,Besarinstrasse,0,1984161
375,198417,S-Bhf. Leninallee,1,19841366
376,198417,Franz-Jacob-Strasse,2,1984425
377,198417,Herzbergstrasse,3,1984641
379,198417,Siegfriedstrasse,4,19841488
380,198417,Allee der Kosmonauten,5,198429
381,198417,S-Bhf. Friedrichsfelde Ost,6,19841352
382,198417,Straße der Befreiung,7,19841577
383,198417,U-Bhf. Tierpark,8,19841738
384,198417,Bhf. Karlshorst,9,1984173
385,198417,Wilhelminenhofstrasse,10,19841838
386,198417,Bhf. Schöneweide,11,1984180
387,198417,Königsheideweg,12,1984845
388,198417,Haeckelstrasse,13,1984579
389,198418,U-Bhf. Oskar-Helene-Heim,0,19841706
390,198418,Krankenhaus Oskar-Helene-Heim,1,1984812
391,198418,Scharfestrasse,2,19841413
393,198418,Potsdamer Strasse,3,19841203
397,198418,Fischerhüttenstrasse,4,1984405
398,198418,Lindenthaler Allee,5,1984936
399,198418,Spanische Allee,6,19841521
400,198418,Breisgauer Strasse,7,1984223
402,198418,An der Rehwiese,8,198492
403,198418,S-Bhf. Nikolassee,9,19841374
404,198418,Wannseebadweg,10,19841794
405,198418,S-Bhf. Wannsee,11,19841396
406,198418,Königstrasse,12,1984846
407,198418,Am Großen Wannsee,13,198470
408,198418,Endestrasse,14,1984371
409,198418,Pfaueninselchaussee,15,19841176
410,198418,Rathaus Wannsee,16,19841253
411,198418,Charlottenstrasse,17,1984295
413,198418,Wilhelmplatz,18,19841839
414,198418,Kohlhasenbrück,19,1984794
415,198418,Königsweg,20,1984847
416,198418,Bernhard-Beyer-Strasse,21,1984156
417,198418,Steinstücken,22,19841557
418,198419,Henneckestrasse,0,1984624
419,198419,Otto-Winzer-Strasse,1,19841135
420,198419,Bruno-Leuschner-Strasse,2,1984254
421,198419,Alt-Marzahn,3,198448
422,198419,Elisabethstrasse,4,1984363
423,198419,Marchwitzastrasse,5,1984974
424,198419,S-Bhf. Springpfuhl,6,19841392
425,198419,Rhinstrasse,7,19841287
427,198419,Siegfriedstrasse,8,19841488
428,198419,Ho-Chi-Minh-Strasse,9,1984656
430,198419,S-Bhf. Leninallee,10,19841366
431,198419,Dimitroffstrasse,11,1984323
434,198419,Krankenhaus Friedrichshain,12,1984809
435,198419,Leninplatz,13,1984890
436,198419,Hans-Beimler-Strasse,14,1984588
437,198419,U-Bhf. Rosa-Luxemburg-Platz,15,19841720
438,198419,Rosenthaler Strasse,16,19841316
440,198419,Veteranenstrasse,17,19841771
441,198419,"Invalidenstrasse, Post",18,1984707
442,198419,Stadion der Weltjugend,19,19841538
443,198419,Pflugstrasse,20,19841178
444,198420,Henneckestrasse,0,1984624
445,198420,Alt-Marzahn,1,198448
446,198420,Elisabethstrasse,2,1984363
447,198420,Marchwitzastrasse,3,1984974
448,198420,S-Bhf. Springpfuhl,4,19841392
449,198420,Rhinstrasse,5,19841287
451,198420,Siegfriedstrasse,6,19841488
452,198420,Ho-Chi-Minh-Strasse,7,1984656
454,198420,S-Bhf. Leninallee,8,19841366
455,198420,Dimitroffstrasse,9,1984323
458,198421,Grunewald Roseneck,0,1984553
459,198421,Teplitzer Strasse,1,19841608
460,198421,Richard-Strauß-Strasse,2,19841290
461,198421,Hagenplatz,3,1984580
462,198421,Rathenauplatz,4,19841256
463,198421,Henriettenplatz,5,1984626
466,198421,Joachim-Friedrich-Strasse,6,1984718
467,198421,Lehniner Platz,7,1984874
468,198421,U-Bhf. Adenauerplatz,8,19841643
469,198421,Olivaer Platz/Leibnizstrasse,9,19841097
470,198421,Bleibtreustrasse,10,1984205
471,198421,U-Bhf. Uhlandstrasse,11,19841740
472,198421,U-Bhf. Kurfürstendamm,12,19841688
473,198421,Breitscheidplatz,13,1984232
474,198421,Marburger Strasse,14,1984971
475,198421,U-Bhf. Wittenbergplatz,15,19841747
477,198421,Martin-Luther-Strasse,16,1984996
478,198421,U-Bhf. Nollendorfplatz,17,19841704
482,198421,Potsdamer Strasse,18,19841205
484,198421,Goebenstrasse,19,1984510
486,198421,U-Bhf./S-Bhf. Yorckstrasse,20,19841750
488,198421,Großbeerenstrasse,21,1984547
490,198421,U-Bhf. Mehringdamm,22,19841696
491,198421,U-Bhf. Platz der Luftbrücke,23,19841712
492,198421,Platz der Luftbrücke,24,19841191
493,198422,"Köpenick, Krankenhaus",0,1984849
494,198422,Wendenschloßstrasse,1,19841816
495,198422,Freiheit,2,1984434
496,198422,Bahnhof-/Lindenstrasse,3,1984118
497,198422,Pionierpark,4,19841187
498,198422,Rathenaustrasse,5,19841257
499,198422,Edisonstrasse,6,1984344
500,198422,Bhf. Karlshorst,7,1984173
501,198422,U-Bhf. Tierpark,8,19841738
502,198422,Straße der Befreiung,9,19841577
503,198422,S-Bhf. Friedrichsfelde Ost,10,19841352
504,198422,Allee der Kosmonauten,11,198429
505,198422,Herzberg-/Siegfriedstrasse,12,1984638
506,198422,Ho-Chi-Minh-Strasse,13,1984656
508,198422,Franz-Jacob-Strasse,14,1984425
509,198422,S-Bhf. Leninallee,15,19841366
510,198422,Dimitroffstrasse,16,1984323
513,198423,U-Bhf. Friedrich-Wilhelm-Platz,0,19841662
515,198423,Stubenrauchstrasse,1,19841583
516,198423,U-Bhf. Walther-Schreiber-Platz,2,19841744
517,198423,Alsen-/Fregestrasse,3,198430
519,198423,Bismarckstrasse,4,1984192
523,198423,Lauenburger Platz,5,1984872
524,198423,Bergstrasse,6,1984139
526,198423,Selerweg,7,19841475
527,198423,Steglitzer Damm,8,19841552
528,198423,Halskestrasse,9,1984584
529,198423,Albrechtstrasse,10,198420
532,198423,Leonorenstrasse,11,1984891
533,198423,Rathaus Lankwitz,12,19841242
534,198423,"Lankwitz, Kirche",13,1984867
535,198423,Havensteinstrasse,14,1984603
536,198423,Lerbacher Weg,15,1984895
537,198423,Brotteroder Strasse,16,1984245
538,198423,Trippsteinstrasse,17,19841638
540,198423,Hildburghauser Strasse,18,1984646
541,198423,Waldsassener Strasse,19,19841783
542,198423,Lichterfelder Ring,20,1984915
543,198423,Tirschenreuther Ring,21,19841625
544,198423,"Marienfelde, Waldsassener Strasse",22,1984987
545,198424,Tegelort,0,19841601
546,198424,Falkenplatz,1,1984387
547,198424,Heiligenseestrasse/Gabelung,2,1984612
548,198424,Schulzendorfer Weg,3,19841441
549,198424,Karolinenstrasse,4,1984756
550,198424,Gabrielenstrasse,5,1984462
551,198424,Alt-Tegel/U-Bhf. Tegel,6,198457
552,198424,Gorkistrasse,7,1984518
553,198424,Ziekowstrasse,8,19841893
554,198424,Freie Scholle,9,1984432
555,198424,Dianaplatz,10,1984319
556,198424,Oraniendamm,11,19841109
557,198424,Zabel-Krüger-Damm,12,19841880
558,198424,Am Vierrutenberg,13,198481
559,198424,Lübars Alt-Lübars,14,1984952
560,198425,Bhf. Lichtenberg,0,1984175
561,198425,Straßenbahn-Betriebshof,1,19841580
562,198425,Josef-Orlopp-Strasse,2,1984728
563,198425,Herzbergstrasse,3,1984641
566,198425,Ho-Chi-Minh-Strasse,4,1984657
569,198425,Leninallee,5,1984888
570,198425,Hohenschönhauser Strasse,6,1984662
571,198425,Omnibus-Betriebshof,7,19841102
572,198425,Klement-Gottwald-Allee,8,1984782
574,198425,Antonplatz,9,198497
576,198425,Roelckestrasse,10,19841306
577,198425,Wisbyer Strasse,11,19841856
578,198425,S-Bhf. Prenzlauer Allee,12,19841384
581,198425,Dimitroffstrasse,13,1984325
582,198425,Knaackstrasse,14,1984789
583,198425,Wilhelm-Pieck-Strasse,15,19841836
584,198425,U-Bhf. Rosa-Luxemburg-Platz,16,19841720
585,198425,Hackerscher Markt,17,1984576
586,198426,Quickborner Strasse Märkisches Viertel,0,19841230
587,198426,Wilhelmsruher Damm,1,19841844
589,198426,Schorfheidestrasse,2,19841438
590,198426,Wilhelmsruher Damm/Dannenwalder Weg,3,19841847
592,198426,Oranienburger Strasse,4,19841106
594,198426,Alt-Wittenau,5,198460
595,198426,Rathaus Reinickendorf,6,19841245
596,198426,Auguste-Viktoria-Allee,7,1984111
597,198426,U-Bhf. Scharnweber Strasse,8,19841724
598,198426,U-Bhf. Kurt-Schumacher-Platz,9,19841690
599,198426,Kaserne Südtor,10,1984761
600,198426,U-Bhf. Jakob-Kaiser-Platz,11,19841676
601,198426,Jakob-Kaiser-Platz,12,1984712
602,198426,Olbersstrasse/DRK-Krankenhaus,13,19841095
603,198426,Landgericht,14,1984862
604,198426,Luisenplatz,15,1984948
608,198426,Bismarckstrasse,16,1984194
610,198426,S-Bhf. Charlottenburg,17,19841350
611,198426,Amtsgericht Charlottenburg,18,198489
612,198426,Kurfürstendamm,19,1984828
613,198426,Westfälische Strasse,20,19841824
614,198426,Rudolstädter Strasse,21,19841322
617,198426,Berliner Strasse,22,1984147
618,198426,Fehrbelliner Platz,23,1984394
619,198427,Eberswalder Strasse,0,1984342
620,198427,U-Bhf. Dimitroffstrasse,1,19841657
622,198427,Prenzlauer Allee,2,19841214
624,198427,Greifswalder Strasse,3,1984533
625,198427,Bötzowstrasse,4,1984281
626,198427,Artur-Becker-Strasse,5,1984104
627,198427,Leninallee,6,1984886
630,198427,Besarinplatz,7,1984160
631,198427,U-Bhf. Frankfurter Tor,8,19841661
632,198427,Holteistrasse,9,1984670
633,198427,Hauptstrasse,10,1984598
635,198427,VEB Gummiwerke,11,19841765
636,198427,Heizkraftwerk,12,1984621
637,198427,Hönower Wiesenweg,13,1984689
638,198427,Stechlinstrasse,14,19841549
639,198427,Hermann-Duncker-Strasse,15,1984628
640,198427,Wilhelminenhofstrasse,16,19841838
641,198427,Rathenaustrasse,17,19841257
642,198427,Pionierpark,18,19841187
643,198427,Bahnhof-/Lindenstrasse,19,1984118
644,198427,Schloßplatz,20,19841431
645,198427,Wendenschloßstrasse,21,19841816
646,198427,"Köpenick, Krankenhaus",22,1984849
647,198428,U-Bhf. Osloer Strasse,0,19841707
648,198428,Ritterlandweg,1,19841298
651,198428,Pankower Allee,2,19841150
653,198428,Emmentaler Strasse,3,1984368
655,198428,Lindauer Allee,4,1984922
658,198428,Aroser Allee,5,1984101
660,198428,Roedernallee/Paracelsus-Bad,6,19841304
662,198428,Tessenowstrasse,7,19841610
663,198428,Am Nordgraben,8,198474
664,198428,Dannenwalder Weg,9,1984312
666,198428,Wilhelmsruher Damm,10,19841845
667,198428,Gemeinde-Zentrum,11,1984484
668,198428,Märkisches Zentrum,12,19841043
669,198428,Wesendorfer Strasse,13,19841822
670,198428,Senftenberger Ring-Ost,14,19841478
671,198428,Senioren-Zentrum,15,19841479
672,198428,Calauer Strasse,16,1984287
673,198428,Eichhorster Weg,17,1984353
674,198428,Lübarser Strasse,18,1984953
676,198428,Hermsdorfer Strasse,19,1984637
677,198428,Zabel-Krüger-Damm,20,19841880
678,198428,Waidmannslust Titiseestrasse,21,19841779
679,198429,"Rosenthal, Quickborner Strasse",0,19841313
681,198429,Hauptstrasse,1,1984599
682,198429,Siedlung,2,19841483
683,198429,Kastanienallee,3,1984762
684,198429,Nordendstrasse,4,19841082
685,198429,Uhlandstrasse,5,19841756
686,198429,Platanenstrasse,6,19841190
687,198429,Skladanowskystrasse,7,19841495
688,198429,Kurt-Fischer-Platz,8,1984833
689,198429,Bürgerpark,9,1984284
690,198429,"Pankow, Rathaus",10,19841146
691,198429,"Pankow, Kirche",11,19841144
692,198429,S-Bhf. Pankow,12,19841380
693,198429,U-Bhf. Pankow,13,19841709
695,198429,Bornholmer Strasse,14,1984217
696,198429,Björnsonstrasse,15,1984198
697,198429,Bhf. Schönhauser Allee,16,1984181
698,198429,U-Bhf. Dimitroffstrasse,17,19841657
699,198429,Zionskirchplatz,18,19841896
700,198429,Brunnenstrasse,19,1984250
701,198429,"Invalidenstrasse, Post",20,1984707
702,198429,Oranienburger Tor,21,19841108
703,198429,Bhf. Friedrichstrasse,22,1984171
704,198429,Am Kupfergraben,23,198473
705,198430,U-Bhf. Holzhauser Strasse,0,19841674
706,198430,Wittestrasse,1,19841862
707,198430,Soltauer Strasse,2,19841497
708,198430,Breitenbachstrasse,3,1984231
709,198430,Miraustrasse,4,19841020
711,198430,Triftstrasse,5,19841637
712,198430,Rathaus Reinickendorf,6,19841245
713,198430,"Wittenau, Kirche",7,19841858
714,198431,Falkenhöhe,0,1984386
715,198431,S-Bhf. Grünbergallee,1,19841358
716,198431,S-Bhf. Altglienicke,2,19841343
717,198431,Normannenstrasse,3,19841083
718,198431,Wolfmarsteig,4,19841864
719,198431,Schönefelder Chaussee,5,19841451
720,198431,"Altglienicke, Kirche",6,198463
721,198431,Glienicker Weg,7,1984506
722,198431,VEB Berlin-Chemie,8,19841763
723,198431,Dörpfeldstrasse,9,1984339
724,198431,S-Bhf. Adlershof,10,19841340
725,198431,Rudower Chaussee,11,19841326
726,198432,S-Bhf. Tiergarten,0,19841394
727,198432,U-Bhf. Hansaplatz,1,19841671
728,198432,Elberfelder Strasse,2,1984359
729,198432,Gotzkowskystrasse,3,1984523
730,198432,Turm-/Beusselstrasse,4,19841639
733,198432,Siemensstrasse,5,19841493
734,198432,Seestrasse,6,19841467
736,198432,Hüttigpfad,7,1984691
737,198432,Schleuse Plötzensee,8,19841425
738,198432,Stieffring,9,19841561
739,198432,Reichweinstrasse,10,19841273
740,198432,Bernhard-Lichtenberg-Strasse,11,1984157
741,198432,Kurt-Schumacher-Damm,12,1984836
742,198432,Heilmannring,13,1984613
743,198432,U-Bhf. Halemweg,14,19841669
744,198432,Toeplerstrasse,15,19841627
745,198432,Goebelplatz,16,1984509
746,198432,U-Bhf. Siemensdamm,17,19841729
747,198432,Quellweg,18,19841229
748,198432,U-Bhf. Rohrdamm,19,19841718
749,198432,Harriesstrasse,20,1984592
750,198432,Saatwinkler Damm,21,19841400
751,198432,Mäckeritzbrücke,22,19841041
752,198432,Saatwinkler Damm Mäkeritzwiesen,23,19841401
753,198433,Moabit Wiebestrasse,0,19841022
754,198433,Huttenstrasse,1,1984683
755,198433,Reuchlinstrasse,2,19841283
756,198433,Waldstrasse/Beusselstrasse,3,19841787
757,198433,Rathaus Tiergarten,4,19841252
758,198433,U-Bhf. Turmstrasse,5,19841739
759,198433,Krankenhaus Moabit,6,1984811
760,198433,Wilsnacker Strasse,7,19841853
763,198433,Rathenower Strasse,8,19841260
766,198433,Alt-Moabit,9,198449
768,198433,Schloß Bellevue,10,19841428
769,198433,Tiergartenstrasse,11,19841621
770,198433,Lützowplatz,12,1984956
771,198433,Magdeburger Platz,13,1984961
776,198433,Potsdamer Strasse,14,19841206
777,198433,Askanischer Platz,15,1984106
780,198433,Großbeerenstrasse,16,1984548
781,198433,U-Bhf. Hallesches Tor,17,19841670
782,198433,U-Bhf. Gneisenaustrasse,18,19841665
783,198433,Columbiadamm,19,1984299
785,198434,Bernkasteler Strasse,0,1984158
786,198434,Pasedagplatz,1,19841164
787,198434,Buschallee,2,1984275
788,198434,Lichtenberger Strasse,3,1984901
789,198434,Albertinenstrasse,4,198415
790,198434,Antonplatz,5,198497
791,198434,S-Bhf. Greifswalder Strasse,6,19841354
793,198434,Dimitroffstrasse,7,1984324
795,198434,Mollstrasse,8,19841028
796,198434,U-Bhf. Rosa-Luxemburg-Platz,9,19841720
797,198434,Hackescher Markt,10,1984577
798,198434,Orianienburger Tor,11,19841112
799,198434,Stadion der Weltjugend,12,19841538
800,198434,Wöhlertstrasse,13,19841873
801,198435,Britz-Süd,0,1984239
802,198435,Fritz-Erler-Allee,1,1984451
803,198435,Kormoranweg,2,1984801
804,198435,Grüner Weg,3,1984559
805,198435,Buschkrugallee,4,1984276
806,198435,U-Bhf. Parchimer Allee,5,19841711
807,198435,Britzer Damm,6,1984242
809,198435,Gradestrasse,7,1984525
811,198435,Karl-Elsasser-Strasse,8,1984748
812,198435,Gottlieb-Dunkel-Strasse,9,1984522
813,198435,Teilestrasse,10,19841603
814,198435,Wenckebachstrasse,11,19841813
815,198435,U-Bhf. Ullsteinstrasse,12,19841741
816,198435,Attilaplatz,13,1984108
817,198435,Alboinstrasse,14,198418
819,198435,Röblingstrasse/Arnulfstrasse,15,19841336
820,198435,S-Bhf. Priesterweg,16,19841385
821,198435,Prellerweg,17,19841210
822,198435,Auguste-Viktoria-Krankenhaus,18,1984112
823,198435,Grazer Platz,19,1984528
824,198435,Rubensstrasse,20,19841319
825,198435,Friedenauer Brücke,21,1984436
826,198435,Kaisereiche,22,1984737
827,198435,U-Bhf. Friedrich-Wilhelm-Platz,23,19841662
828,198436,Sterndamm,0,19841560
829,198436,Bhf. Schöneweide,1,1984180
830,198436,Wilhelminenhofstrasse,2,19841838
831,198436,Rathenaustrasse,3,19841257
832,198436,Pionierpark,4,19841187
833,198436,Bahnhof-/Lindenstrasse,5,1984118
834,198436,Seelenbinderstrasse,6,19841466
835,198436,Brandenburgplatz,7,1984222
836,198436,Hirschgarten,8,1984652
837,198436,Bölschestrasse,9,1984278
838,198436,S-Bhf. Friedrichshagen,10,19841353
839,198436,Hartlebenstrasse,11,1984593
840,198436,Müggelseedamm,12,19841048
841,198436,Freibad Müggelsee,13,1984431
842,198436,Rahnsdorf,14,19841235
843,198437,Sterndamm,0,19841560
844,198437,Bhf. Schöneweide,1,1984180
845,198437,Wilhelminenhofstrasse,2,19841838
846,198437,Rathenaustrasse,3,19841257
847,198437,Pionierpark,4,19841187
848,198437,Bahnhof-/Lindenstrasse,5,1984118
849,198437,Schloßplatz,6,19841431
850,198437,Wendenschloßstrasse,7,19841816
851,198437,"Köpenick, Krankenhaus",8,1984849
852,198438,S-Bhf. Kaulsdorf,0,19841362
853,198438,Alt-Kaulsdorf,1,198438
854,198438,Chemnitzer Strasse,2,1984298
855,198438,Jägerstrasse,3,1984731
856,198438,Gehsener Strasse,4,1984482
857,198438,S-Bhf. Köpenick,5,19841363
858,198438,Seelenbinderstrasse,6,19841465
859,198438,Lindenstrasse,7,1984933
861,198438,Müggelheimer Strasse,8,19841046
862,198438,Krankenhaus Köpenick,9,1984810
863,198438,Chausseehaus,10,1984297
864,198438,Rübezahl,11,19841338
865,198438,Müggelseeperle,12,19841049
866,198438,"Müggelheim, Dorf",13,19841045
867,198438,Alt-Müggelheim,14,198451
868,198439,U-Bhf. Tempelhof,0,19841734
869,198439,Boelckestrasse,1,1984211
870,198439,Werner-Voß-Damm,2,19841819
871,198439,Loewenhardtdamm,3,1984941
872,198439,Dudenstrasse,4,1984338
873,198439,Kreuzbergstrasse,5,1984817
874,198439,Yorckstrasse/Rathaus Kreuzberg,6,19841879
875,198439,U-Bhf. Mehringdamm,7,19841696
876,198439,U-Bhf. Gneisenaustrasse,8,19841665
877,198439,U-Bhf. Südstern,9,19841732
878,198439,Urbanstrasse,10,19841762
879,198439,Geibelstrasse,11,1984483
880,198439,Urban-Krankenhaus,12,19841761
881,198439,U-Bhf. Prinzenstrasse,13,19841713
882,198439,U-Bhf. Kottbusser Tor,14,19841686
883,198439,Oranienstrasse,15,19841111
884,198439,Mariannenplatz,16,1984975
888,198439,Köpenicker Strasse,17,1984853
889,198439,U-Bhf. Schlesisches Tor,18,19841725
890,198439,Falckensteinstrasse,19,1984382
891,198439,Schlesische Strasse Ecke Heckmannufer,20,19841423
892,198440,Pasedagplatz,0,19841164
893,198440,Bernkasteler Strasse,1,1984158
894,198440,Buschallee,2,1984275
895,198440,Lichtenberger Strasse,3,1984901
896,198440,Albertinenstrasse,4,198415
897,198440,Antonplatz,5,198497
898,198440,S-Bhf. Greifswalder Strasse,6,19841354
900,198440,Dimitroffstrasse,7,1984324
902,198440,Mollstrasse,8,19841028
903,198440,U-Bhf. Rosa-Luxemburg-Platz,9,19841720
904,198440,Hackescher Markt,10,1984577
905,198441,"Weißensee, Kniprodeallee",0,19841812
907,198441,Klement-Gottwald-Allee,1,1984783
908,198441,Lichtenberger Strasse,2,1984901
909,198441,Omnibus-Betriebshof,3,19841102
910,198441,Hohenschönhauser Strasse,4,1984662
912,198441,Leninallee,5,1984887
915,198441,Herzbergstrasse,6,1984642
916,198441,Rathaus Lichtenberg,7,19841243
917,198441,Bhf. Frankfurter Allee,8,1984168
918,198441,Scharnweberstrasse,9,19841415
919,198442,Düppel-Süd,0,1984340
920,198442,Ludwigsfelder Strasse,1,1984946
921,198442,Machnower Strasse,2,1984958
922,198442,Rathaus Zehlendorf,3,19841254
923,198442,Potsdamer-/Berliner Strasse,4,19841207
924,198442,Winfriedstrasse,5,19841855
925,198442,Schützallee,6,19841459
926,198442,Sophie-Charlotte-Strasse,7,19841506
927,198442,U-Bhf. Onkel Toms Hütte,8,19841705
928,198442,U-Bhf. Krumme Lanke,9,19841687
929,198442,Mexikoplatz,10,19841017
930,198442,Potsdamer Chaussee,11,19841201
931,198442,Spanische Allee,12,19841521
932,198442,Wasgenstrasse,13,19841800
933,198442,Waldfriedhof,14,19841780
934,198442,Isoldestrasse,15,1984708
935,198442,Nibelungenstrasse,16,19841074
936,198442,Kronprinzessinenweg,17,1984818
937,198442,Am Großen Wannsee,18,198470
938,198442,Koblanckstrasse,19,1984792
939,198442,Jugenderholungsheim,20,1984729
940,198442,Zum Heckeshorn,21,19841903
941,198442,"Wannsee, Heckeshorn",22,19841793
942,198443,Björnsonstrasse,0,1984198
944,198443,Bornholmer Strasse,1,1984217
945,198443,Schönfließer Strasse,2,19841455
946,198443,Schönhauser Allee,3,19841457
947,198443,Stahlheimer Strasse,4,19841547
948,198443,Prenzlauer Allee,5,19841213
951,198443,Roelckestrasse,6,19841305
953,198443,Antonplatz,7,198497
954,198443,Lichtenberger Strasse,8,1984901
955,198443,Omnibus-Betriebshof,9,19841102
956,198443,Hohenschönhauser Strasse,10,1984662
957,198443,Leninallee,11,1984886
961,198443,Herzbergstrasse,12,1984642
962,198443,Rathaus Lichtenberg,13,19841243
963,198443,Bhf. Frankfurter Allee,14,1984168
964,198443,Scharnweberstrasse,15,19841415
965,198443,Boxhagener Strasse,16,1984221
966,198443,Gärtnerstrasse,17,1984566
967,198443,Simon-Dach-Strasse,18,19841494
968,198443,Warschauer Strasse,19,19841797
969,198443,S-Bhf. Warschauer Strasse,20,19841397
970,198444,Robert-Koch-Platz,0,19841299
971,198444,Oranienburger Tor,1,19841107
972,198444,Rosenthaler Platz,2,19841314
973,198444,U-Bhf. Rosa-Luxemburg-Platz,3,19841719
974,198444,Prenzlauer Allee,4,19841211
975,198444,Dimitroffstrasse,5,1984322
976,198444,Artur-Becker-Strasse,6,1984103
977,198444,Leninallee,7,1984883
979,198444,Mühsamstrasse,8,19841053
980,198444,Samariterstrasse,9,19841403
981,198444,Jacques-Duclos-Strasse,10,1984709
982,198444,Herzbergstrasse,11,1984639
986,198444,Siegfriedstrasse,12,19841487
987,198444,Omnibus Betriebshof,13,19841101
988,198444,U-Bhf. Magdalenenstrasse,14,19841694
989,198444,Bhf. Lichtenberg,15,1984174
990,198444,Weitlingstrasse,16,19841810
991,198444,Lückstrasse,17,1984955
992,198444,S-Bhf. Rummelsburg,18,19841388
993,198444,Holteistrasse,19,1984669
994,198444,Warschauer Strasse,20,19841795
995,198444,Franz-Mehring-Platz,21,1984427
996,198444,Ostbahnhof,22,19841120
997,198445,"Buch, Hobrechtsfelder Chaussee",0,1984260
998,198445,S-Bhf. Buch,1,19841348
999,198445,Karower Strasse,2,1984758
1001,198445,Stadtrandsiedlung,3,19841545
1002,198445,Alt-Karow,4,198437
1003,198445,Straße 26,5,19841575
1004,198445,Alt-Blankenburg,6,198433
1005,198445,Heinersdorfer Kirche,7,1984617
1006,198445,Am Steinberg,8,198479
1007,198445,Ostseestrasse,9,19841126
1008,198446,Hans-Beimler-Strasse,0,1984587
1009,198446,Am Friedrichshain,1,198468
1010,198446,Leninplatz,2,1984889
1011,198446,Karl Marx-Allee,3,1984746
1012,198446,Ostbahnhof,4,19841120
1013,198446,S-Bhf. Jannowitzbrücke,5,19841360
1014,198446,Fischerinsel,6,1984406
1015,198446,Friedrichstrasse,7,1984447
1016,198446,Otto-Grotewohl-Strasse,8,19841130
1019,198447,U-Bhf. Rathaus Steglitz,0,19841715
1021,198447,Albrechtstrasse,1,198421
1023,198447,Breite Strasse,2,1984225
1025,198447,Klingsorstrasse,3,1984784
1027,198447,Bismarckstrasse,4,1984192
1031,198447,Stindestrasse,5,19841562
1033,198447,Siemensstrasse,6,19841492
1035,198447,Leonorenstrasse,7,1984891
1036,198447,Stadtbad Lankwitz,8,19841539
1037,198447,Rathaus Lankwitz,9,19841242
1038,198447,"Lankwitz, Kirche",10,1984867
1039,198447,Mühlenstrasse,11,19841051
1041,198447,Malteserstrasse,12,1984969
1042,198447,Belßstrasse,13,1984133
1043,198447,Wedellstrasse,14,19841807
1044,198447,Wichurastrasse,15,19841827
1046,198447,Marienfelder Allee,16,1984989
1047,198447,S-Bhf. Marienfelde,17,19841371
1048,198447,Fritz-Werner-Strasse,18,1984452
1049,198447,Marienfelde Daimlerstrasse,19,1984984
1050,198448,Grumbkowstrasse,0,1984551
1051,198448,Kurt-Fischer-Platz,1,1984832
1052,198448,Bürgerpark,2,1984283
1053,198448,"Pankow, Kirche",3,19841143
1054,198448,S-Bhf. Pankow,4,19841379
1055,198448,U-Bhf. Pankow,5,19841708
1056,198449,U-Bhf. Breitenbachplatz,0,19841654
1057,198449,Björnsonstrasse,1,1984197
1058,198449,Gritznerstrasse,2,1984541
1060,198449,Lepsiusstrasse,3,1984894
1061,198449,U-Bhf. Schloßstrasse,4,19841726
1062,198449,Steglitzer Kreuz,5,19841554
1063,198449,Filandastrasse,6,1984401
1064,198449,Südendstrasse,7,19841595
1065,198449,Klingsorstrasse,8,1984784
1067,198449,Bismarckstrasse,9,1984192
1071,198449,Halskestrasse,10,1984584
1072,198449,Liebenowzeile,11,1984916
1073,198449,Buhrowstrasse,12,1984271
1074,198449,S-Bhf. Mariendorf,13,19841370
1075,198449,Kurfürstenstrasse,14,1984831
1076,198449,Gersdorfstrasse,15,1984496
1077,198449,Rathausstrasse,16,19841255
1078,198449,U-Bhf. Westphalweg,17,19841745
1079,198449,Eisenacher Strasse,18,1984356
1081,198449,Kollostrasse,19,1984795
1082,198449,Kosleckweg,20,1984802
1083,198449,Mariendorf Rixdorfer Strasse Ecke Dirschelweg,21,1984978
1084,198450,U-Bhf. Marchlewskistrasse,0,19841695
1085,198450,Warschauer Strasse,1,19841795
1086,198450,Revaler Strasse,2,19841285
1087,198450,Stralauer Allee,3,19841566
1088,198450,Rochowstrasse,4,19841301
1089,198450,Markgrafendamm,5,1984994
1090,198450,Friedrich-Junge-Strasse,6,1984439
1091,198450,Alt-Stralau,7,198456
1092,198451,"Spandau, Wasserwerk",0,19841516
1093,198451,Friedhof In den Kisseln,1,1984438
1095,198451,Zeppelinstrasse,2,19841890
1096,198451,Askanierring,3,1984105
1097,198451,Wröhmännerpark,4,19841870
1098,198451,Rathaus Spandau,5,19841249
1099,198451,Brunsbütteler Damm,6,1984255
1100,198451,Seeburger Strasse,7,19841461
1101,198451,Weißenburger Strasse,8,19841811
1102,198451,Adamstrasse,9,19842
1104,198451,Heerstrasse,10,1984605
1106,198451,Jaczostrasse,11,1984710
1107,198451,Gatower Strasse,12,1984475
1108,198451,Sandheideweg,13,19841405
1109,198451,Weinmeisterhornweg,14,19841809
1110,198451,"Gatower Strasse ""Biberburg""",15,1984476
1111,198451,"Gatow, Kirche",16,1984474
1112,198451,Groß-Glienicker Weg,17,1984543
1113,198451,Breitehornweg/Krankenhaus,18,1984228
1114,198451,"Flugplatz, Haupteingang",19,1984413
1115,198451,"Havelhöhe, Krankenhaus",20,1984602
1116,198451,"Kladow, Ritterfelddamm",21,1984778
1117,198451,Gredinger Strasse,22,1984529
1118,198451,Seekorso,23,19841464
1119,198451,Glienicke Gutshof,24,1984502
1120,198452,Alt-Gatow,0,198435
1121,198452,Groß-Glienicker Weg,1,1984543
1122,198452,zum Dorf Gatow,2,19841912
1123,198452,Habichtswald,3,1984575
1124,198453,"Biesdorf-Süd, Köpenicker Strasse",0,1984184
1125,198453,Hadubrandstrasse,1,1984578
1126,198453,Zimmermannstrasse,2,19841895
1127,198453,Grabensprung,3,1984524
1128,198453,Elsterwerdaer Platz,4,1984366
1129,198453,Oberfeldstrasse,5,19841087
1130,198453,Werner-Lamberz-Strasse,6,19841818
1131,198453,U-Bhf. Friedrichsfelde,7,19841663
1132,198453,Lincolnstrasse,8,1984921
1133,198453,Weitlingstrasse,9,19841810
1134,198453,S-Bhf. Nöldnerplatz,10,19841375
1135,198454,U-Bhf. Ruhleben,0,19841722
1136,198454,Krematorium Ruhleben,1,1984816
1137,198454,Güterbahn Ruhleben,2,1984573
1138,198454,Teltower Strasse,3,19841605
1141,198454,Pichelsdorfer Strasse,4,19841182
1143,198454,Adamstrasse,5,19843
1145,198454,Wilhelmstrasse,6,19841849
1146,198454,Am Omnibushof,7,198476
1147,198454,Gatower Strasse/Heerstrasse,8,1984477
1148,198454,Sandheideweg,9,19841405
1149,198454,Weinmeisterhornweg,10,19841809
1150,198454,Zur Haveldüne,11,19841905
1151,198454,"Gatower Strasse ""Biberburg""",12,1984476
1152,198454,Ortsgrenze Gatow,13,19841114
1153,198454,Gatow Kirche,14,1984473
1154,198454,Groß-Glienicker Weg,15,1984543
1155,198454,Am Graben,16,198469
1156,198454,Straße zur Badewiese,17,19841579
1157,198454,Breitehornweg/Krankenhaus,18,1984228
1158,198454,"Flugplatz, Haupteingang",19,1984413
1159,198454,"Havelhöhe, Krankenhaus",20,1984602
1160,198454,Finnensiedlung,21,1984403
1161,198454,Ritterfelddamm/Alt-Kladow,22,19841297
1162,198454,Krampnitzer Weg,23,1984807
1163,198454,Kladow Hottengrund,24,1984777
1164,198455,Kladow,0,1984776
1165,198455,Krampnitzer Weg,1,1984807
1166,198455,Grimmelshausenstrasse,2,1984539
1167,198455,Selbitzer Strasse,3,19841474
1168,198455,Lanzendorfer Weg,4,1984869
1169,198455,"Hottengrund, Altenheim",5,1984675
1170,198456,S-Bhf. Grünau,0,19841356
1171,198456,Gartenstadtweg,1,1984470
1172,198456,"Bohnsdorf, Kirche",2,1984212
1173,198456,S-Bhf. Grünbergallee,3,19841358
1174,198456,S-Bhf. Schönefeld,4,19841389
1175,198456,"Schönefeld, Dorfstrasse",5,19841450
1176,198457,Flughafen Schönefeld,0,1984412
1177,198457,Bahnhof,1,1984117
1178,198457,Hotel,2,1984674
1179,198457,Flughafen Schönefeld,3,1984412
1180,198458,Flughafen Schönefeld,0,1984412
1181,198458,Bahnhof,1,1984117
1182,198458,Flughafen Schönefeld,2,1984412
1183,198459,S-Bhf. Grünau,0,19841356
1184,198459,Germanenstrasse,1,1984494
1185,198459,Normannenstrasse,2,19841083
1186,198459,Köpenicker Strasse,3,1984850
1190,198459,Rudower Strasse,4,19841328
1192,198460,S-Bhf. Grünau,0,19841356
1193,198460,Joachimstrasse,1,1984720
1194,198460,Eichbuschplatz,2,1984351
1195,198460,Waltersdorfer Strasse,3,19841791
1196,198460,"Bohnsdorf, Waldstrasse",4,1984213
1197,198460,Waltersdorf,5,19841790
1198,198460,Kienberg,6,1984769
1199,198460,Diepensee,7,1984321
1200,198461,"Wartenberg, Siedlung",0,19841799
1201,198461,Lindenberger Strasse,1,1984926
1204,198461,Falkenberger Chaussee,2,1984384
1205,198461,Gehrenseestrasse,3,1984479
1206,198461,Wollenberger Strasse,4,19841866
1209,198461,Marzahner Strasse,5,19841005
1210,198461,Große Leege Strasse,6,1984549
1211,198461,Degnerstrasse,7,1984315
1212,198462,"Neu-Westend, Brixplatz",0,19841065
1213,198462,U-Bhf. Neu-Westend,1,19841701
1214,198462,U-Bhf. Theodor-Heuss-Platz,2,19841735
1215,198462,Ausstellungshallen,3,1984113
1216,198462,ICC/Omnibusbahnhof,4,1984693
1217,198462,ICC/Ausstellungshallen,5,1984692
1218,198462,Kurfürstendamm/Rathenauplatz.,6,1984830
1219,198462,Henriettenplatz,7,1984626
1220,198462,Joachim-Friedrich-Strasse,8,1984716
1223,198462,Hochmeisterplatz,9,1984658
1224,198462,U-Bhf. Fehrbelliner Platz,10,19841659
1225,198462,U-Bhf. Blissestrasse,11,19841651
1226,198462,U-Bhf. Berliner Strasse,12,19841648
1227,198462,Rathaus Schöneberg,13,19841247
1228,198462,Hauptstrasse,14,1984597
1229,198462,Katzbach-/Boelckestrasse,15,1984763
1230,198462,Platz der Luftbrücke,16,19841191
1231,198462,Friesenstrasse,17,1984450
1232,198462,U-Bhf. Boddinstrasse,18,19841652
1233,198462,Morusstrasse,19,19841036
1234,198462,U-Bhf. Karl-Marx-Strasse,20,19841681
1235,198462,U-Bhf. Rathaus Neukölln,21,19841714
1236,198462,Sonnenallee,22,19841500
1241,198462,"Neukölln, Teupitzer Strasse",23,19841072
1242,198463,Eberswalder Strasse,0,1984342
1243,198463,U-Bhf. Dimitroffstrasse,1,19841657
1245,198463,Prenzlauer Allee,2,19841214
1247,198463,Greifswalder Strasse,3,1984533
1248,198463,Bötzowstrasse,4,1984281
1249,198463,Artur-Becker-Strasse,5,1984104
1250,198463,Leninallee,6,1984886
1253,198463,Bersarinplatz,7,1984159
1254,198463,Frankfurter Tor,8,1984422
1255,198463,Grünberger Strasse,9,1984558
1256,198463,S-Bhf. Warschauer Strasse,10,19841397
1257,198464,Robert-Koch-Platz,0,19841299
1258,198464,Oranienburger Tor,1,19841107
1259,198464,Rosenthaler Platz,2,19841314
1260,198464,U-Bhf. Rosa-Luxemburg-Platz,3,19841719
1261,198464,Prenzlauer Allee,4,19841211
1262,198464,Am Friedrichshain,5,198468
1263,198464,Leninplatz,6,1984889
1264,198464,Karl-Marx-Allee,7,1984752
1265,198464,Franz-Mehring-Platz,8,1984427
1266,198464,Ostbahnhof,9,19841120
1267,198465,Neu-Lindenberg,0,19841063
1268,198465,"Lindenberg, Dorf",1,1984925
1269,198465,"Malchow, Dorf",2,1984968
1270,198465,Feldtmannstrasse,3,1984397
1271,198465,Rennbahnstrasse,4,19841279
1272,198465,Falkenberger Strasse,5,1984385
1273,198465,Liebermannstrasse,6,1984917
1274,198465,Straße nach Wartenberg,7,19841578
1275,198465,"Falkenberg, Schule",8,1984383
1276,198465,Stadtrandsiedlung,9,19841544
1278,198465,S-Bhf. Ahrensfelde,10,19841342
1279,198465,"Ahrensfelde, Lindenberger Strasse",11,198413
1280,198466,Rudow Stadtgrenze,0,19841324
1281,198466,U-Bhf. Rudow,1,19841721
1282,198466,Stubenrauchstrasse,2,19841582
1284,198466,Arnikaweg,3,1984100
1285,198466,Lipschitzallee,4,1984938
1286,198466,Grüner Weg,5,1984559
1287,198466,Parchimer Allee,6,19841158
1288,198466,Blaschkoallee,7,1984203
1289,198466,U-Bhf. Grenzallee,8,19841666
1290,198466,Naumburger Strasse,9,19841060
1295,198466,Sonnenallee,10,19841504
1296,198466,Saalestrasse,11,19841399
1297,198466,Wildenbruchstrasse,12,19841835
1298,198466,Pannierstrasse,13,19841153
1299,198466,Hermannplatz,14,1984629
1300,198466,U-Bhf. Kottbusser Damm,15,19841685
1301,198466,U-Bhf. Kottbusser Tor,16,19841686
1302,198466,Oranienplatz,17,19841110
1303,198466,U-Bhf. Moritzplatz,18,19841698
1304,198466,Alexandrinenstrasse,19,198427
1305,198466,Alte Jakobstrasse,20,198461
1307,198466,Lindenstrasse,21,1984934
1308,198466,Neuenburger Strasse,22,19841068
1309,198466,Gitschiner Strasse,23,1984500
1310,198466,U-Bhf. Hallesches Tor,24,19841670
1311,198467,"Buch, Zepernicker Strasse",0,1984261
1312,198467,Karower Strasse,1,1984758
1314,198467,Stadtrandsiedlung,2,19841545
1315,198467,Alt-Karow,3,198437
1316,198467,Straße 26,4,19841575
1317,198467,Alt-Blankenburg,5,198433
1318,198467,"Heinersdorf, Kirche",6,1984615
1319,198467,Am Steinberg,7,198479
1320,198467,Ostseestrasse,8,19841126
1321,198468,S-Bhf. Marzahn,0,19841372
1322,198468,Murtzaner Ring,1,19841039
1323,198468,Boschpoler Strasse,2,1984219
1324,198468,S-Bhf. Springpfuhl,3,19841391
1325,198468,Kröver Strasse,4,1984821
1326,198468,S-Bhf. Friedrichsfelde Ost,5,19841351
1327,198468,Straße der Befreiung,6,19841576
1328,198468,U-Bhf. Friedrichsfelde,7,19841663
1329,198468,Weitlingstrasse,8,19841810
1330,198468,S-Bhf. Nöldnerplatz,9,19841375
1331,198469,"Hönow, Dorf",0,1984687
1332,198469,Thälmannstrasse,1,19841618
1333,198469,Greifswalder Strasse,2,1984530
1335,198469,Am Rosenhag,3,198478
1336,198469,S-Bhf. Mahlsdorf,4,19841368
1337,198470,"Wilhelmsruh, Schillerstrasse",0,19841843
1338,198470,Edelweißstrasse,1,1984343
1339,198470,Ehrenmal Schönholz,2,1984347
1340,198470,Heinrich-Mann-Platz,3,1984619
1341,198470,"Pankow, Rathaus",4,19841145
1342,198470,S-Bhf. Pankow,5,19841379
1343,198470,Prenzlauer Promenade,6,19841217
1345,198470,Am Steinberg,7,198479
1346,198470,Hamburger Platz,8,1984585
1347,198470,Klement-Gottwald-Allee,9,1984781
1348,198470,Lichtenberger Strasse,10,1984900
1349,198470,Gehringstrasse,11,1984481
1350,198470,Schwarzelfenweg,12,19841445
1351,198471,Nordend,0,19841080
1352,198471,Kuckhoffstrasse,1,1984823
1353,198471,Kurt-Fischer-Strasse,2,1984835
1354,198471,Bürgerpark,3,1984284
1355,198471,"Pankow, Rathaus",4,19841146
1356,198471,"Pankow, Kirche",5,19841144
1357,198471,S-Bhf. Pankow,6,19841380
1358,198471,U-Bhf. Pankow,7,19841709
1360,198471,Bornholmer Strasse,8,1984217
1361,198471,Bhf. Schönhauser Allee,9,1984181
1362,198471,U-Bhf. Dimitroffstrasse,10,19841657
1363,198471,Zionskirchstrasse,11,19841897
1364,198471,Brunnenstrasse,12,1984250
1365,198471,"Invalidenstrasse, Post",13,1984707
1366,198471,Oranienburger Tor,14,19841108
1367,198471,Bhf. Friedrichstrasse,15,1984171
1368,198471,Am Kupfergraben,16,198473
1369,198472,"Treptow, Eichenstrasse",0,19841632
1370,198472,S-Bhf. Treptower Park,1,19841395
1371,198472,"Treptow, Rathaus",2,19841633
1372,198472,Eichbuschallee,3,1984350
1373,198472,S-Bhf. Baumschulenweg,4,19841344
1374,198472,Sonnenallee,5,19841500
1379,198472,Johannisthaler Chaussee,6,1984723
1380,198472,Sterndamm,7,19841559
1381,198472,Bhf. Schöneweide,8,1984179
1383,198472,Rudower Strasse,9,19841329
1384,198472,S-Bhf. Oberspree,10,19841376
1386,198473,Marzahner Strasse,0,19841004
1388,198473,Plauener Strasse,1,19841196
1390,198473,Leninallee,2,1984884
1391,198473,Allee der Kosmonauten,3,198428
1392,198473,S-Bhf. Friedrichsfelde Ost,4,19841351
1393,198474,Zehlendorf Fischerhüttenstrasse Ecke Potsdamer Strasse,0,19841882
1395,198474,Potsdamer Strasse,1,19841203
1399,198474,Teltower Damm,2,19841604
1400,198474,Berliner Strasse,3,1984145
1403,198474,Seehofstrasse,4,19841463
1404,198474,Sundgauer Strasse,5,19841590
1405,198474,Dahlemer Weg,6,1984310
1407,198474,Drakestrasse,7,1984335
1408,198474,Botanischer Garten,8,1984220
1409,198474,U-Bhf. Rathaus Steglitz,9,19841715
1410,198474,U-Bhf. Schloßstrasse,10,19841726
1411,198474,U-Bhf. Walther-Schreiber-Platz,11,19841744
1412,198474,Kaisereiche,12,1984737
1413,198474,Breslauer Platz/Rathaus Friedenau,13,1984236
1414,198474,U-Bhf. Innsbrucker Platz,14,19841675
1415,198474,Dominicusstrasse,15,1984329
1416,198474,Albertstrasse,16,198416
1417,198474,Kaiser-Wilhelm-Platz,17,1984735
1418,198474,U-Bhf. Kleistpark,18,19841682
1420,198474,Goebenstrasse,19,1984511
1421,198474,Bülowstrasse,20,1984282
1422,198474,U-Bhf. Kurfürstenstrasse,21,19841689
1423,198474,Lützowstrasse,22,1984957
1424,198474,Kulturforum,23,1984825
1425,198474,Tiergartenstrasse Philharmonie,24,19841622
1426,198475,"Bucholz, Hauptstrasse",0,1984262
1427,198475,Blankenfelder Strasse,1,1984202
1429,198475,Rosenthaler Strasse,2,19841317
1430,198475,Marienstrasse,3,1984992
1431,198475,Blankenburger Strasse,4,1984200
1432,198475,Pankower Strasse,5,19841151
1433,198475,Galenusstrasse,6,1984465
1434,198475,S-Bhf. Pankow-Heinersdorf,7,19841381
1435,198475,Würtzstrasse,8,19841875
1436,198475,Amalienpark,9,198483
1437,198475,"Pankow, Kirche",10,19841144
1438,198475,S-Bhf. Pankow,11,19841380
1439,198475,U-Bhf. Pankow,12,19841709
1440,198475,Bornholmer Strasse,13,1984216
1442,198475,Bhf. Schönhauser Allee,14,1984181
1443,198475,U-Bhf. Dimitroffstrasse,15,19841657
1444,198475,Zionskirchplatz,16,19841896
1445,198475,Rosenthaler Platz,17,19841315
1446,198475,Hackescher Markt,18,1984577
1447,198476,U-Bhf. Ruhleben,0,19841722
1448,198476,Krematorium Ruhleben,1,1984816
1449,198476,Güterbahn Ruhleben,2,1984573
1450,198476,Teltower Strasse,3,19841605
1451,198476,Tiefwerderweg,4,19841619
1452,198476,Grenadierstrasse,5,1984536
1453,198476,Stresowplatz,6,19841581
1454,198476,"Spandau, Markt",7,19841514
1455,198476,Rathaus Spandau,8,19841249
1456,198476,Galenstrasse,9,1984463
1457,198476,Staakener Strasse,10,19841534
1458,198476,Petzoldtweg,11,19841173
1459,198476,Zeppelinstrasse,12,19841889
1461,198476,Spekteweg,13,19841522
1462,198476,Merziger Strasse,14,19841014
1463,198476,Falkenseer Chaussee,15,1984388
1464,198476,Westerwaldstrasse Ecke Friedhof,16,19841823
1465,198476,Frankenwaldstrasse,17,1984418
1466,198476,Am Kiesteich,18,198472
1467,198476,Falkenseer Chaussee/Stadtrandstrasse,19,1984389
1468,198476,Waldkrankenhaus,20,19841781
1469,198476,"Spandau, Nervenklinik",21,19841515
1470,198477,Rolandstrasse,0,19841309
1471,198477,Grumbkowstrasse,1,1984551
1474,198477,Lindenberger Strasse,2,1984928
1475,198477,Idastrasse,3,1984695
1476,198477,Ossietzkyplatz,4,19841119
1477,198477,Kurt-Fischer-Strasse,5,1984834
1478,198477,Bürgerpark,6,1984283
1479,198477,Görschstrasse,7,1984569
1480,198477,Dolomitenstrasse,8,1984328
1481,198477,U-Bhf. Pankow,9,19841708
1482,198478,Grunewald Roseneck,0,1984553
1483,198478,Berkaer Strasse/ Elsterplatz,1,1984143
1484,198478,Forckenbeckstrasse,2,1984416
1485,198478,Landecker Strasse,3,1984861
1487,198478,Cunostrasse,4,1984304
1488,198478,Rudolstädter Strasse,5,19841322
1491,198478,Berliner Strasse,6,1984147
1492,198478,U-Bhf. Fehrbelliner Platz,7,19841659
1493,198478,Emser Platz,8,1984370
1494,198478,Uhlandstrasse,9,19841753
1497,198478,Nassauische Strasse,10,19841057
1498,198478,U-Bhf. Günzelstrasse,11,19841668
1499,198478,Prager Platz,12,19841208
1500,198478,Landshuter Strasse,13,1984865
1501,198478,U-Bhf. Viktoria-Luise-Platz,14,19841742
1502,198478,Martin-Luther-Strasse,15,1984995
1505,198478,Eisenacher Strasse,16,1984357
1506,198478,Schöneberg Barbarossaplatz,17,19841449
1507,198479,"Buch, Am Sandhaus",0,1984259
1508,198479,S-Bhf. Buch,1,19841348
1509,198479,Zepernicker Strasse,2,19841888
1510,198479,"Zepernick, Kirche",3,19841887
1511,198480,"Buch, Am Sandhaus",0,1984259
1512,198480,S-Bhf. Buch,1,19841348
1513,198480,Lindenberger Weg,2,1984929
1514,198480,Akademie der Wissenschaften,3,198414
1515,198481,Achtermannstrasse,0,19840
1516,198481,Galenusstrasse,1,1984464
1517,198481,Prenzlauer Chaussee,2,19841216
1518,198481,Granitzstrasse,3,1984527
1519,198481,Kissingenstrasse,4,1984775
1520,198481,Kissingenplatz,5,1984774
1521,198481,Stadtbezirksgericht,6,19841540
1522,198481,U-Bhf. Pankow,7,19841708
1523,198482,Rudow Stubenrauchstrasse,0,19841325
1524,198482,Flurweg,1,1984414
1525,198482,Fuchsienweg,2,1984457
1526,198482,Arnikaweg,3,1984100
1527,198482,Lipschitzallee,4,1984938
1528,198482,Hirtsieferzeile,5,1984654
1529,198482,Fritz-Erler-Allee,6,1984451
1530,198482,U-Bhf. Johannisthaler Chaussee,7,19841677
1531,198482,Kölner Damm,8,1984838
1532,198482,Buckower Damm,9,1984266
1534,198482,Buckower Friedhof,10,1984268
1535,198482,Quarzweg,11,19841228
1536,198482,Mariendorfer Damm,12,1984979
1539,198482,Richard-Tauber-Damm,13,19841291
1540,198482,S-Bhf. Buckower Chaussee,14,19841349
1541,198482,Motzener Strasse,15,19841037
1542,198482,Gutshof Marienfeld,16,1984565
1543,198482,Marienfelder Allee,17,1984988
1545,198482,Ahrensdorfer Strasse,18,198412
1546,198482,Baußnernweg,19,1984126
1547,198482,Marienfelde Stadtrandsiedlung,20,1984985
1548,198483,Degnerstrasse,0,1984315
1549,198483,Gehrenseestrasse,1,1984479
1550,198483,Marzahner Strasse,2,19841003
1553,198483,Mischwerk,3,19841021
1555,198483,Leninallee,4,1984884
1556,198483,Allee der Kosmonauten,5,198428
1557,198483,Kröver Strasse,6,1984821
1558,198483,S-Bhf. Friedrichsfelde Ost,7,19841351
1559,198483,Straße der Befreiung,8,19841576
1560,198483,U-Bhf. Friedrichsfelde,9,19841663
1561,198483,Mellenseestrasse,10,19841012
1562,198483,U-Bhf. Tierpark,11,19841737
1563,198484,S-Bhf. Nikolassee,0,19841374
1564,198484,An der Rehwiese,1,198492
1565,198484,Krottnaurerstrasse,2,1984819
1566,198484,Breisgauer Strasse,3,1984223
1568,198484,Mexico Platz,4,19841016
1569,198484,Forststrasse,5,1984417
1570,198484,U-Bhf. Krumme Lanke,6,19841687
1571,198484,Sven-Hedin-Strasse,7,19841591
1572,198484,Hartmannsweiler Weg,8,1984594
1575,198484,Potsdamer Strasse,9,19841204
1578,198484,Teltower Damm,10,19841604
1579,198484,Rathaus Zehlendorf,11,19841254
1580,198484,Machnower Strasse,12,1984958
1581,198484,Knesebeckstrasse,13,1984790
1582,198484,Dahlemer Weg,14,1984310
1583,198484,Osteweg,15,19841122
1584,198484,Luzerner Strasse,16,1984949
1585,198484,Thuner Platz,17,19841614
1586,198484,Goerzallee,18,1984512
1587,198484,Wiesenbaude,19,19841831
1589,198484,Ostpreußendamm,20,19841125
1590,198484,Marienstrasse,21,1984991
1592,198484,Morgensternstrasse,22,19841034
1593,198484,Kranoldplatz,23,1984814
1594,198484,Lichterfelde Oberhofer Platz,24,1984909
1595,198485,S-Bhf. Marzahn,0,19841372
1596,198485,Alt-Marzahn,1,198447
1597,198485,Elisabethstrasse,2,1984361
1601,198485,Cecilienstrasse,3,1984292
1602,198485,S-Bhf. Biesdorf,4,19841346
1603,198485,Alt-Biesdorf,5,198432
1604,198485,S-Bhf. Friedrichsfelde Ost,6,19841351
1605,198485,Straße der Befreiung,7,19841576
1606,198485,Bhf. Lichtenberg,8,1984174
1607,198486,Spandau Johannesstift,0,19841510
1608,198486,Stadtpark,1,19841543
1609,198486,Hohenzollernring,2,1984666
1610,198486,Lynarstrasse,3,1984951
1611,198486,Predigergarten,4,19841209
1612,198486,Wröhmännerpark,5,19841870
1613,198486,Rathaus Spandau,6,19841249
1614,198486,Ruhlebener Strasse,7,19841331
1615,198486,Teltower Strasse,8,19841605
1616,198486,Krematorium Ruhleben,9,1984816
1617,198486,U-Bhf. Ruhleben,10,19841722
1618,198486,Reichsstrasse,11,19841271
1619,198486,Klinikum Westend,12,1984786
1620,198486,Königin-Elisabeth-Strasse,13,1984841
1621,198486,Spandauer-Damm-Brücke,14,19841520
1622,198486,Sophie-Charlotten-Strasse,15,19841507
1623,198486,Klausenerplatz,16,1984779
1624,198486,Luisenplatz,17,1984948
1625,198486,Wilmersdorfer Strasse,18,19841851
1626,198486,U-Bhf. Richard-Wagner-Platz,19,19841717
1628,198486,Leibnizstrasse,20,1984880
1629,198486,U-Bhf. Ernst-Reuter-Platz,21,19841658
1630,198486,Steinplatz,22,19841555
1631,198486,"Zoo, Hardenbergplatz",23,19841900
1632,198487,Fontanestrasse,0,1984415
1633,198487,Edelweißstrasse,1,1984343
1634,198487,Ehrenmal Schönholz,2,1984347
1635,198487,Heinrich-Mann-Strasse,3,1984620
1636,198487,Bürgerpark,4,1984283
1637,198487,U-Bhf. Pankow,5,19841708
1639,198487,Prenzlauer Promenade,6,19841218
1640,198487,"Heinersdorf, Kirche",7,1984615
1641,198487,Pasedagplatz,8,19841163
1642,198487,Klement-Gottwald-Allee,9,1984781
1643,198487,Piesporter Strasse,10,19841185
1644,198488,Jakob-Kaiser-Platz,0,1984712
1645,198488,Letterhausweg,1,1984898
1646,198488,U-Bhf. Siemensdamm,2,19841729
1647,198488,Quellweg,3,19841229
1648,198488,U-Bhf. Rohrdamm,4,19841718
1649,198488,Schaltwerk,5,19841411
1650,198488,Paulsternstrasse,6,19841168
1653,198488,Gartenfelder Strasse,7,1984469
1654,198488,Haselhorster Damm,8,1984595
1655,198488,Siedlung Haselhorst,9,19841484
1656,198488,Am Juliusturm,10,198471
1657,198488,Lagerweg,11,1984860
1658,198488,BMW-Maschinenfabrik,12,1984114
1659,198488,Zur Zitadelle,13,19841906
1660,198488,Carl-Schurz-Strasse,14,1984289
1661,198488,Wröhmännerpark,15,19841870
1662,198488,Triftstrasse,16,19841636
1664,198488,Park-/Lynarstrasse,17,19841160
1665,198488,Schäferstrasse,18,19841448
1666,198488,Hohenzollernring,19,1984666
1667,198488,Reußstrasse,20,19841284
1668,198488,Rauchstrasse,21,19841263
1669,198488,Mertensstrasse,22,19841013
1670,198488,Werderstrasse,23,19841817
1671,198488,Spandau Hakenfelde,24,19841509
1672,198489,Gehringstrasse,0,1984481
1673,198489,Rennbahnstrasse,1,19841279
1674,198489,Wigandstaler Strasse,2,19841833
1675,198489,Hamburger Platz,3,1984585
1676,198489,Prenzlauer Promenade,4,19841217
1678,198489,Greilstrasse,5,1984534
1680,198489,Greifswalder Strasse,6,1984531
1681,198489,Storkower Strasse,7,19841564
1682,198489,S-Bhf. Leninallee,8,19841365
1683,198489,Ho-Chi-Minh-Strasse,9,1984655
1684,198489,Vulkanstrasse,10,19841778
1686,198489,Herzbergstrasse,11,1984640
1687,198489,Jacques-Duclos-Strasse,12,1984709
1688,198489,S-Bhf. Storkower Strasse,13,19841393
1689,198490,U-Bhf. Ruhleben,0,19841722
1690,198490,Krematorium Ruhleben,1,1984816
1691,198490,Freiheit,2,1984433
1692,198490,Pichelswerderstrasse,3,19841184
1693,198490,Fernbahnhof Spandau,4,1984399
1694,198490,"Spandau, Markt",5,19841514
1695,198490,Wröhmännerpark,6,19841870
1696,198490,Triftstrasse,7,19841636
1698,198490,Lynar-/Parkstrasse,8,1984950
1699,198490,Schäferstrasse,9,19841448
1700,198490,Hohenzollernring,10,1984666
1701,198490,Reußstrasse,11,19841284
1702,198490,Rauchstrasse,12,19841263
1703,198490,Mertensstrasse,13,19841013
1704,198490,Spandau Hakenfelde,14,19841509
1705,198491,Gehringstrasse,0,1984481
1706,198491,Wigandstaler Strasse,1,19841833
1707,198491,Hamburger Platz,2,1984585
1708,198491,Prenzlauer Promenade,3,19841217
1710,198491,Greilstrasse,4,1984534
1712,198491,Greifswalder Strasse,5,1984531
1713,198491,Storkower Strasse,6,19841564
1714,198491,S-Bhf. Leninallee,7,19841365
1715,198491,S-Bhf. Storkower Strasse,8,19841393
1716,198492,Michelangelostrasse,0,19841018
1717,198492,Stedinger Weg,1,19841550
1718,198492,Storkower Strasse,2,19841564
1719,198492,Conrad-Blenke-Strasse,3,1984300
1720,198492,Dimitroffstrasse,4,1984322
1721,198492,Hufelandstrasse,5,1984677
1722,198492,Bötzowstrasse,6,1984280
1723,198492,Am Friedrichshain,7,198468
1724,198492,Mollstrasse,8,19841027
1725,198492,Karl-Liebknecht-Strasse,9,1984750
1726,198492,Bhf. Alexanderplatz,10,1984166
1727,198492,Palasthotel,11,19841139
1728,198492,Universitätsstrasse,12,19841759
1729,198492,Bhf. Friedrichstrasse,13,1984170
1730,198492,Oranienburger Tor,14,19841107
1731,198492,Schlegelstrasse,15,19841422
1732,198492,Invalidenstrasse,16,1984706
1733,198492,Platz vor dem Neuen Tor,17,19841195
1734,198492,Orthopädische Klinik,18,19841113
1735,198492,Scharnhorststrasse,19,19841414
1736,198493,Rudower Ring (U-Bhf. Zwickauer Damm),0,19841327
1737,198493,Zittauer Strasse,1,19841898
1738,198493,U-Bhf. Zwickauer Damm,2,19841748
1739,198493,Neuköllner Strasse,3,19841073
1740,198493,Seidelbastweg/Stubenrauchstrasse,4,19841472
1742,198493,Köpenicker Strasse,5,1984851
1745,198493,Alt-Rudow,6,198453
1746,198493,U-Bhf. Rudow,7,19841721
1747,198493,Lockenhuhnweg,8,1984940
1748,198493,Geflügelsteig,9,1984478
1749,198493,Rhodeländerweg,10,19841289
1750,198493,Groß-Ziethener-Chaussee,11,1984544
1751,198493,U-Bhf. Rudow,12,19841721
1752,198493,Alt-Rudow,13,198453
1754,198493,Köpenicker Strasse,14,1984851
1757,198493,Seidelbastweg/Stubenrauchstr,15,19841471
1758,198493,Neuköllner Strasse,16,19841073
1759,198493,U-Bhf. Zwickauer Damm,17,19841748
1760,198493,Zittauer Strasse,18,19841898
1761,198493,Rudower Ring (U-Bhf. Zwickauer Damm),19,19841327
1762,198494,Stadion der Weltjugend,0,19841537
1763,198494,Invalidenstrasse,1,1984706
1764,198494,Oranienburger Tor,2,19841107
1765,198494,Bhf. Friedrichstrasse,3,1984170
1766,198494,U-Bhf. Stadtmitte,4,19841731
1767,198494,Leipziger Strasse,5,1984882
1768,198494,Otto-Grotewohl-Strasse,6,19841130
1771,198495,S-Bhf. Wannsee,0,19841396
1772,198495,Königstrasse,1,1984846
1773,198495,Am Großen Wannsee,2,198470
1774,198495,Endestrasse,3,1984371
1775,198495,Pfaueninselchaussee,4,19841176
1776,198495,Pfaueninsel,5,19841175
1777,198495,Rathaus Wannsee,6,19841253
1778,198495,Friedenstrasse,7,1984437
1779,198495,Schäferberg,8,19841447
1780,198495,Nikolskoer Weg,9,19841076
1781,198495,Schloß Glienicke,10,19841429
1782,198495,Glienicker Brücke,11,1984504
1783,198496,S-Bhf. Kaulsdorf,0,19841362
1784,198496,Briesener Weg,1,1984237
1785,198496,Wernerbad,2,19841820
1786,198496,Grottkauer Strasse,3,1984542
1787,198496,Uckermarkstrasse,4,19841752
1788,198496,S-Bhf. Kaulsdorf,5,19841362
1789,198497,Wittenbergplatz,0,19841860
1790,198497,Breitscheidplatz,1,1984232
1791,198497,Kantstrasse,2,1984744
1793,198497,Uhlandstrasse,3,19841753
1796,198497,Kürfürstendamm/U.Bhf. Uhlandstrasse,4,1984857
1797,198497,Lietzenburger Strasse,5,1984919
1798,198497,Ludwigkirchstrasse,6,1984945
1799,198497,U-Bhf. Hohenzollernplatz,7,19841673
1800,198497,Güntzelstrasse,8,1984571
1801,198497,U-Bhf. Blissestrasse,9,19841651
1802,198497,Blissestrasse,10,1984206
1803,198497,U-Bhf. Heidelberger Platz,11,19841672
1804,198497,Binger Strasse,12,1984185
1805,198497,Rudolf-Mosse-Platz,13,19841321
1806,198497,Cunostrasse,14,1984303
1808,198497,Berkaer Strasse,15,1984142
1809,198497,Rathaus Schmargendorf,16,19841246
1810,198497,Elsterplatz,17,1984365
1811,198497,Roseneck,18,19841312
1812,198497,Königen-Luise-Strasse,19,1984839
1813,198497,Hüttenweg,20,1984690
1814,198497,U-Bhf. Oskar-Helene-Heim,21,19841706
1815,198498,"Schöneiche, Dorfaue",0,19841452
1816,198498,Dr.-Wilhelm-Külz-Strasse,1,1984333
1817,198498,S-Bhf. Rahnsdorf,2,19841386
1818,198498,Waldschänke,3,19841785
1819,198498,Zentralschule,4,19841885
1820,198498,S-Bhf. Wilhelmshagen,5,19841398
1821,198498,Fahlenbergstrasse,6,1984380
1822,198498,Hessenwinkel,7,1984643
1823,198499,U-Bhf./S-Bhf. Gesundbrunnen,0,19841749
1824,198499,U-Bhf. Pankstrasse,1,19841710
1825,198499,Exerzierstrasse,2,1984379
1826,198499,U-Bhf. Osloer Strasse,3,19841707
1827,198499,Koloniestrasse,4,1984797
1828,198499,Prinzenallee,5,19841222
1829,198499,Soldiner Strasse,6,19841496
1830,198499,Kühnemannstrasse,7,1984855
1833,198499,Pankower Allee,8,19841150
1834,198499,Reginhardstrasse,9,19841268
1836,198499,Residenzstrasse,10,19841281
1839,198499,Emmentaler Strasse,11,1984368
1841,198499,Lindauer Allee,12,1984922
1844,198499,Flottenstrasse,13,1984408
1846,198499,Paracelsus-Bad,14,19841156
1847,198499,Gemeindefriedhof,15,1984485
1849,198499,Ollenhauerstrasse,16,19841098
1851,198499,U-Bhf. Kurt-Schumacher-Platz,17,19841690
1852,198499,Uranusweg,18,19841760
1853,198499,Antonienstrasse,19,198496
1854,198499,Quäckerstrasse,20,19841231
1855,198499,Otisstrasse Ecke Wittestrasse,21,19841127
1856,1984100,VEB Kombinat Auto Trans,0,19841766
1857,1984100,Bhf. Schöneweide,1,1984179
1858,1984100,Hoevelstrasse,2,1984660
1859,1984100,Springbornstrasse,3,19841530
1860,1984101,Wilhelmsruher Damm Märkisches Viertel,0,19841846
1861,1984101,Treuenbrietzener Strasse,1,19841635
1862,1984101,Gemeindezentrum,2,1984487
1863,1984101,Oranienburger Strasse,3,19841105
1866,1984101,Roedernallee,4,19841303
1867,1984101,Alt-Wittenau,5,198459
1869,1984101,Karl-Bonhoeffer-Nervenklinik,6,1984747
1872,1984101,Lindauer Allee,7,1984924
1873,1984101,Auguste-Viktoria-Allee,8,1984111
1874,1984101,U-Bhf. Kurt-Schumacher-Platz,9,19841690
1875,1984101,Kaserne Napoleon,10,1984760
1876,1984101,Kaserne Südtor,11,1984761
1877,1984101,Saatwinkler Damm,12,19841400
1878,1984101,U-Bhf. Jakob-Kaiser-Platz,13,19841676
1879,1984101,Jakob-Kaiser-Platz,14,1984712
1880,1984101,Olbersstrasse/DRK-Krankenhaus,15,19841095
1881,1984101,Landgericht,16,1984862
1882,1984101,Schloßbrücke,17,19841430
1883,1984101,Luisenplatz,18,1984948
1884,1984101,Wilmersdorfer Strasse,19,19841851
1885,1984101,u-Bhf. Richard-Wagner-Platz,20,19841911
1887,1984101,Leibnizstrasse,21,1984880
1888,1984101,U-Bhf. Ernst-Reuter-Platz,22,19841658
1889,1984101,Steinplatz,23,19841555
1890,1984101,"Zoo, Hardenbergplatz",24,19841900
1891,1984102,Spandau Waldkrankenhaus,0,19841512
1892,1984102,Pflegeheim,1,19841177
1893,1984102,Kolonie Waldfrieden,2,1984796
1894,1984102,Bötzow-Bahn,3,1984279
1895,1984102,Gliensteig,4,1984507
1896,1984102,Schwanter Weg,5,19841444
1897,1984102,Kisselnallee,6,1984773
1898,1984102,Pionierstrasse,7,19841188
1899,1984102,Falkenseer Chaussee,8,1984388
1900,1984102,Zweibrücker Strasse,9,19841907
1901,1984102,Askanierring,10,1984105
1902,1984102,Flankenschanze,11,1984407
1903,1984102,Falkenseer Damm,12,1984390
1904,1984102,Rathaus Spandau,13,19841249
1905,1984102,Galenstrasse,14,1984463
1906,1984102,Staakener Strasse,15,19841534
1907,1984102,Petzoldweg,16,19841174
1908,1984102,Zeppelinstrasse,17,19841889
1910,1984102,Schulzenstrasse,18,19841442
1911,1984102,Viersener Strasse,19,19841772
1912,1984102,Spandau Seegefelder Weg,20,19841511
1913,1984102,Torweg,21,19841631
1914,1984102,Staaken Heidebergplan,22,19841533
1915,1984103,Gehrenseestrasse,0,1984480
1916,1984103,Berliner Strasse,1,1984148
1917,1984103,Oberseestrasse,2,19841090
1919,1984103,Ho-Chi-Minh-Strasse,3,1984657
1920,1984103,S-Bhf. Leninallee,4,19841366
1921,1984103,Dimitroffstrasse,5,1984323
1924,1984103,Mollstrasse,6,19841028
1925,1984103,Hans-Beimler-Strasse,7,1984588
1926,1984103,Prenzlauer Allee,8,19841213
1929,1984103,U-Bhf. Rosa-Luxemburg-Platz,9,19841720
1930,1984103,Hackescher Markt,10,1984577
1931,1984103,Oranienburger Tor,11,19841108
1932,1984103,Stadion der Weltjugend,12,19841538
1933,1984104,Krüllsstrasse,0,1984822
1934,1984104,S-Bhf. Treptower Park,1,19841395
1935,1984104,"Treptow, Rathaus",2,19841633
1936,1984104,S-Bhf. Treptower Park,3,19841395
1937,1984104,Karl-Kunger-Strasse,4,1984749
1938,1984105,Senftenberger Ring Märkisches Zentrum,0,19841477
1939,1984105,Calauer Strasse,1,1984287
1940,1984105,Eichhorster Weg,2,1984353
1942,1984105,Wilhelmsruher Damm,3,19841845
1943,1984105,Dannenwalder Weg,4,1984312
1944,1984105,Roedernallee,5,19841302
1947,1984105,Tessenowstrasse,6,19841610
1949,1984105,Flottenstrasse,7,1984409
1950,1984105,Paracelsus-Bad,8,19841156
1951,1984105,Humboldt-Krankenhaus,9,1984680
1953,1984105,Gotthardstrasse,10,1984521
1955,1984105,Holländerstrasse,11,1984668
1956,1984105,U-Bhf. Afrikanische Strasse,12,19841644
1958,1984105,Seestrasse,13,19841468
1959,1984105,U-Bhf. Amrumer Strasse,14,19841647
1960,1984105,U-Bhf. Leopoldplatz,15,19841692
1961,1984105,U-Bhf. Nauener Platz,16,19841700
1962,1984105,U-Bhf. Pankstrasse,17,19841710
1963,1984105,U-Bhf./S-Bhf. Gesundbrunnen,18,19841749
1964,1984105,Bernauer Strasse Ecke Wollinger Strasse,19,1984154
1965,1984106,Krüllsstrasse,0,1984822
1966,1984106,S-Bhf. Treptower Park,1,19841395
1967,1984106,S-Bhf. Plänterwald,2,19841383
1968,1984106,Baumschulenstrasse,3,1984124
1969,1984106,Bhf. Schöneweide,4,1984179
1971,1984106,Rudower Strasse,5,19841329
1972,1984106,S-Bhf. Oberspree,6,19841376
1973,1984106,Oberspree,7,19841091
1974,1984107,Wedding Seestrasse Ecke Müllerstrasse,0,19841804
1975,1984107,Togostrasse,1,19841628
1976,1984107,Afrikanische Strasse,2,198410
1978,1984107,Beusselstrasse,3,1984165
1979,1984107,Paul-Hertz-Siedlung,4,19841166
1980,1984107,Jakob-Kaiser-Platz,5,1984712
1981,1984107,Spandauer Damm,6,19841517
1983,1984107,ICC/Omnibusbahnhof,7,1984693
1984,1984107,Rathenauplatz,8,19841256
1985,1984107,Hohenzollerndamm,9,1984664
1986,1984107,Mecklenburgische Strasse,10,19841009
1987,1984107,Bundesallee,11,1984272
1988,1984107,Innsbrucker Platz,12,1984703
1989,1984107,Dominicusstrasse,13,1984329
1990,1984107,Sportzentrum Schöneberg,14,19841528
1991,1984107,S-Bhf. Papestrasse,15,19841382
1993,1984107,Alboinstrasse,16,198419
1994,1984107,Berlinickeplatz,17,1984150
1995,1984107,U-Bhf. Alt-Tempelhof,18,19841646
1997,1984107,Hermannstrasse,19,1984632
1998,1984107,Bendastrasse,20,1984134
1999,1984107,U-Bhf. Neukölln,21,19841702
2001,1984107,Sonnenallee,22,19841501
2005,1984107,Grenzallee,23,1984537
2006,1984107,Sonnenalle Ecke Peter-Anders-Strasse,24,19841499
2007,1984108,Krüllsstrasse,0,1984822
2008,1984108,S-Bhf. Treptower Park,1,19841395
2009,1984108,S-Bhf. Plänterwald,2,19841383
2010,1984108,Baumschulenstrasse,3,1984124
2011,1984108,Bhf. Schöneweide,4,1984179
2012,1984108,Sterndamm,5,19841559
2013,1984108,Lindhorstweg,6,1984937
2014,1984108,Springbornstrasse,7,19841530
2015,1984109,S-Bhf. Treptower Park,0,19841395
2016,1984109,S-Bhf. Plänterwald,1,19841383
2017,1984109,Hänselstrasse,2,1984686
2018,1984109,Krematorium,3,1984815
2019,1984109,Bhf. Schöneweide,4,1984179
2020,1984109,VEB Kombinat Auto Trans,5,19841766
2021,1984110,Kaulsdorfer Strasse,0,1984767
2022,1984110,S-Bhf. Köpenick,1,19841363
2023,1984110,Lindenstrasse,2,1984933
2025,1984110,Müggelheimer Strasse,3,19841046
2026,1984110,"Krankenhaus, Köpenick",4,1984813
2027,1984110,Müggelschlößchenweg,5,19841047
2028,1984111,Dahlem Clayallee Ecke Königin-Luise-Strasse,0,1984307
2029,1984111,Thielallee/Pacelliallee,1,19841612
2030,1984111,U-Bhf. Dahlem-Dorf,2,19841656
2031,1984111,Museum Dahlem,3,19841040
2032,1984111,Botanischer Garten,4,1984220
2033,1984111,Lepsiusstrasse,5,1984893
2035,1984111,U-Bhf. Rathaus Steglitz,6,19841715
2036,1984111,Breite Strasse,7,1984225
2038,1984111,Südendstrasse,8,19841595
2039,1984111,Bergstrasse,9,1984139
2041,1984111,Bismarckstrasse,10,1984191
2046,1984111,Insulaner/Sternwarte,11,1984705
2047,1984111,S-Bhf. Priesterweg,12,19841385
2048,1984111,Röblingstrasse/Arnulfstrasse,13,19841336
2049,1984111,Alboinstrasse,14,198418
2051,1984111,Attilaplatz,15,1984108
2052,1984111,Friedrich-Karl-Strasse,16,1984440
2055,1984111,Albrechtstrasse,17,198422
2056,1984111,U-Bhf. Kaiserin-Augusta-Strasse,18,19841680
2057,1984111,Rathaus Tempelhof,19,19841251
2058,1984111,U-Bhf. Alt-Tempelhof,20,19841646
2059,1984111,U-Bhf. Tempelhof,21,19841734
2060,1984112,Kaulsdorfer Strasse,0,1984767
2061,1984112,S-Bhf. Köpenick,1,19841363
2062,1984112,Friedrichshagener Strasse,2,1984446
2063,1984112,Wendenschloßstrasse,3,19841815
2064,1984112,"Krankenhaus, Köpenick",4,1984813
2065,1984112,Müggelschlößchenweg,5,19841047
2066,1984113,Eichkamp Dauerwaldweg,0,1984354
2067,1984113,Waldschulallee,1,19841784
2068,1984113,Jafféstrasse/Deutschlandhalle,2,1984711
2069,1984113,ICC/Ausstellungshallen,3,1984692
2070,1984113,Rathenauplatz,4,19841256
2071,1984113,Henriettenplatz,5,1984626
2073,1984113,Joachim-Friedrich-Strasse,6,1984717
2075,1984113,Lehniner Platz,7,1984874
2076,1984113,U-Bhf. Adenauerplatz,8,19841643
2077,1984113,Olivaer Platz,9,19841096
2078,1984113,Sächsische Strasse,10,19841592
2081,1984113,Uhlandstrasse,11,19841755
2082,1984113,Joachimstaler Strasse,12,1984719
2083,1984113,U-Bhf. Kurfürstendamm,13,19841688
2084,1984113,Kantstrasse,14,1984744
2086,1984113,Breitscheidplatz,15,1984232
2087,1984113,Bayreuther Strasse,16,1984129
2088,1984113,Lützowplatz,17,1984956
2089,1984113,Tiergartenstrasse,18,19841621
2090,1984113,Großer Stern,19,1984550
2091,1984113,Entlastungsstrasse,20,1984372
2092,1984113,Reichstag,21,19841272
2093,1984114,"Glienicke, Leninstrasse",0,1984503
2094,1984114,Gerhard-Weiß-Platz,1,1984493
2095,1984114,Breitscheidstrasse,2,1984234
2096,1984114,Ernst-Thälmann-Strasse,3,1984377
2097,1984114,Lessingstrasse,4,1984897
2098,1984114,Johannes-Diekmann-Strasse,5,1984721
2099,1984114,Glienicker Strasse,6,1984505
2100,1984114,Bhf. Schildow,7,1984178
2101,1984114,Blankenfelde,8,1984201
2102,1984114,Nordend-Arena,9,19841081
2103,1984114,Nordend,10,19841079
2104,1984114,Kurt-Fischer-Strasse,11,1984834
2105,1984114,Bürgerpark,12,1984283
2106,1984114,"Pankow, Kirche",13,19841143
2107,1984114,S-Bhf. Pankow,14,19841379
2108,1984114,U-Bhf. Pankow,15,19841708
2109,1984115,U-Bhf. Alt-Mariendorf,0,19841645
2110,1984115,Körtingstrasse,1,1984854
2111,1984115,Rennbahn Mariendorf,2,19841278
2112,1984115,Pilatusweg,3,19841186
2113,1984115,Titlisweg,4,19841626
2114,1984115,Säntisstrasse,5,19841593
2115,1984115,Richard-Tauber-Damm,6,19841291
2116,1984115,Schwechtenstrasse,7,19841446
2117,1984115,S-Bhf. Buckower Chaussee,8,19841349
2118,1984115,Nahmitzer Damm,9,19841056
2119,1984115,Nunsdorfer Ring/Nord,10,19841084
2120,1984115,Nunsdorfer Ring/Süd,11,19841085
2121,1984115,Sperenberger Strasse,12,19841524
2122,1984115,Schichauweg,13,19841418
2124,1984115,Blohmstrasse,14,1984208
2125,1984115,Egestorffstrasse,15,1984346
2126,1984115,Illigstrasse,16,1984696
2127,1984115,Cecilienstrasse,17,1984290
2130,1984115,Wünsdorfer Strasse,18,19841874
2131,1984115,"Lichtenrade, Blohmstrasse Ecke Wünsdorfer Strasse",19,1984905
2132,1984116,Wollankstrasse Ecke Kattegatstrasse,0,19841865
2133,1984116,Elisabeth-Friedhof,1,1984360
2134,1984116,Soldiner Strasse,2,19841496
2135,1984116,Osloer Strasse,3,19841117
2136,1984116,U-Bhf. Pankstrasse,4,19841710
2137,1984116,Brunnenplatz,5,1984247
2138,1984116,Wiesenstrasse,6,19841832
2139,1984116,Nettelbeckplatz,7,19841062
2140,1984116,Müllerstrasse,8,19841054
2141,1984116,Am Nordhafen,9,198475
2142,1984116,Lehrter Strasse,10,1984878
2143,1984116,Stephanstrasse,11,19841558
2147,1984116,Rathenower Strasse,12,19841261
2149,1984116,Birkenstrasse,13,1984188
2150,1984116,Turmstrasse,14,19841640
2151,1984116,Wilsnacker Strasse,15,19841853
2152,1984116,Krankenhaus Moabit,16,1984811
2153,1984116,U-Bhf. Turmstrasse,17,19841739
2154,1984116,Rathaus Tiergarten,18,19841252
2155,1984116,Ottostrasse,19,19841137
2156,1984116,Waldstrasse/Beusselstrasse,20,19841787
2157,1984116,Berlichingenstrasse,21,1984144
2158,1984116,Moabit Wiebestrasse,22,19841022
2159,1984117,Gehrenseestrasse,0,1984480
2160,1984117,Suermondtstrasse,1,19841587
2161,1984117,Am Faulen See,2,198467
2162,1984117,Stadion Buschallee,3,19841535
2163,1984117,Kniprodeallee,4,1984791
2164,1984117,Sulzfelder Strasse,5,19841588
2166,1984117,Klement-Gottwald-Allee,6,1984783
2167,1984117,Antonplatz,7,198497
2168,1984117,Wisbyer Strasse,8,19841856
2169,1984117,Humannplatz,9,1984679
2170,1984117,U-Bhf. Dimitroffstrasse,10,19841657
2171,1984117,Zionskirchplatz,11,19841896
2172,1984117,Brunnenstrasse,12,1984250
2173,1984117,"Invalidenstrasse, Post",13,1984707
2174,1984117,Oranienburger Tor,14,19841108
2175,1984117,Bhf. Friedrichstrasse,15,1984171
2176,1984117,Am Kupfergraben,16,198473
2177,1984118,Heinersdorf,0,1984614
2178,1984118,"Heinersdorf, Kirche",1,1984616
2179,1984118,Am Steinberg,2,198480
2180,1984118,Wisbyer Strasse,3,19841856
2181,1984118,S-Bhf. Prenzlauer Allee,4,19841384
2184,1984118,Dimitroffstrasse,5,1984325
2185,1984118,Wilhelm-Pieck-Strasse,6,19841836
2186,1984118,U-Bhf. Rosa-Luxemburg-Platz,7,19841720
2187,1984118,Hackescher Markt,8,1984577
2188,1984118,Oranienburger Tor,9,19841108
2189,1984118,Am Kupfergraben,10,198473
2190,1984119,Wilhelmsruh Kopenhagener Strasse,0,19841842
2192,1984119,Lindauer Allee,1,1984923
2195,1984119,Emmentaler Strasse,2,1984368
2199,1984119,Pankower Allee,3,19841150
2200,1984119,Louise-Schroeder-Platz,4,1984942
2201,1984119,U-Bhf. Nauener Platz,5,19841700
2202,1984119,Nettelbeckplatz,6,19841062
2203,1984119,Müllerstrasse,7,19841054
2204,1984119,Lehrter Strasse,8,1984878
2208,1984119,Rathenower Strasse,9,19841261
2210,1984119,U-Bhf. Turmstrasse,10,19841739
2211,1984119,Rathaus Tiergarten,11,19841252
2212,1984119,Waldstrasse/Beusselstrasse,12,19841787
2213,1984119,Wiebestrasse,13,19841828
2215,1984119,Kaiserin-Augusta-Allee,14,1984739
2216,1984119,U-Bhf. Mierendorffplatz,15,19841697
2217,1984119,Landgericht,16,1984862
2218,1984119,Olbersstrasse/DRK-Krankenhaus,17,19841095
2219,1984119,Jakob-Kaiser-Platz,18,1984712
2220,1984119,Letterhausweg,19,1984898
2221,1984119,U-Bhf. Siemensdamm,20,19841729
2222,1984119,U-Bhf. Rohrdamm,21,19841718
2223,1984119,Paulsternstrasse,22,19841168
2226,1984119,Gartenfelder Strasse,23,1984469
2227,1984119,Gartenfeld,24,1984467
2228,1984120,Pasedagplatz,0,19841164
2229,1984120,Bernkasteler Strasse,1,1984158
2230,1984120,Lichtenberger Strasse,2,1984901
2231,1984120,Antonplatz,3,198497
2232,1984120,Wisbyer Strasse,4,19841856
2233,1984120,S-Bhf. Prenzlauer Allee,5,19841384
2236,1984120,Dimitroffstrasse,6,1984325
2237,1984120,Wilhelm-Pieck-Strasse,7,19841836
2238,1984120,U-Bhf. Rosa-Luxemburg-Platz,8,19841720
2239,1984120,Hackescher Markt,9,1984577
2240,1984120,Oranienburger Tor,10,19841108
2241,1984121,Zoo Hardenbergplatz,0,19841899
2242,1984121,U-Bhf. Kurfürstendamm,1,19841688
2243,1984121,Breitscheidplatz,2,1984232
2244,1984121,U-Bhf. Wittenbergplatz,3,19841747
2245,1984121,Martin-Luther-Strasse/An der Urania,4,1984997
2246,1984121,Motzstrasse,5,19841038
2247,1984121,Hohenstaufenstrasse,6,1984663
2248,1984121,Grunewaldstrasse,7,1984554
2249,1984121,Rathaus Schöneberg,8,19841247
2250,1984121,Hauptstrasse,9,1984597
2251,1984121,Sportzentrum Schöneberg,10,19841528
2252,1984121,Gotenstrasse,11,1984519
2253,1984121,S-Bhf. Papestrasse,12,19841382
2255,1984121,Alboinstrasse,13,198419
2256,1984121,Berlinickeplatz,14,1984150
2257,1984121,U-Bhf. Alt-Tempelhof,15,19841646
2258,1984121,Oberlandstrasse,16,19841089
2259,1984121,Teilestrasse,17,19841603
2260,1984121,Gottlieb-Dunkel-Strasse,18,1984522
2261,1984121,Karl-Elsasser-Strasse,19,1984748
2262,1984121,Gradestrasse,20,1984525
2265,1984121,Britzer Damm,21,1984243
2266,1984121,U-Bhf. Blaschkoallee,22,19841649
2267,1984121,"Britz, Buschkrug",23,1984238
2268,1984122,Charlottenburg Königin-Elisabeth-Strasse,0,1984294
2270,1984122,Spandauer Damm,1,19841518
2271,1984122,Spandauer-Damm-Brücke,2,19841520
2272,1984122,Sophie-Charlotten-Strasse,3,19841507
2273,1984122,Schloßstrasse,4,19841432
2274,1984122,U-Bhf. Sophie-Charlotte-Platz,5,19841730
2275,1984122,Neue Kantstrasse/Amtsgericht,6,19841067
2276,1984122,Kaiser-Friedrich-Strasse,7,1984734
2277,1984122,U-Bhf. Wilmersdorfer Strasse,8,19841746
2278,1984122,U-Bhf. Adenauer Platz,9,19841642
2279,1984122,Ravensberger Strasse,10,19841264
2280,1984122,U-Bhf. Konstanzer Strasse,11,19841684
2281,1984122,U-Bhf. Fehrbelliner Strasse,12,19841660
2282,1984122,U-Bhf. Blisse Strasse,13,19841650
2283,1984122,U-Bhf. Berliner Strasse,14,19841648
2284,1984122,Kufsteiner Strasse,15,1984824
2285,1984122,Rathaus Schöneberg,16,19841247
2286,1984122,Hauptstrasse,17,1984597
2287,1984122,Sportzentrum Schöneberg,18,19841528
2288,1984122,S-Bhf. Papestrasse,19,19841382
2290,1984122,Alboinstrasse,20,198419
2291,1984122,Eresburgstrasse,21,1984373
2292,1984122,Alboinplatz,22,198417
2293,1984122,Lindenhof,23,1984930
2295,1984123,Steglitzer Damm Ecke Munsterdamm,0,19841553
2296,1984123,Steglitzer Damm,1,19841552
2298,1984123,Bismarckstrasse,2,1984192
2302,1984123,Bergstrasse,3,1984139
2304,1984123,Feuerbachstrasse,4,1984400
2305,1984123,Kaisereiche,5,1984737
2306,1984123,Rathaus Friedenau,6,19841241
2307,1984123,U-Bhf. Innsbrucker Platz,7,19841675
2308,1984123,Dominicusstrasse,8,1984329
2309,1984123,Kaiser-Wilhelm-Platz,9,1984735
2310,1984123,U-Bhf. Kleistpark,10,19841682
2312,1984123,Goebenstrasse,11,1984511
2313,1984123,Bülowstrasse,12,1984282
2314,1984123,U-Bhf. Kurfürstenstrasse,13,19841689
2315,1984123,Lützowstrasse,14,1984957
2316,1984123,Kulturforum,15,1984825
2317,1984123,Anhalter Bhf.,16,198493
2318,1984123,U-Bhf. Kochstrasse/Friedrichstrasse,17,19841683
2320,1984123,Lindenstrasse,18,1984934
2321,1984123,U-Bhf. Moritzplatz,19,19841698
2322,1984123,Adalbertstrasse,20,19841
2323,1984123,U-Bhf. Görlitzer Bhf.,21,19841667
2324,1984123,Spreewaldplatz,22,19841529
2328,1984123,Sonnenallee,23,19841503
2330,1984123,Hermannplatz,24,1984629
2331,1984124,U-Bhf. Walther-Schreiber-Platz,0,19841744
2332,1984124,Alsen-/Fregestrasse,1,198430
2335,1984124,Bismarckstrasse,2,1984193
2338,1984124,Rubensstrasse/Krankenhaus,3,19841320
2339,1984124,Bergstrasse/Sternwarte,4,1984141
2340,1984124,Priesterweg,5,19841220
2342,1984124,Röblingstrasse,6,19841335
2343,1984124,Attilastrasse,7,1984109
2344,1984124,Kaiserstrasse,8,1984741
2345,1984124,Großbeerenstrasse,9,1984546
2350,1984124,Mariendorfer Damm,10,1984981
2351,1984124,U-Bhf. Alt-Mariendorf,11,19841645
2352,1984124,Körtingstrasse,12,1984854
2353,1984124,Rennbahn Mariendorf,13,19841278
2354,1984124,Pilatusweg,14,19841186
2355,1984124,Titlisweg,15,19841626
2356,1984124,Säntisstrasse/Tauernallee,16,19841594
2357,1984124,Buckower Chaussee,17,1984264
2358,1984124,Goethestrasse,18,1984514
2359,1984124,Grimmstrasse,19,1984540
2360,1984124,Barnetstrasse,20,1984122
2362,1984124,Goltzstrasse,21,1984517
2363,1984124,S-Bhf. Lichtenrade,22,19841367
2364,1984124,Lichtenrade Blohmstrasse Ecke Wünsdorfer Strasse,23,1984903
2365,1984125,Neukölln Britzer Allee,0,19841071
2366,1984125,Bergiusstrasse,1,1984138
2367,1984125,Naumburger Strasse,2,19841060
2368,1984125,U-Bhf. Grenzallee,3,19841666
2369,1984125,U-Bhf. Neukölln/Karl-Marx-Strasse,4,19841703
2370,1984125,Bendastrasse,5,1984134
2371,1984125,Hermannstrasse,6,1984631
2373,1984125,Tempelhofer Weg,7,19841607
2374,1984125,Industriestrasse,8,1984702
2375,1984125,Eisenacher Strasse,9,1984356
2377,1984125,Imbrosweg,10,1984700
2378,1984125,Alt-Mariendorf,11,198444
2379,1984125,U-Bhf. Alt-Mariendorf,12,19841645
2380,1984125,Großbeerenstrasse,13,1984546
2383,1984125,Körtingstrasse,14,1984854
2384,1984125,Wilhelm-von-Siemens-Strasse,15,19841837
2385,1984125,Daimlerstrasse,16,1984311
2386,1984125,S-Bhf. Marienfelde,17,19841371
2387,1984125,Marienfelde Daimlerstrasse,18,1984984
2388,1984126,Arkonaplatz,0,198499
2389,1984126,Invalidenstrasse,1,1984706
2390,1984126,Rosenthaler Platz,2,19841314
2391,1984126,Alexanderplatz,3,198423
2392,1984126,S-Bhf. Jannowitzbrücke,4,19841360
2393,1984126,Adalbertstrasse,5,19841
2394,1984126,U-Bhf. Märkisches Museum,6,19841699
2395,1984126,Oberwallstrasse,7,19841093
2396,1984126,Bhf. Friedrichstrasse,8,1984170
2397,1984126,Schumannstrasse,9,19841443
2398,1984127,U-Bhf. Alt-Mariendorf,0,19841645
2399,1984127,Körtingstrasse,1,1984854
2400,1984127,Rennbahn Mariendorf,2,19841278
2401,1984127,Pilatusweg,3,19841186
2402,1984127,Titlisweg,4,19841626
2403,1984127,Säntisstrasse,5,19841593
2404,1984127,Göllweg,6,1984567
2405,1984127,Sandsteinweg,7,19841406
2406,1984127,Buckower Chaussee,8,1984264
2407,1984127,Raabestrasse,9,19841233
2408,1984127,Goethestrasse,10,1984514
2409,1984127,Grimmstrasse,11,1984540
2410,1984127,Groß-Ziethener-Strasse,12,1984545
2411,1984127,Alt-Lichtenrade,13,198442
2412,1984127,Taunusstrasse,14,19841598
2413,1984127,Lichtenrade Nahariyastrasse,15,1984904
2414,1984128,Arkonaplatz,0,198499
2415,1984128,Brunnenstrasse,1,1984248
2417,1984128,Invalidenstrasse,2,1984706
2418,1984128,Rosenthaler Platz,3,19841314
2419,1984128,Alexanderplatz,4,198423
2420,1984128,S-Bhf. Jannowitzbrücke,5,19841360
2421,1984128,Heinrich-Heine-Strasse,6,1984618
2422,1984128,Annenstrasse,7,198495
2423,1984128,Melchiorstrasse,8,19841011
2424,1984128,Adalbertstrasse,9,19841
2425,1984129,Alexanderstrasse,0,198426
2426,1984129,S-Bhf. Jannowitzbrücke,1,19841360
2427,1984129,U-Bhf. Märkisches Museum,2,19841699
2428,1984129,Französische Strasse,3,1984429
2430,1984129,Otto-Grotewohl-Strasse,4,19841131
2432,1984130,Marienfelde Waldsassener Strasse,0,1984986
2433,1984130,Lichterfelder Ring,1,1984915
2434,1984130,Hildburghauser Strasse,2,1984645
2436,1984130,Marienfelder Allee,3,1984988
2438,1984130,Alt-Marienfelde,4,198446
2439,1984130,Stegerwaldstrasse,5,19841551
2440,1984130,Hranitzkystrasse,6,1984676
2441,1984130,Daimlerstrasse,7,1984311
2442,1984130,Alt-Mariendorf,8,198444
2444,1984130,Mariendorfer Damm,9,1984980
2446,1984130,U-Bhf. Alt-Mariendorf,10,19841645
2447,1984130,Körtingstrasse,11,1984854
2448,1984130,Rennbahn Mariendorf,12,19841278
2449,1984130,Tauernallee,13,19841597
2450,1984130,Grünsteinweg,14,1984561
2451,1984130,Marienfelder Chaussee,15,1984990
2452,1984130,Rathenower Strasse,16,19841258
2457,1984130,Potsdamer Strasse,17,19841202
2462,1984130,Alt-Lichtenrade,18,198442
2463,1984130,Groß-Ziethener-Strasse,19,1984545
2464,1984130,Lichtenrader Damm,20,1984906
2465,1984130,Steinstrasse,21,19841556
2466,1984130,Rhinstrasse,22,19841286
2467,1984130,John-Locke-Strasse,23,1984725
2468,1984130,S-Bhf. Lichtenrade,24,19841367
2469,1984131,Mahlsdorfer Allee,0,1984966
2470,1984131,Summter Strasse,1,19841589
2471,1984131,Hultschiner Damm,2,1984678
2472,1984131,Jägerstrasse,3,1984731
2475,1984131,Köpenicker Strasse,4,1984852
2477,1984131,Elsterwerdaer Platz,5,1984366
2478,1984131,Oberfeldstrasse,6,19841087
2479,1984131,Werner-Lamberz-Strasse,7,19841818
2480,1984131,Bhf. Friedrichsfelde,8,1984169
2481,1984131,Bhf. Lichtenberg,9,1984174
2482,1984132,Flughafen Berlin-Tegel,0,1984411
2483,1984132,Haupthalle,1,1984596
2484,1984132,Verwaltungsgebäude/Luftfracht,2,19841770
2485,1984132,Kaserne Südtor,3,1984761
2486,1984132,U-Bhf. Kurt-Schumacher-Platz,4,19841690
2488,1984132,Holländerstrasse,5,1984668
2489,1984132,Gotthardstrasse,6,1984520
2491,1984132,Teichstrasse,7,19841602
2493,1984132,Aroser Allee,8,1984102
2494,1984132,Genfer Strasse,9,1984489
2496,1984132,Residenzstrasse,10,19841281
2498,1984132,Stargardtstrasse,11,19841548
2501,1984132,Pankower Allee,12,19841150
2502,1984132,Ritterlandweg,13,19841298
2503,1984132,U-Bhf. Osloer Strasse,14,19841707
2504,1984133,U-Bhf. Ruhleben,0,19841722
2505,1984133,Krematorium Ruhleben,1,1984816
2506,1984133,Güterbahn Ruhleben,2,1984573
2507,1984133,Teltower Strasse,3,19841605
2508,1984133,Tiefwerderweg,4,19841619
2509,1984133,Grenadierstrasse,5,1984536
2510,1984133,Stresowplatz,6,19841581
2511,1984133,"Spandau, Markt",7,19841514
2512,1984133,Rathaus Spandau,8,19841249
2513,1984133,Klosterstrasse,9,1984787
2514,1984133,Elsflether Weg,10,1984364
2515,1984133,Grünhofer Weg,11,1984560
2516,1984133,Nauener Strasse,12,19841059
2517,1984133,Päwesiner Weg,13,19841227
2518,1984133,Egelpfuhlstrasse,14,1984345
2519,1984133,Harburger Weg,15,1984590
2521,1984133,Magistratsweg,16,1984963
2522,1984133,Louise-Schroeder-Siedlung,17,1984943
2523,1984133,Zweiwinkelweg,18,19841908
2524,1984133,Staaken Brunsbütteler Damm,19,19841532
2525,1984134,U-Bhf. Friedrich-Wilhelm-Platz,0,19841662
2527,1984134,Stubenrauchstrasse,1,19841583
2528,1984134,U-Bhf. Walther-Schreiber-Platz,2,19841744
2529,1984134,Alsen-/Fregstrasse,3,198431
2532,1984134,Bismarckstrasse,4,1984193
2535,1984134,Lauenburger Platz,5,1984872
2536,1984134,Bergstrasse,6,1984139
2538,1984134,Steglitzer Damm,7,19841552
2539,1984134,Halskestrasse,8,1984584
2540,1984134,Albrechtstrasse,9,198420
2543,1984134,Leonorenstrasse,10,1984891
2544,1984134,Rathaus Lankwitz,11,19841242
2545,1984134,"Lankwitz, Kirche",12,1984867
2546,1984134,Bruchwitzstrasse,13,1984246
2547,1984134,Alt-Lankwitz,14,198439
2549,1984134,Mühlenstrasse,15,19841052
2550,1984134,"Alt-Lankwitz, Dorfaue",16,198440
2551,1984134,Greinerstrasse,17,1984535
2552,1984134,Alt-Mariendorf,18,198444
2553,1984134,U-Bhf. Alt-Mariendorf,19,19841645
2554,1984134,Britzer Strasse,20,1984244
2555,1984134,Dardanellenweg,21,1984313
2556,1984134,Mariendorf Dardanellenweg,22,1984977
2557,1984135,S-Bhf. Lichtenrade,0,19841367
2558,1984135,Wolziger Zeile,1,19841868
2559,1984135,Kirchheimer Damm,2,1984771
2560,1984135,Pechsteinstrasse,3,19841170
2561,1984135,Würzburger Strasse,4,19841876
2562,1984135,Tietjenstrasse,5,19841624
2563,1984135,Nahariyastrasse,6,19841055
2564,1984135,Groß-Ziethener-Strasse,7,1984545
2565,1984135,Im Domstift,8,1984698
2566,1984135,Goltzstrasse,9,1984517
2567,1984135,S-Bhf. Lichtenrade,10,19841367
2568,1984135,Wünsdorfer Strasse,11,19841874
2569,1984135,Maffeistrasse,12,1984959
2571,1984135,Barnetstrasse,13,1984123
2573,1984135,Schichauweg,14,19841419
2574,1984135,Blohmstrasse,15,1984208
2575,1984135,Cecilienstrasse,16,1984290
2578,1984135,S-Bhf. Lichtenrade,17,19841367
2579,1984136,Mahlsdorf-Süd,0,1984965
2580,1984136,Wongrowitzer Steig,1,19841869
2581,1984136,S-Bhf. Köpenick,2,19841364
2582,1984136,Seelenbinderstrasse,3,19841466
2583,1984136,Bahnhof-/Lindenstrasse,4,1984118
2584,1984136,Pionierpark,5,19841187
2585,1984136,Rathenaustrasse,6,19841257
2586,1984136,Edisonstrasse,7,1984344
2587,1984136,Ehrlichstrasse,8,1984348
2588,1984136,Stechlinstrasse,9,19841549
2589,1984136,Hönower Wiesenweg,10,1984689
2590,1984136,Heizkraftwerk,11,1984621
2591,1984136,Saganer Strasse,12,19841402
2592,1984136,Karlshorster Strasse,13,1984755
2593,1984136,S-Bhf. Ostkreuz,14,19841377
2594,1984137,Nettelbeckplatz,0,19841062
2595,1984137,Müllerstrasse,1,19841054
2596,1984137,Heidestrasse,2,1984610
2597,1984137,Lehrter Bahnhof,3,1984876
2598,1984137,Platz der Republik,4,19841194
2599,1984137,Philharmonie,5,19841179
2600,1984137,Kulturforum,6,1984825
2601,1984137,U-Bhf. Kurfürstenstrasse,7,19841689
2602,1984137,Bülowstrasse,8,1984282
2603,1984137,Pallasstrasse,9,19841140
2604,1984137,U-Bhf. Kleistpark,10,19841682
2605,1984137,Kaiser-Wilhelm-Platz,11,1984735
2606,1984137,Dominicusstrasse,12,1984329
2607,1984137,U-Bhf. Innsbrucker Platz,13,19841675
2608,1984137,Grazer Platz,14,1984528
2609,1984137,Canovastrasse,15,1984288
2610,1984137,Göttinger Strasse,16,1984570
2612,1984137,Bergstrasse,17,1984140
2613,1984137,Planetarium,18,19841189
2614,1984137,Steglitzer Damm,19,19841552
2615,1984137,Albrechtstrasse,20,198420
2618,1984137,Leonorenstrasse,21,1984891
2619,1984137,Rathaus Lankwitz,22,19841242
2620,1984137,"Lankwitz, Kirche",23,1984867
2621,1984138,S-Bhf. Mahlsdorf,0,19841369
2622,1984138,Alt-Mahlsdorf,1,198443
2624,1984138,Rahnsdorfer Strasse,2,19841237
2625,1984138,Ledebourstrasse,3,1984873
2626,1984138,Bürgerwäldchen,4,1984285
2627,1984138,Bütower Strasse,5,1984286
2628,1984138,Roseggerstrasse,6,19841311
2629,1984138,Mahlsdorf-Süd,7,1984965
2630,1984138,Wongrowitzer Steig,8,19841869
2631,1984138,S-Bhf. Köpenick,9,19841364
2632,1984138,Seelenbinderstrasse,10,19841466
2633,1984138,Bahnhof-/Lindenstrasse,11,1984118
2634,1984138,Schloßplatz,12,19841431
2635,1984138,Wendenschloßstrasse,13,19841816
2636,1984138,Strassenbahn-Betriebshof,14,19841569
2637,1984138,VEB Yachtwerft,15,19841768
2638,1984138,Lienhardweg,16,1984918
2639,1984138,Wendenschloß,17,19841814
2640,1984139,Lichterfelde Ringstrasse Ecke Weißwasserweg,0,1984910
2641,1984139,Finckensteinallee,1,1984402
2642,1984139,Berner Strasse,2,1984155
2643,1984139,Kadettenweg,3,1984733
2644,1984139,Karwendelstrasse,4,1984759
2645,1984139,Hindenburgdamm,5,1984648
2647,1984139,Bäkestrasse,6,1984277
2648,1984139,Krahmerstrasse,7,1984806
2649,1984139,Moltkestrasse (Klinikum),8,19841032
2650,1984139,Klingsorstrasse,9,1984784
2651,1984139,Haydnstrasse,10,1984604
2652,1984139,Händelplatz,11,1984685
2653,1984139,Fronhoferstrasse,12,1984455
2655,1984139,Albrechtstrasse,13,198421
2657,1984139,Düppelstrasse,14,1984341
2658,1984139,Friedenauer Brücke,15,1984436
2659,1984139,Sportzentrum Schöneberg,16,19841528
2660,1984139,Torgauer Strasse,17,19841630
2661,1984139,Gustav-Müller-Platz,18,1984563
2662,1984139,Kolonnenstrasse,19,1984798
2663,1984139,Kaiser-Wilhelm-Platz,20,1984735
2664,1984139,U-Bhf. Kleistpark,21,19841682
2666,1984139,Goebenstrasse,22,1984511
2667,1984139,Bülowstrasse,23,1984282
2668,1984139,U-Bhf. Kurfürstenstrasse,24,19841689
2669,1984140,Wasserwerk,0,19841801
2670,1984140,Josef-Nawrocki-Strasse,1,1984727
2671,1984140,Bölschestrasse,2,1984278
2672,1984140,S-Bhf. Friedrichshagen,3,19841353
2673,1984140,Hirschgarten,4,1984652
2674,1984140,Brandenburgplatz,5,1984222
2675,1984140,Lindenstrasse,6,1984935
2676,1984140,Schloßplatz,7,19841431
2677,1984140,S-Bhf. Spindlersfeld,8,19841390
2678,1984140,Ottomar-Geschke-Strasse,9,19841136
2679,1984140,S-Bhf. Adlershof,10,19841341
2680,1984140,Kanalbrücke,11,1984743
2681,1984140,"Altglienicke, Kirche",12,198464
2682,1984140,Am Falkenberg,13,198466
2683,1984141,Lichterfelde-Süd Holtheimer Weg,0,1984914
2684,1984141,Ostpreußendamm,1,19841124
2686,1984141,Goerzallee,2,1984512
2687,1984141,Thuner Platz,3,19841614
2688,1984141,Osteweg,4,19841122
2689,1984141,Rittberg-Krankenhaus,5,19841296
2690,1984141,Finckensteinallee,6,1984402
2691,1984141,Drakestrasse,7,1984334
2693,1984141,Gardeschützenweg,8,1984466
2695,1984141,Moltkestrasse,9,19841031
2696,1984141,Händelplatz,10,1984685
2698,1984141,Birkbuschstrasse,11,1984187
2699,1984141,Schloßstrasse/Wrangelstrasse,12,19841434
2700,1984141,U-Bhf. Rathaus Steglitz,13,19841715
2701,1984141,U-Bhf. Schloßstrasse,14,19841726
2702,1984141,U-Bhf. Walther-Schreiber-Platz,15,19841744
2703,1984141,Kaisereiche,16,1984737
2704,1984141,Rathaus Friedenau,17,19841241
2705,1984141,U-Bhf. Innsbrucker Platz,18,19841675
2706,1984141,Rathaus Schöneberg,19,19841247
2707,1984141,Grunewaldstrasse,20,1984554
2708,1984141,Barbarossastrasse,21,1984120
2709,1984141,Hohenstaufenstrasse,22,1984663
2710,1984141,Motzstrasse,23,19841038
2711,1984141,Wittenbergplatz,24,19841860
2712,1984142,"Johannisthal, Haeckelstrasse",0,1984722
2713,1984142,Bhf. Schöneweide,1,1984180
2714,1984142,Wilhelminenhofstrasse,2,19841838
2715,1984142,Rathenaustrasse,3,19841257
2716,1984142,Pionierpark,4,19841187
2717,1984142,Erich-Weinert-Klubhaus,5,1984374
2718,1984142,Bahnhofstrasse,6,1984119
2719,1984142,Grünstrasse,7,1984562
2720,1984142,Wendenschloßstrasse,8,19841816
2721,1984142,RFT-Werk,9,19841232
2722,1984142,Pritstabelstrasse,10,19841224
2723,1984142,VEB Yachtwerft,11,19841768
2724,1984142,Lienhardweg,12,1984918
2725,1984142,Wendenschloß,13,19841814
2726,1984143,Fehrbelliner Platz,0,1984394
2727,1984143,U-Bhf. Blissestrasse,1,19841651
2728,1984143,Am Volkspark,2,198482
2729,1984143,Weimarische Strasse,3,19841808
2730,1984143,U-Bhf. Bundesplatz,4,19841655
2731,1984143,U-Bhf. Friedrich-Wilhelm-Platz,5,19841662
2732,1984143,U-Bhf. Walther-Schreiber-Platz,6,19841744
2733,1984143,U-Bhf. Schloßstrasse,7,19841726
2734,1984143,U-Bhf. Rathaus Steglitz,8,19841715
2735,1984143,Fronhofer-/Wrangelstrasse,9,1984454
2736,1984143,Klingsorstrasse,10,1984784
2737,1984143,Sedanstrasse,11,19841460
2738,1984143,Siemensstrasse,12,19841491
2741,1984143,Stadion Lichterfelde,13,19841536
2742,1984143,Königsberger Strasse,14,1984844
2743,1984143,Morgensternstrasse,15,19841033
2745,1984143,Giesensdorfer Strasse,16,1984499
2746,1984143,Osdorfer Strasse,17,19841115
2747,1984143,Fahrenheitstrasse,18,1984381
2748,1984143,"Lichterfelde, Celsiusstrasse",19,1984912
2749,1984144,Hirtestrasse,0,1984653
2750,1984144,S-Bhf. Köpenick,1,19841364
2751,1984144,Lindenstrasse,2,1984935
2752,1984144,Schloßplatz,3,19841431
2753,1984144,Vollkropfgraben,4,19841775
2754,1984144,VEB Kühlbetrieb,5,19841767
2755,1984144,VEB Berlin-Chemie,6,19841764
2756,1984144,Regattastrasse,7,19841266
2757,1984144,S-Bhf. Grünau,8,19841357
2758,1984144,Regattatribünen,9,19841267
2759,1984144,Studiotechnik,10,19841584
2760,1984144,Strandbad Grünau,11,19841567
2761,1984144,Richtershorn,12,19841293
2762,1984144,Schappachstrasse,13,19841412
2763,1984144,Lübbenauer Weg,14,1984954
2764,1984144,Adlergestell,15,19846
2765,1984144,Reifenwerk,16,19841274
2766,1984144,Zum Seeblick,17,19841904
2767,1984144,Alt-Schmöckwitz,18,198455
2768,1984145,U-Bhf. Richard-Wagner-Platz,0,19841717
2769,1984145,Wilmersdorfer Strasse,1,19841851
2770,1984145,Luisenplatz,2,1984948
2771,1984145,Klausenerplatz,3,1984779
2772,1984145,Sophie-Charlotten-Strasse,4,19841507
2773,1984145,Mollwitzstrasse,5,19841029
2774,1984145,Heubnerweg,6,1984644
2775,1984145,Pulsstrasse,7,19841225
2776,1984146,U-Bhf. Rathaus Steglitz,0,19841715
2777,1984146,Fronhoferstrasse/Wrangelstrasse,1,1984456
2779,1984146,Birkbuschstrasse,2,1984187
2780,1984146,Breite Strasse/Haydnstrasse,3,1984227
2781,1984146,Klingsorstrasse,4,1984784
2782,1984146,Amfortasweg,5,198485
2783,1984146,Klinikum Steglitz,6,1984785
2785,1984146,Hindenburgdamm,7,1984649
2786,1984146,Moltkestrasse,8,19841030
2788,1984146,"Lichterfelde, Augustaplatz",9,1984911
2789,1984147,Bornholmer Strasse,0,1984215
2790,1984147,Prinzenallee,1,19841222
2791,1984147,Koloniestrasse,2,1984797
2792,1984147,U-Bhf. Osloer Strasse,3,19841707
2793,1984147,Louise-Schroeder-Platz,4,1984942
2794,1984147,Indische Strasse,5,1984701
2795,1984147,U-Bhf. Seestrasse/Müllerstrasse,6,19841728
2796,1984147,Togostrasse,7,19841628
2797,1984147,Afrikanische Strasse,8,198410
2798,1984147,Seestrasse/Friedhöfe,9,19841470
2799,1984147,Plötzensee/Dohnagestell,10,19841198
2800,1984147,Beusselstrasse,11,1984164
2802,1984147,Sickingenstrasse,12,19841482
2803,1984147,Wittstocker Strasse,13,19841863
2804,1984147,Huttenstrasse/Turmstrasse,14,1984684
2805,1984147,Berlichingenstrasse,15,1984144
2806,1984147,Wiebestrasse,16,19841828
2808,1984147,Kaiserin-Augusta-Allee,17,1984739
2809,1984147,Ilsenburger Strasse,18,1984697
2810,1984147,U-Bhf. Mierendorffplatz,19,19841697
2811,1984148,John-Schehr-Strasse,0,1984726
2812,1984148,Am Friedrichshain,1,198468
2813,1984148,Mollstrasse,2,19841027
2814,1984148,Alexanderplatz,3,198423
2815,1984148,Spandauer Strasse,4,19841519
2817,1984148,Breite Strasse,5,1984226
2818,1984148,Friedrichstrasse,6,1984447
2819,1984148,Otto-Grotewohl-Strasse,7,19841130
2822,1984149,Flughafen Berlin-Tegel,0,1984411
2823,1984149,Haupthalle,1,1984596
2824,1984149,Verwaltungsgeb./Luftfracht,2,19841769
2825,1984149,U-Bhf. Jakob-Kaiser-Platz,3,19841676
2826,1984149,Luisenplatz,4,1984948
2827,1984149,S-Bhf. Charlottenburg,5,19841350
2828,1984149,U-Bhf. Adenauerplatz,6,19841643
2829,1984149,Olivaer Platz/Leibnizstrasse,7,19841097
2830,1984149,Bleibtreustrasse,8,1984205
2831,1984149,U-Bhf. Uhlandstrasse,9,19841740
2832,1984149,U-Bhf. Kurfürstendamm,10,19841688
2833,1984149,U-Bhf./S-Bhf. Zoologischer Garten,11,19841751
2834,1984149,Breitscheidplatz / Verkehrsamt,12,1984233
2835,1984149,Bayreuther Strasse,13,1984129
2836,1984149,Landgrafenstrasse,14,1984863
2837,1984149,Lützowplatz,15,1984956
2838,1984149,Budapester Strasse,16,1984269
2839,1984150,"Zoo, Hardenbergplatz",0,19841900
2840,1984150,Hardenbergstrasse,1,1984591
2841,1984150,Steinplatz,2,19841555
2842,1984150,U-Bhf. Ernst-Reuter-Platz,3,19841658
2843,1984150,Marchstrasse,4,1984973
2844,1984150,Dovebrücke,5,1984332
2845,1984150,Franklinstrasse,6,1984424
2846,1984150,Alt-Moabit,7,198449
2848,1984150,U-Bhf. Turmstrasse,8,19841739
2849,1984150,Kirchstrasse,9,1984772
2851,1984150,Rathenower Strasse,10,19841259
2855,1984150,Lehrter Strasse,11,1984878
2857,1984150,Seydlitzstrasse,12,19841481
2858,1984150,Poststadion,13,19841200
2859,1984150,Perleberger Strasse,14,19841171
2860,1984150,Am Nordhafen,15,198475
2861,1984150,U-Bhf. Reinickendorfer Strasse,16,19841716
2862,1984150,Schulzendorfer Strasse,17,19841440
2863,1984150,Neue Hochstrasse,18,19841066
2864,1984150,Gartenstrasse,19,1984471
2865,1984150,S-Bhf. Humboldthain,20,19841359
2866,1984150,Feldstrasse,21,1984396
2867,1984150,U-Bhf. Voltastrasse,22,19841743
2868,1984150,Bernauer Strasse,23,1984152
2869,1984150,Bernauer Strasse Ecke Wolliner Strasse,24,1984153
2871,1984151,Lindenberger Strasse,0,1984927
2873,1984151,S-Bhf. Ahrensfelde,1,19841342
2874,1984151,S-Bhf. Otto-Winzer-Strasse,2,19841378
2875,1984151,Otto-Buchwitz-Strasse,3,19841128
2876,1984151,Alt-Marzahn,4,198447
2877,1984151,Elisabethstrasse,5,1984361
2879,1984151,Otto-Buchwitz-Strasse,6,19841128
2880,1984151,Siegmarstrasse,7,19841489
2881,1984151,Hellersdorfer Strasse,8,1984623
2882,1984151,Kaulsdorf-Nord,9,1984766
2883,1984151,S-Bhf. Kaulsdorf,10,19841362
2884,1984152,Buckow-Süd,0,1984263
2885,1984152,Am Eichenquast,1,198465
2886,1984152,Ringslebenstrasse,2,19841294
2887,1984152,Buckower Damm,3,1984266
2889,1984152,Mollnerweg,4,19841026
2890,1984152,An den Achterhöfen,5,198490
2891,1984152,Alt-Buckow,6,198434
2892,1984152,Parkfriedhof Neukölln,7,19841161
2893,1984152,Dachdeckerweg,8,1984306
2894,1984152,Zimmererweg,9,19841894
2895,1984152,Schlosserweg,10,19841427
2896,1984152,Gutschmidtstrasse,11,1984564
2897,1984152,Mohriner Allee,12,19841024
2898,1984152,Fulhamer Allee,13,1984458
2900,1984152,Gradestrasse,14,1984526
2901,1984152,Franz-Körner-Strasse,15,1984426
2902,1984152,Germaniapromenade,16,1984495
2903,1984152,Mariendorfer Weg,17,1984982
2904,1984152,Siegfriedstrasse,18,19841485
2907,1984152,U-Bhf. Leinestrasse,19,19841691
2908,1984152,Kienitzer Strasse,20,1984770
2909,1984152,U-Bhf. Boddinstrasse,21,19841652
2910,1984152,Biebricher Strasse,22,1984182
2911,1984152,Hermannplatz,23,1984629
2912,1984153,S-Bhf. Marzahn,0,19841372
2913,1984153,S-Bhf. Bruno-Leuschner-Strasse,1,19841347
2914,1984153,Paul-Dessau-Strasse,2,19841165
2915,1984153,Alt-Marzahn,3,198447
2917,1984153,Charlottenstrasse,4,1984296
2919,1984153,Cecilienstrasse,5,1984291
2921,1984153,S-Bhf. Biesdorf,6,19841346
2922,1984154,Staaken Brunsbütteler Damm,0,19841532
2923,1984154,Louise-Schroeder-Siedlung,1,1984943
2925,1984154,Magistratsweg,2,1984963
2926,1984154,Maulbeerallee,3,19841007
2927,1984154,Seeburger Weg,4,19841462
2928,1984154,Schmidt-Knobelsdorf-Strasse,5,19841436
2929,1984154,Adamstrasse/Wilhelmstrasse,6,19844
2930,1984154,Földerichstrasse,7,1984460
2931,1984154,Pichelsdorfer Strasse,8,19841180
2934,1984154,Heerstrasse,9,1984605
2936,1984154,Freybrücke,10,1984435
2937,1984154,Pichelswerder,11,19841183
2938,1984154,Stößenseebrücke,12,19841585
2939,1984154,Scholzplatz,13,19841437
2940,1984154,Reichssportfeldstrasse,14,19841270
2941,1984154,Mohrunger Allee,15,19841025
2942,1984154,U-Bhf. Theodor-Heuss-Platz,16,19841735
2943,1984154,Ausstellungshallen,17,1984113
2944,1984154,ICC/Omnibusbahnhof,18,1984693
2945,1984154,Suarezstrasse/Amtsgericht,19,19841586
2946,1984154,Kaiser-Friedrich-Strasse,20,1984734
2947,1984154,U-Bhf. Wilmersdorfer Strasse,21,19841746
2948,1984154,Leibnizstrasse,22,1984879
2951,1984154,Uhlandstrasse,23,19841754
2953,1984154,"Zoo, Hardenbergplatz",24,19841900
2954,1984155,S-Bhf. Biesdorf,0,19841346
2955,1984155,Wilhem-Griesinger-Krankenhaus,1,19841850
2957,1984156,Lindenhof,0,1984931
2959,1984156,Siegfriedstrasse,1,19841486
2961,1984156,Fanninger Strasse,2,1984392
2962,1984156,U-Bhf. Lichtenberg,3,19841693
2963,1984157,U-Bhf. Alt-Mariendorf,0,19841645
2964,1984157,Alt-Mariendorf,1,198444
2965,1984157,Britzer Strasse,2,1984244
2966,1984157,Goldenes Horn,3,1984516
2967,1984157,Rotkopfweg,4,19841318
2968,1984157,Windröschenweg,5,19841854
2969,1984157,Im Rosengrund,6,1984699
2970,1984157,Straße 247,7,19841574
2971,1984157,Massiner Weg,8,19841006
2973,1984157,Buckower Damm,9,1984267
2974,1984157,Gutschmidtstrasse,10,1984564
2975,1984157,Wesenberger Ring,11,19841821
2976,1984157,Britz-Süd Gutschmidtstrasse,12,1984241
2977,1984158,U-Bhf. Tierpark,0,19841737
2978,1984158,Zwieseler Strasse,1,19841910
2979,1984158,Robert-Siewert-Strasse,2,19841300
2980,1984158,Frankestrasse,3,1984419
2981,1984158,U-Bhf. Tierpark,4,19841737
2982,1984159,Heerstrasse Ecke Reimerweg,0,1984607
2983,1984159,Wilhelmstrasse,1,19841848
2985,1984159,Gatower Strasse,2,1984475
2987,1984159,Pichelsdorfer Strasse,3,19841181
2989,1984159,Alt-Pichelsdorf/Freybrücke,4,198452
2990,1984159,Pichelswerder,5,19841183
2991,1984159,Stößenseebrücke,6,19841585
2992,1984159,Scholzplatz,7,19841437
2993,1984159,Reichssportfeldstrasse,8,19841270
2994,1984159,Mohrunger Allee,9,19841025
2995,1984159,Preußenallee,10,19841219
2996,1984159,U-Bhf. Theodor-Heuss-Platz,11,19841735
2997,1984159,Ausstellungshallen,12,1984113
2998,1984159,ICC/Omnibusbahnhof,13,1984693
2999,1984159,Dernburgstrasse,14,1984316
3000,1984159,Kuno-Fischer-Strasse,15,1984827
3001,1984159,Suarezstrasse/Amtsgericht,16,19841586
3002,1984159,Kaiser-Friedrich-Strasse,17,1984734
3003,1984159,U-Bhf. Wilmersdorfer Strasse,18,19841746
3004,1984159,Leibnizstrasse,19,1984879
3006,1984159,Schlüterstrasse,20,19841435
3007,1984159,Savignyplatz,21,19841409
3009,1984159,Uhlandstrasse,22,19841754
3011,1984159,Joachimstaler Strasse,23,1984719
3012,1984159,"Zoo, Hardenbergplatz",24,19841900
3013,1984160,Greifswalder Strasse,0,1984530
3015,1984160,An den Siedlergärten,1,198491
3016,1984160,Hönower Strasse,2,1984688
3017,1984160,Am Rosenhag,3,198478
3018,1984160,Lindenhofstrasse,4,1984932
3019,1984160,S-Bhf. Mahlsdorf,5,19841368
3020,1984160,Landréstrasse,6,1984864
3021,1984160,S-Bhf. Kaulsdorf,7,19841362
3022,1984160,Kaulsdorf-Nord,8,1984766
3023,1984160,Hellersdorf,9,1984622
3024,1984160,LPG Edwin-Hoernle,10,1984859
3025,1984160,Otto-Buchwitzstrasse,11,19841129
3026,1984160,Alt-Marzahn,12,198447
3028,1984160,Elisabethstrasse,13,1984362
3029,1984160,Bruno-Baum-Strasse,14,1984251
3030,1984160,S-Bhf. Marzahn,15,19841372
3031,1984161,S-Bhf. Nöldnerplatz,0,19841375
3032,1984161,Schlichtallee,1,19841426
3033,1984161,Kraftwerk,2,1984805
3034,1984161,IFA-Vertrieb,3,1984694
3035,1984161,Bhf. Karlshorst,4,1984172
3036,1984161,Waldowallee,5,19841782
3037,1984161,U-Bhf. Tierpark,6,19841737
3038,1984161,Mellenseestrasse,7,19841012
3039,1984161,Volkradstrasse,8,19841774
3040,1984161,Weitlingstrasse,9,19841810
3041,1984161,S-Bhf. Nöldnerplatz,10,19841375
3042,1984162,Platz der Luftbrücke,0,19841191
3043,1984162,Manfred-v.-Richthofen-Strasse,1,1984970
3044,1984162,Bayernring,2,1984128
3045,1984162,Schreiberring,3,19841439
3046,1984162,Adolf-Scheidt-Platz/Krankenhaus,4,19848
3047,1984162,Hoeppnerstrasse,5,1984659
3048,1984162,Berlinickeplatz,6,1984150
3051,1984162,Albrechtstrasse,7,198422
3052,1984162,Friedrich-Wilhelm-Strasse,8,1984442
3053,1984162,Attilaplatz,9,1984108
3054,1984162,Paul-Schmidt-Strasse,10,19841167
3055,1984162,Röblingstrasse,11,19841334
3057,1984162,S-Bhf. Mariendorf,12,19841370
3058,1984162,Crailsheimer Strasse,13,1984302
3059,1984162,Alt-Lankwitz/Krankenhaus,14,198441
3060,1984162,Bruchwitzstrasse,15,1984246
3061,1984162,Lankwitz/Kirche,16,1984868
3062,1984162,Seydlitzstrasse,17,19841480
3064,1984162,Amalienstrasse,18,198484
3065,1984162,Kranoldplatz,19,1984814
3067,1984162,Morgensternstrasse,20,19841034
3068,1984162,Ostpreußendamm,21,19841124
3070,1984162,Osdorfer Strasse,22,19841115
3071,1984162,Wismarer Strasse,23,19841857
3072,1984162,Lichterfelde Lindenstrasse,24,1984908
3073,1984163,Platz der Luftbrücke,0,19841191
3074,1984163,Adolf-Schiedt-Platz,1,19849
3075,1984163,Berlinickeplatz,2,1984150
3076,1984163,Atillaplatz,3,1984107
3077,1984163,S-Bhf. Mariendorf,4,19841370
3078,1984163,"Lankwitz, Kirche",5,1984867
3080,1984163,Morgensternstrasse,6,19841034
3081,1984163,Wiesenbaude,7,19841831
3082,1984163,Wismarer Strasse,8,19841857
3083,1984163,Darser Strasse,9,1984314
3084,1984163,Beeskowdamm,10,1984130
3085,1984164,Rangierbahnhof,0,19841239
3086,1984164,S-Bhf. Karlshorst,1,19841361
3087,1984164,Sangeallee,2,19841408
3088,1984164,Wallensteinstrasse,3,19841788
3089,1984164,Dolgenseestrasse,4,1984327
3090,1984164,Rangierbahnhof,5,19841239
3091,1984165,Heerstrasse/Stadtgrenze,0,1984608
3092,1984165,Reimerweg,1,19841275
3093,1984165,Magistratsweg,2,1984962
3095,1984165,Sandstrasse,3,19841407
3096,1984165,Wilhelmstrasse,4,19841848
3098,1984165,Gatower Strasse,5,1984475
3099,1984165,Jaczostrasse,6,1984710
3100,1984165,Pichelsdorfer Strasse,7,19841180
3103,1984165,Genfenbergstrasse,8,1984488
3104,1984165,Adamstrasse,9,19842
3106,1984165,Weißenburger Strasse,10,19841811
3107,1984165,Metzer Strasse,11,19841015
3108,1984165,Ruhlebener Strasse,12,19841331
3109,1984165,Rathaus Spandau,13,19841249
3110,1984165,Wröhmännerpark,14,19841870
3111,1984165,Triftstrasse,15,19841636
3113,1984165,Parkstrasse/Lynarstrasse,16,19841162
3114,1984165,Schäferstrasse,17,19841448
3115,1984165,Hohenzollernring,18,1984666
3116,1984165,Rauchstrasse,19,19841263
3117,1984165,Mertensstrasse,20,19841013
3118,1984165,Werderstrasse,21,19841817
3119,1984165,Hakenfelde Aalemannufer,22,1984581
3120,1984166,Franz-Stenzer-Strasse,0,1984428
3121,1984166,S-Bhf. Bruno-Leuschner-Strasse,1,19841347
3122,1984166,Backwarenkombinat,2,1984116
3123,1984166,Arbeitsstättengebiet Marzahn,3,198498
3124,1984167,Greifswalder Strasse,0,1984530
3126,1984167,Hönower Strasse,1,1984688
3127,1984167,Am Rosenhag,2,198478
3128,1984167,S-Bhf. Mahlsdorf,3,19841368
3129,1984167,Landréstrasse,4,1984864
3130,1984167,S-Bhf. Kaulsdorf,5,19841362
3131,1984167,"Kaulsdorf, Nord",6,1984765
3132,1984167,Otto-Buchwitzstrasse,7,19841129
3133,1984167,Alt-Marzahn,8,198447
3134,1984167,Elisabethstrasse,9,1984361
3136,1984167,S-Bhf. Springpfuhl,10,19841391
3137,1984167,Kröver Strasse,11,1984821
3138,1984167,S-Bhf. Friedrichsfelde Ost,12,19841351
3139,1984168,"Wedding, Gartenplatz",0,19841806
3141,1984168,Brunnenstrasse,1,1984249
3142,1984168,U-Bhf. Gesundbrunnen,2,19841664
3143,1984168,U-Bhf. Pankstrasse,3,19841710
3144,1984168,Nettelbeckplatz,4,19841062
3145,1984168,Müllerstrasse,5,19841054
3150,1984168,Rathenower Strasse,6,19841262
3151,1984168,Wilhelmshavener Strasse,7,19841841
3152,1984168,Beusselstrasse,8,1984164
3155,1984168,Wiebestrasse,9,19841829
3156,1984168,U-Bhf. Jungfernheide,10,19841678
3157,1984168,Tegeler Weg/DRK-Krankenhaus,11,19841600
3158,1984168,Jakob-Kaiser-Platz,12,1984712
3159,1984168,U-Bhf. Rohrdamm,13,19841718
3160,1984168,Paulsternstrasse,14,19841168
3162,1984168,Gartenfelder Strasse,15,1984468
3164,1984168,Zur Zitadelle,16,19841906
3165,1984168,Rathaus Spandau,17,19841249
3166,1984168,Zeppelinstrasse,18,19841889
3168,1984168,Falkenseer Chaussee,19,1984388
3169,1984168,Wasserwerkstrasse,20,19841802
3170,1984168,Stadtrandstrasse,21,19841546
3171,1984168,Spandau Freudstrasse,22,19841508
3172,1984169,U-Bhf. Tegel,0,19841733
3173,1984169,Diakoniezentrum,1,1984318
3174,1984169,Stolpe,2,19841563
3175,1984170,S-Bhf. Wannsee,0,19841396
3176,1984170,Nibelungenstrasse,1,19841074
3177,1984170,Isoldestrasse,2,1984708
3178,1984170,Drewitz,3,1984336
3179,1984171,S-Bhf. Friedrichshagen,0,19841353
3180,1984171,Brösener Strasse,1,1984256
3181,1984171,Waldstrasse,2,19841786
3182,1984171,Goethepark,3,1984513
3183,1984171,Rahnsdorfer Strasse,4,19841236
3185,1984171,Dorfstrasse,5,1984331
3186,1984171,Thälmannpark,6,19841615
3187,1984171,Schillerstrasse,7,19841420
3188,1984171,Grätzwalde,8,1984555
3189,1984171,Jägerstrasse,9,1984732
3190,1984171,Kalkberger Strasse,10,1984742
3191,1984171,Berghof-Weiche,11,1984137
3192,1984171,Berghof,12,1984136
3193,1984171,Torellplatz,13,19841629
3194,1984171,Kulturhaus,14,1984826
3195,1984171,Rathaus,15,19841240
3196,1984171,Breitscheidstrasse,16,1984235
3197,1984171,Brückenstrasse,17,1984257
3198,1984171,Alt-Rüdersdorf,18,198454
3199,1984172,S-Bhf. Rahnsdorf,0,19841387
3200,1984172,Goethestrasse,1,1984515
3201,1984172,Eichendamm,2,1984352
3202,1984172,Lerchenstrasse,3,1984896
3203,1984172,Fasanenstrasse,4,1984393
3204,1984172,Thälmannplatz,5,19841616
3205,1984172,Blumenstrasse,6,1984209
3206,1984172,Krankenhaus,7,1984808
3207,1984172,Woltersdorfer Schleuse,8,19841867
3208,1984173,Schlesisches Tor,0,19841424
3209,1984173,Görlitzer Bahnhof,1,1984568
3210,1984173,Kottbusser Tor,2,1984804
3211,1984173,Prinzenstrasse,3,19841223
3212,1984173,Hallesches Tor,4,1984583
3213,1984173,Möckernbrücke,5,19841044
3214,1984173,Gleisdreieck,6,1984501
3215,1984173,Kürfürstenstrasse,7,1984858
3216,1984173,Nollendorfplatz,8,19841077
3217,1984173,Wittenbergplatz,9,19841861
3218,1984173,Zoologischer Garten,10,19841902
3219,1984173,Ernst-Reuter-Platz,11,1984376
3220,1984173,Deutsche Oper,12,1984317
3221,1984173,Bismarckstrasse,13,1984196
3222,1984173,Sophie-Charlotte-Platz,14,19841505
3223,1984173,Kaiserdamm,15,1984736
3224,1984173,Theodor-Heuss-Platz,16,19841611
3225,1984173,Neu-Westend,17,19841064
3226,1984173,Olympia-Stadion,18,19841100
3227,1984173,Ruhleben,19,19841330
3228,1984174,Wittenbergplatz,0,19841861
3229,1984174,Augsburger Strasse,1,1984110
3230,1984174,Spichernstrasse,2,19841525
3231,1984174,Hohenzollernplatz,3,1984665
3232,1984174,Fehrbelliner Platz,4,1984395
3233,1984174,Heidelberger Platz,5,1984609
3234,1984174,Rüdesheimer Platz,6,19841339
3235,1984174,Breitenbachplatz,7,1984230
3236,1984174,Podbielskiallee,8,19841199
3237,1984174,Dahlem-Dorf,9,1984309
3238,1984174,Thielplatz,10,19841613
3239,1984174,Oskar-Helene-Heim,11,19841116
3240,1984174,Onkel Toms Hütte,12,19841103
3241,1984174,Krumme Lanke,13,1984820
3242,1984175,Wittenbergplatz,0,19841861
3243,1984175,Kurfürstendamm,1,1984829
3245,1984176,Nollendorfplatz,0,19841077
3246,1984176,Viktoria-Luise-Platz,1,19841773
3247,1984176,Bayerischer Platz,2,1984127
3248,1984176,Rathaus Schöneberg,3,19841248
3249,1984176,Innsbrucker Platz,4,1984704
3250,1984177,Tegel,0,19841599
3251,1984177,Borsigwerke,1,1984218
3252,1984177,Holzhauser Strasse,2,1984672
3253,1984177,Seidelstrasse,3,19841473
3254,1984177,Scharnweberstrasse,4,19841416
3255,1984177,Kurt-Schumacher-Platz,5,1984837
3256,1984177,Afrikanische Strasse,6,198411
3257,1984177,Rehberge,7,19841269
3258,1984177,Seestrasse,8,19841469
3259,1984177,Leopoldplatz,9,1984892
3260,1984177,Wedding,10,19841803
3261,1984177,Reinickendorfer Strasse,11,19841277
3262,1984177,Friedrichstrasse,12,1984449
3263,1984177,Kochstrasse,13,1984793
3264,1984177,Hallesches Tor,14,1984583
3265,1984177,Mehringdamm,15,19841010
3266,1984177,Platz der Luftbrücke,16,19841192
3267,1984177,Paradestrasse,17,19841157
3268,1984177,Tempelhof,18,19841606
3269,1984177,Alt-Tempelhof,19,198458
3270,1984177,Kaiserin-Augusta-Strasse,20,1984740
3271,1984177,Ullsteinstrasse,21,19841758
3272,1984177,Westphalweg,22,19841826
3273,1984177,Alt-Mariendorf,23,198445
3274,1984178,Rohrdamm,0,19841307
3275,1984178,Siemensdamm,1,19841490
3276,1984178,Halemweg,2,1984582
3277,1984178,Jakob-Kaiser-Platz,3,1984713
3278,1984178,Jungfernheide,4,1984730
3279,1984178,Mierendorffplatz,5,19841019
3280,1984178,Richard-Wagner-Platz,6,19841292
3281,1984178,Bismarckstrasse,7,1984196
3282,1984178,Wilmersdorfer Strasse,8,19841852
3283,1984178,Adenauer Platz,9,19845
3284,1984178,Konstanzer Strasse,10,1984800
3285,1984178,Fehrbelliner Platz,11,1984395
3286,1984178,Blissestrasse,12,1984207
3287,1984178,Berliner Strasse,13,1984149
3288,1984178,Bayerischer Platz,14,1984127
3289,1984178,Eisenacher Strasse,15,1984358
3290,1984178,Kleistpark,16,1984780
3291,1984178,Yorckstrasse,17,19841878
3292,1984178,Möckernbrücke,18,19841044
3293,1984178,Mehringdamm,19,19841010
3294,1984178,Gneisenaustrasse,20,1984508
3295,1984178,Südstern,21,19841596
3296,1984178,Hermannplatz,22,1984630
3297,1984178,Rathaus Neukölln,23,19841244
3298,1984178,Karl-Marx-Strasse,24,1984753
3299,1984178,Neukölln,25,19841070
3300,1984178,Grenzallee,26,1984538
3301,1984178,Blaschkoallee,27,1984204
3302,1984178,Parchimer Allee,28,19841159
3303,1984178,Britz-Süd,29,1984240
3304,1984178,Johannisthaler Chaussee,30,1984724
3305,1984178,Lipschitzallee,31,1984939
3306,1984178,Wutzkyallee,32,19841872
3307,1984178,Zwickauer Damm,33,19841909
3308,1984178,Rudow,34,19841323
3309,1984179,Osloer Strasse,0,19841118
3310,1984179,Pankstrasse,1,19841152
3311,1984179,Gesundbrunnen,2,1984498
3312,1984179,Voltastrasse,3,19841777
3313,1984179,Moritzplatz,4,19841035
3314,1984179,Kottbusser Tor,5,1984804
3315,1984179,Kottbusser Damm,6,1984803
3316,1984179,Hermannplatz,7,1984630
3317,1984179,Boddinstrasse,8,1984210
3318,1984179,Leinestrasse,9,1984881
3319,1984180,Osloer Strasse,0,19841118
3320,1984180,Nauener Platz,1,19841058
3321,1984180,Leopoldplatz,2,1984892
3322,1984180,Amrumer Strasse,3,198487
3323,1984180,Putlitzstrasse,4,19841226
3324,1984180,Birkenstrasse,5,1984189
3325,1984180,Turmstrasse,6,19841641
3326,1984180,Hansaplatz,7,1984589
3327,1984180,Zoologischer Garten,8,19841902
3328,1984180,Kürfürstendamm,9,1984856
3329,1984180,Spichernstrasse,10,19841525
3330,1984180,Güntzelstrasse,11,1984572
3331,1984180,Berliner Strasse,12,1984149
3332,1984180,Bundesplatz,13,1984273
3333,1984180,Friedrich-Wilhelm-Platz,14,1984441
3334,1984180,Walter-Schreiber-Platz,15,19841789
3335,1984180,Schloßstrasse,16,19841433
3336,1984180,Rathaus Steglitz,17,19841250
3337,1984181,Lichtenrade,0,1984902
3338,1984181,Buckower Chaussee,1,1984265
3339,1984181,Marienfelde,2,1984983
3340,1984181,Mariendorf,3,1984976
3341,1984181,Priesterweg,4,19841221
3342,1984181,Papestrasse,5,19841155
3343,1984181,Yorckstrasse,6,19841877
3344,1984181,Anhalter Bhf.,7,198494
3345,1984181,Friedrichstrasse,8,1984448
3346,1984181,Humboldthain,9,1984681
3347,1984181,Gesundbrunnen,10,1984497
3348,1984182,Wannsee,0,19841792
3349,1984182,Nikolassee,1,19841075
3350,1984182,Grunewald,2,1984552
3351,1984182,Westkreuz,3,19841825
3352,1984182,Charlottenburg,4,1984293
3353,1984182,Savignyplatz,5,19841410
3354,1984182,Zoologischer Garten,6,19841901
3355,1984182,Tiergarten,7,19841620
3356,1984182,Bellevue,8,1984132
3357,1984182,Lehrter Bhf.,9,1984877
3358,1984182,Friedrichstrasse,10,1984448
3359,1984183,Friedrichstrasse,0,1984448
3360,1984183,Marx-Engels-Platz,1,1984998
3361,1984183,Alexanderplatz,2,198424
3362,1984183,Jannowitzbrücke,3,1984714
3363,1984183,Ostbahnhof,4,19841121
3364,1984183,Warschauer Strasse,5,19841796
3365,1984183,Ostkreuz,6,19841123
3366,1984183,Nöldnerplatz,7,19841086
3367,1984183,Lichtenberg,8,1984899
3368,1984183,Friedrichsfelde Ost,9,1984444
3369,1984183,Biesdorf,10,1984183
3370,1984183,Kaulsdorf,11,1984764
3371,1984183,Mahlsdorf,12,1984964
3372,1984183,Hoppegarten,13,1984673
3373,1984183,Neuenhagen,14,19841069
3374,1984183,Fredersdorf,15,1984430
3375,1984183,Petershagen Nord,16,19841172
3376,1984183,Strausberg,17,19841570
3377,1984183,Strausberg Stadt,18,19841572
3378,1984183,Strausberg Nord,19,19841571
3379,1984184,Alexanderplatz,0,198424
3380,1984184,Jannowitzbrücke,1,1984714
3381,1984184,Ostbahnhof,2,19841121
3382,1984184,Warschauer Strasse,3,19841796
3383,1984184,Ostkreuz,4,19841123
3384,1984184,Nöldnerplatz,5,19841086
3385,1984184,Lichtenberg,6,1984899
3386,1984184,Friedrichsfelde Ost,7,1984444
3387,1984184,Springpfuhl,8,19841531
3388,1984184,Karl-Maron-Strasse,9,1984751
3389,1984184,Marzahn,10,1984999
3390,1984184,Bruno-Leuschner-Strasse,11,1984253
3391,1984184,Otto-Winzer-Strasse,12,19841134
3392,1984185,Friedrichstrasse,0,1984448
3393,1984185,Marx-Engels-Platz,1,1984998
3394,1984185,Alexanderplatz,2,198424
3395,1984185,Jannowitzbrücke,3,1984714
3396,1984185,Ostbahnhof,4,19841121
3397,1984185,Warschauer Strasse,5,19841796
3398,1984185,Ostkreuz,6,19841123
3399,1984185,Rummelsburg,7,19841332
3400,1984185,Betriebsbhf. Rummelsburg,8,1984162
3401,1984185,Karlshorst,9,1984754
3402,1984185,Wuhlheide,10,19841871
3403,1984185,Köpenick,11,1984848
3404,1984185,Hirschgarten,12,1984651
3405,1984185,Friedrichshagen,13,1984445
3406,1984185,Rahnsdorf,14,19841234
3407,1984185,Wilhelmshagen,15,19841840
3408,1984185,Erkner,16,1984375
3409,1984186,Friedrichstrasse,0,1984448
3410,1984186,Marx-Engels-Platz,1,1984998
3411,1984186,Alexanderplatz,2,198424
3412,1984186,Jannowitzbrücke,3,1984714
3413,1984186,Ostbahnhof,4,19841121
3414,1984186,Warschauer Strasse,5,19841796
3415,1984186,Ostkreuz,6,19841123
3416,1984186,Treptower Park,7,19841634
3417,1984186,Plänterwald,8,19841197
3418,1984186,Baumschulenweg,9,1984125
3419,1984186,Schöneweide,10,19841453
3420,1984186,Betriebsbhf. Schöneweide,11,1984163
3421,1984186,Adlershof,12,19847
3422,1984186,Grünau,13,1984556
3423,1984186,Eichwalde,14,1984355
3424,1984186,Zeuthen,15,19841891
3425,1984186,Wildau,16,19841834
3426,1984186,Königs Wusterhausen,17,1984843
3427,1984187,Friedrichstrasse,0,1984448
3428,1984187,Marx-Engels-Platz,1,1984998
3429,1984187,Alexanderplatz,2,198424
3430,1984187,Jannowitzbrücke,3,1984714
3431,1984187,Ostbahnhof,4,19841121
3432,1984187,Warschauer Strasse,5,19841796
3433,1984187,Ostkreuz,6,19841123
3434,1984187,Treptower Park,7,19841634
3435,1984187,Plänterwald,8,19841197
3436,1984187,Baumschulenweg,9,1984125
3437,1984187,Schöneweide,10,19841453
3438,1984187,Betriebsbhf. Schöneweide,11,1984163
3439,1984187,Adlershof,12,19847
3440,1984187,Altglienicke,13,198462
3441,1984187,Grünbergallee,14,1984557
3442,1984187,Flughafen Berlin-Schönefeld,15,1984410
3443,1984188,Oranienburg,0,19841104
3444,1984188,Lehnitz,1,1984875
3445,1984188,Borgsdorf,2,1984214
3446,1984188,Birkenwerder,3,1984190
3447,1984188,Hohen Neuendorf,4,1984661
3448,1984188,Bergfelde,5,1984135
3449,1984188,Schönfließ,6,19841454
3450,1984188,Blankenburg,7,1984199
3451,1984188,Pankow-Heinersdorf,8,19841147
3452,1984188,Pankow,9,19841142
3453,1984188,Schönhauser Allee,10,19841456
3454,1984188,Prenzlauer Allee,11,19841212
3455,1984188,Greifswalder Strasse,12,1984532
3456,1984188,Leninallee,13,1984885
3457,1984188,Storkower Strasse,14,19841565
3458,1984188,Frankfurter Allee,15,1984420
3459,1984188,Ostkreuz,16,19841123
3460,1984188,Treptower Park,17,19841634
3461,1984188,Plänterwald,18,19841197
3462,1984188,Baumschulenweg,19,1984125
3463,1984188,Schöneweide,20,19841453
3464,1984188,Betriebsbhf. Schöneweide,21,1984163
3465,1984188,Adlershof,22,19847
3466,1984188,Altglienicke,23,198462
3467,1984188,Grünbergallee,24,1984557
3468,1984188,Flughafen Berlin-Schönefeld,25,1984410
3469,1984189,Bernau,0,1984151
3470,1984189,Zepernick,1,19841886
3471,1984189,Röntgental,2,19841337
3472,1984189,Buch,3,1984258
3473,1984189,Karow,4,1984757
3474,1984189,Blankenburg,5,1984199
3475,1984189,Pankow-Heinersdorf,6,19841147
3476,1984189,Pankow,7,19841142
3477,1984189,Schönhauser Allee,8,19841456
3478,1984189,Prenzlauer Allee,9,19841212
3479,1984189,Greifswalder Strasse,10,1984532
3480,1984189,Leninallee,11,1984885
3481,1984189,Storkower Strasse,12,19841565
3482,1984189,Frankfurter Allee,13,1984420
3483,1984189,Ostkreuz,14,19841123
3484,1984189,Treptower Park,15,19841634
3485,1984189,Plänterwald,16,19841197
3486,1984189,Baumschulenweg,17,1984125
3487,1984189,Schöneweide,18,19841453
3488,1984189,Betriebsbhf. Schöneweide,19,1984163
3489,1984189,Adlershof,20,19847
3490,1984189,Grünau,21,1984556
3491,1984189,Eichwalde,22,1984355
3492,1984189,Zeuthen,23,19841891
3493,1984190,Blankenburg,0,1984199
3494,1984190,Pankow-Heinersdorf,1,19841147
3495,1984190,Pankow,2,19841142
3496,1984190,Schönhauser Allee,3,19841456
3497,1984190,Prenzlauer Allee,4,19841212
3498,1984190,Greifswalder Strasse,5,1984532
3499,1984190,Leninallee,6,1984885
3500,1984190,Storkower Strasse,7,19841565
3501,1984190,Frankfurter Allee,8,1984420
3502,1984190,Ostkreuz,9,19841123
3503,1984190,Treptower Park,10,19841634
3504,1984190,Plänterwald,11,19841197
3505,1984190,Baumschulenweg,12,1984125
3506,1984190,Schöneweide,13,19841453
3507,1984190,Oberspree,14,19841092
3508,1984190,Spindlersfeld,15,19841526
3509,1984191,Buch,0,1984258
3510,1984191,Karow,1,1984757
3511,1984191,Blankenburg,2,1984199
3512,1984191,Pankow-Heinersdorf,3,19841147
3513,1984191,Pankow,4,19841142
3514,1984191,Schönhauser Allee,5,19841456
3515,1984191,Prenzlauer Allee,6,19841212
3516,1984191,Greifswalder Strasse,7,1984532
3517,1984191,Leninallee,8,1984885
3518,1984191,Storkower Strasse,9,19841565
3519,1984191,Frankfurter Allee,10,1984420
3520,1984191,Ostkreuz,11,19841123
3521,1984191,Warschauerstrasse,12,19841798
3522,1984191,Ostbahnhof,13,19841121
3523,1984191,Jannowitzbrücke,14,1984714
3524,1984191,Alexanderplatz,15,198424
3525,1984192,Buch,0,1984258
3526,1984192,Karow,1,1984757
3527,1984192,Blankenburg,2,1984199
3528,1984192,Pankow-Heinersdorf,3,19841147
3529,1984192,Pankow,4,19841142
3530,1984192,Schönhauser Allee,5,19841456
3531,1984192,Prenzlauer Allee,6,19841212
3532,1984192,Greifswalder Strasse,7,1984532
3533,1984192,Leninallee,8,1984885
3534,1984192,Storkower Strasse,9,19841565
3535,1984192,Frankfurter Allee,10,1984420
3536,1984192,Ostkreuz,11,19841123
3537,1984192,Treptower Park,12,19841634
3538,1984192,Plänterwald,13,19841197
3539,1984192,Baumschulenweg,14,1984125
3540,1984192,Schöneweide,15,19841453
3541,1984193,Panko (Vinetastrasse),0,19841141
3542,1984193,Schönhauser Allee,1,19841458
3543,1984193,Dimitroffstrasse,2,1984326
3544,1984193,Senefelderplatz,3,19841476
3545,1984193,Rosa-Luxemburg-Platz,4,19841310
3546,1984193,Alexanderplatz,5,198425
3547,1984193,Klosterstrasse,6,1984788
3548,1984193,Märkisches Museum,7,19841042
3549,1984193,Spittelmarkt,8,19841527
3550,1984193,Hausvogteiplatz,9,1984600
3551,1984193,Stadtmitte,10,19841542
3552,1984193,Thälmannplatz,11,19841617
3553,1984194,Tierpark,0,19841623
3554,1984194,Friedrichsfelde,1,1984443
3555,1984194,Bhf. Lichtenberg,2,1984176
3556,1984194,Magdalenenstrasse,3,1984960
3557,1984194,Frankfurter Allee,4,1984421
3558,1984194,Samariterstrasse,5,19841404
3559,1984194,Frankfurter Tor,6,1984423
3560,1984194,Marchlewskistrasse,7,1984972
3561,1984194,Strausberger Platz,8,19841573
3562,1984194,Schillingstrasse,9,19841421
3563,1984194,Alexanderplatz,10,198425
