stop_name,type,line_name,stop_id,location,identifier,latitude,longitude,match_score,matched_name,matched_stop_id,matched_historical_lines,location_from
Schillingbrücke (Ostbahnhof),tram,1,19560_unified,"52.51050795,13.43022032",,,,,,,,1956944.0
Stalinallee,tram,1,19561_unified,"52.51808307,13.43293834",,,,,,,,19561026.0
Leninplatz,tram,1,19562_unified,"52.52326580,13.43264570",Q65553105,,,,,,,1956628.0
"Leninallee, Kleine Frankfurterstr.",tram,1,19563_unified,"52.52325524,13.42590900",,,,,,,,1956625.0
"Alexanderplatz, Memhardstr.",tram,1,19564_unified,"52.52334390,13.41107730",Q65227406,,,,,,,195611.0
"Gipsstr., U-Bhf. Weinmeisterstr.",tram,1,19565_unified,"52.52532150,13.40350470",Q65094293,,,,,,,1956359.0
Rosenthalerplatz,tram,1,19566_unified,"52.53017690,13.40161210",Q65093945,,,,,,,1956891.0
Brunnen Ecke Invalidenstr.,tram,1,19567_unified,"52.53245420,13.39742360",Q65691740,,,,,,,1956204.0
Invalidenstr. Ecke Chausseestr.,tram,1,19568_unified,"52.53041580,13.38273020",Q65552697,,,,,,,1956497.0
Oranienburger Tor,tram,1,19569_unified,"52.52560310,13.38727450",Q65095375,,,,,,,1956754.0
"Weidendammbrücke, Bhf. Friedrichstr.",tram,1,195610_unified,"52.52169302,13.38797771",,,,,,,,19561179.0
Am Kupfergraben,tram,1,195611_unified,"52.51942080,13.39538390",Q65055027,,,,,,,195635.0
"Wienerstr., Spreewaldplatz",tram,2,195612_unified,"52.49748411,13.43175445",,,,,,,,19561201.0
Hermannplatz,tram,2,195613_unified,"52.48708557,13.42475245",,,,,,,,1956446.0
Südstern,tram,2,195614_unified,"52.48920000,13.40758983",,,,,,,,19561055.0
Mehringdamm,tram,2,195615_unified,"52.49298792,13.38795033",,,,,,,,1956695.0
Goebenstr. Ecke Bülowstr.,tram,2,195616_unified,"52.49367856,13.36567060",,,,,,,,1956369.0
Nollendorfplatz,tram,2,195617_unified,"52.49974137,13.35287893",,,,,,,,1956732.0
Wittenbergplatz,tram,2,195618_unified,"52.50185026,13.34309835",,,,,,,,19561227.0
Bhf. Zoo,tram,2,195619_unified,"52.50719346,13.33262988",,,,,,,,1956166.0
Am Knie,tram,2,195620_unified,"52.51266888,13.32185992",,,,,,,,195634.0
Gotzkowskystr. Ecke Turmstr.,tram,2,195621_unified,"52.52723347,13.33050347",,,,,,,,1956378.0
Turmstr. Ecke Rathenowerstr.,tram,2,195622_unified,"52.52676606,13.35526821",,,,,,,,19561088.0
Fennbrücke,tram,2,195623_unified,"52.53789914,13.36153552",,,,,,,,1956311.0
Weddingplatz,tram,2,195624_unified,"52.54152536,13.36919855",,,,,,,,19561175.0
Usedomerstr.,tram,2,195625_unified,"52.54110977,13.39379524",,,,,,,,19561151.0
Bernauerstr. Ecke Wollinerstr.,tram,2,195626_unified,"52.53999960,13.40205640",Q65719652,,,,,,,1956100.0
Mühlenstr.,tram,3,195627_unified,"52.50854394,13.43489758",,,,,,,,1956713.0
Bhf. Warschauer Brücke,tram,3,195628_unified,"52.50804290,13.45059730",Q65706190,,,,,,,1956156.0
Boxhagenerstr.,tram,3,195629_unified,"52.50705770,13.46830220",,,,,,,,1956192.0
"Bhf. Stalineallee, Gürtelstr.",tram,3,195630_unified,"52.51351239,13.47709677",,,,,,,,1956148.0
Rathaus Lichtenberg,tram,3,195631_unified,"52.51566580,13.47885620",Q65948511,,,,,,,1956842.0
Roederplatz,tram,3,195632_unified,"52.52660010,13.47906800",Q65685373,,,,,,,1956883.0
Landsbergerchaussee Ecke Weißenseerweg,tram,3,195633_unified,"52.53302495,13.47622945",,,,,,,,1956607.0
Hohenschönhauserstr.,tram,3,195634_unified,"52.53593290,13.47294680",Q65553684,,,,,,,1956471.0
Klement-Gottwald-Allee/Lichtenbergerstr.,tram,3,195635_unified,"52.55197852,13.46549266",,,,,,,,1956547.0
Antonplatz,tram,3,195636_unified,"52.54848030,13.45174160",Q65548849,,,,,,,195647.0
Prenzlauer Promenade Ecke Gustav-Adolfstr.,tram,3,195637_unified,"52.55175629,13.43036423",,,,,,,,1956822.0
Schönhauserallee,tram,3,195638_unified,"52.55377050,13.41388980",Q65076842,,,,,,,1956973.0
Björnsonstr.,tram,3,195639_unified,"52.55442320,13.40305850",Q65920495,,,,,,,1956178.0
"Neukölln, Hermannplatz",tram,3,195640_unified,"52.48645093,13.42424303",,,,,,,,1956725.0
Südstern,tram,3,195641_unified,"52.48920000,13.40758983",,,,,,,,19561055.0
Zosenerstr. Ecke Gneisenaustr.,tram,3,195642_unified,"52.49160445,13.39442995",,,,,,,,19561251.0
Mehringdamm,tram,3,195643_unified,"52.49298792,13.38795033",,,,,,,,1956695.0
Potsdamerstr.,tram,3,195644_unified,"52.49794769,13.36208745",,,,,,,,1956813.0
Martin-Lutherstr.,tram,3,195645_unified,"52.48885899,13.34492197",,,,,,,,1956688.0
Bundesallee Ecke Berlinerstr.,tram,3,195646_unified,"52.48733630,13.33101416",,,,,,,,1956220.0
Fehrbellinerplatz,tram,3,195647_unified,"52.49032473,13.31431730",,,,,,,,1956308.0
Kurfürstendamm Ecke Brandenburgischestr.,tram,3,195648_unified,"52.49998878,13.30701207",,,,,,,,1956572.0
Kantstr. Ecke Wilmersdorferstr.,tram,3,195649_unified,"52.50669670,13.30667853",,,,,,,,1956523.0
Wilmersdorferstr. Ecke Berlinerstr.,tram,3,195650_unified,"52.51810404,13.30449192",,,,,,,,19561217.0
Luisenplatz,tram,3,195651_unified,"52.51951940,13.30002435",,,,,,,,1956656.0
Osnabrückerstr. Ecke Tauroggenerstr.,tram,3,195652_unified,"52.52582914,13.30192047",,,,,,,,1956767.0
Gotzkowskystr. Ecke Turmstr.,tram,3,195653_unified,"52.52723347,13.33050347",,,,,,,,1956378.0
Plötzensee,tram,3,195654_unified,"52.54143051,13.33452236",,,,,,,,1956804.0
U-Bhf. Seestr.,tram,3,195655_unified,"52.55024590,13.35163040",Q65729619,,,,,,,19561129.0
Oskarplatz,tram,3,195656_unified,"52.55701740,13.36599870",Q65767112,,,,,,,1956761.0
Prinzenallee Ecke Osloerstr.,tram,3,195657_unified,"52.55590720,13.38376140",Q65807451,,,,,,,1956829.0
Grüntalerstr. Ecke Osloerstr.,tram,3,195658_unified,"52.55533100,13.39099790",Q65807452,,,,,,,1956404.0
Mühlenstr.,tram,4,195659_unified,"52.50854394,13.43489758",,,,,,,,1956713.0
Bhf. Warschauer Brücke,tram,4,195660_unified,"52.50804290,13.45059730",Q65706190,,,,,,,1956156.0
Grünbergerstr.,tram,4,195661_unified,"52.51223590,13.45260900",Q65706239,,,,,,,1956401.0
Frankfurter Tor/Stalinallee,tram,4,195662_unified,"52.51539030,13.45401720",Q65706246,,,,,,,1956321.0
Bersarinplatz,tram,4,195663_unified,"52.51921500,13.45252570",Q65706258,,,,,,,1956101.0
Leninallee,tram,4,195664_unified,"52.52593430,13.44623680",Q65553230,,,,,,,1956621.0
Paul-Heysestr.,tram,4,195665_unified,"52.52916820,13.44471860",Q65706974,,,,,,,1956798.0
Arnswalderplatz,tram,4,195666_unified,"52.53422160,13.43712450",Q65707667,,,,,,,195649.0
Greifswalderstr.,tram,4,195667_unified,"52.53649750,13.43340450",Q65548960,,,,,,,1956387.0
Prenzlauerallee,tram,4,195668_unified,"52.53965220,13.42447890",Q65222180,,,,,,,1956821.0
U-Bhf. Dimitroffstr.,tram,4,195669_unified,"52.54019280,13.41139790",Q65088313,,,,,,,19561097.0
Oderbergerstr.,tram,4,195670_unified,"52.54058396,13.40461901",,,,,,,,1956746.0
Bhf. Zoo,tram,6,195671_unified,"52.50719346,13.33262988",,,,,,,,1956166.0
Wittenbergplatz,tram,6,195672_unified,"52.50185026,13.34309835",,,,,,,,19561227.0
Grunewaldstr. Ecke Martin-Lutherstr.,tram,6,195673_unified,"52.48911461,13.34498171",",",,,,,,,1956397.0
Rathaus Schöneberg,tram,6,195674_unified,"52.48509788,13.34507201",,,,,,,,1956847.0
Hauptstr.,tram,6,195675_unified,"52.48184786,13.34836694",,,,,,,,1956423.0
Alboinstr. Ecke Schönebergerstr.,tram,6,195676_unified,"52.46984348,13.37206155",,,,,,,,19565.0
Tempelhoferdamm Ecke Alt-Tempelhof,tram,6,195677_unified,"52.46597106,13.38565316",,,,,,,,19561071.0
Oberlandstr. Ecke Germaniastr.,tram,6,195678_unified,"52.46347942,13.40209734",,,,,,,,1956741.0
Gottlieb-Dunkelstr. Ecke Germaniastr.,tram,6,195679_unified,"52.46057707,13.41799705",,,,,,,,1956374.0
Britzerdamm Ecke Blaschkoallee,tram,6,195680_unified,"52.45263384,13.43857185",,,,,,,,1956200.0
Buschkrug,tram,6,195681_unified,"52.45247090,13.45074820",,,,,,,,1956225.0
U-Bhf. Grenzallee,tram,6,195682_unified,"52.46348179,13.44437727",,,,,,,,19561106.0
U-Bhf. Neukölln,tram,6,195683_unified,"52.46965568,13.44161494",,,,,,,,19561117.0
U-Bhf. Rathaus Neukölln,tram,6,195684_unified,"52.48155632,13.43430392",,,,,,,,19561122.0
Elsenstr. Ecke Heidelbergerstr.,tram,6,195685_unified,"52.48685030,13.45118007",,,,,,,,1956290.0
Köpenickerstr. Ecke Adalbertstr.,tram,11,195686_unified,"52.50851870,13.42536747",,,,,,,,1956604.0
U-Bhf. Neanderstr.,tram,11,195687_unified,"52.51103451,13.41638558",,,,,,,,19561116.0
Bhf. Jannowitzbrücke,tram,11,195688_unified,"52.51476677,13.41791870",,,,,,,,1956122.0
"Alexanderplatz, Memhardstr.",tram,11,195689_unified,"52.52334390,13.41107730",Q65227406,,,,,,,195611.0
U-Bhf. Weinmeisterstr.,tram,11,195690_unified,"52.52532150,13.40350470",Q65094293,,,,,,,19561135.0
Rosenthalerplatz,tram,11,195691_unified,"52.53017690,13.40161210",Q65093945,,,,,,,1956891.0
Brunnen Ecke Invalidenstr.,tram,11,195692_unified,"52.53245420,13.39742360",Q65691740,,,,,,,1956204.0
Invalidenstr. Ecke Chausseestr.,tram,11,195693_unified,"52.53041580,13.38273020",Q65552697,,,,,,,1956497.0
Oranienburger Tor,tram,11,195694_unified,"52.52560310,13.38727450",Q65095375,,,,,,,1956754.0
Hannoverschestr.,tram,11,195695_unified,"52.52716496,13.38704676",,,,,,,,1956420.0
"Klingenberg, Blockdammweg",tram,13,195696_unified,"52.48424620,13.51046090",Q66085182,,,,,,,1956548.0
Kraftwerk Klingenberg,tram,13,195697_unified,"52.48813740,13.49586850",Q66079524,,,,,,,1956564.0
"Saganerstr., Güterbahn",tram,13,195698_unified,"52.49537115,13.48831019",,,,,,,,1956938.0
"Klingenberg, Hauptstr.",tram,13,195699_unified,"52.49911537,13.48065831",,,,,,,,1956549.0
Holteistr.,tram,13,1956100_unified,"52.50882350,13.46596900",Q65675805,,,,,,,1956477.0
Boxhagenerstr.,tram,13,1956101_unified,"52.50705770,13.46830220",,,,,,,,1956192.0
Frankfurter Tor/Stalinallee,tram,13,1956102_unified,"52.51539030,13.45401720",Q65706246,,,,,,,1956321.0
Bersarinplatz,tram,13,1956103_unified,"52.51921500,13.45252570",Q65706258,,,,,,,1956101.0
Leninallee,tram,13,1956104_unified,"52.52593430,13.44623680",Q65553230,,,,,,,1956621.0
Paul-Heysestr.,tram,13,1956105_unified,"52.52916820,13.44471860",Q65706974,,,,,,,1956798.0
Arnswalderplatz,tram,13,1956106_unified,"52.53422160,13.43712450",Q65707667,,,,,,,195649.0
Greifswalderstr.,tram,13,1956107_unified,"52.53649750,13.43340450",Q65548960,,,,,,,1956387.0
Prenzlauerallee,tram,13,1956108_unified,"52.53965220,13.42447890",Q65222180,,,,,,,1956821.0
U-Bhf. Dimitroffstr.,tram,13,1956109_unified,"52.54019280,13.41139790",Q65088313,,,,,,,19561097.0
Oderbergerstr.,tram,13,1956110_unified,"52.54058396,13.40461901",,,,,,,,1956746.0
Daimlerstr.,tram,15,1956111_unified,"52.42394996,13.38014505",,,,,,,,1956250.0
Bhf. Marienfelde,tram,15,1956112_unified,"52.42613308,13.37505766",,,,,,,,1956136.0
Mariendorferdamm Ecke Alt-Mariendorf,tram,15,1956113_unified,"52.44018031,13.38732780",,,,,,,,1956678.0
Imbrosweg,tram,15,1956114_unified,"52.44354186,13.39856469",,,,,,,,1956487.0
Mariendorfer Friedhof,tram,15,1956115_unified,"52.44953069,13.40475593",,,,,,,,1956679.0
Industriestr.,tram,15,1956116_unified,"52.45535023,13.40979439",,,,,,,,1956489.0
Germaniastr. Ecke Gottlieb-Dunkelstr.,tram,15,1956117_unified,"52.46053987,13.41805889",,,,,,,,1956354.0
Frauenklinik,tram,15,1956118_unified,"52.46394991,13.42750955",,,,,,,,1956323.0
Hermannstr. Ecke Hertastr.,tram,15,1956119_unified,"52.46468382,13.43289577",,,,,,,,1956449.0
U-Bhf. Neukölln,tram,15,1956120_unified,"52.46965568,13.44161494",,,,,,,,19561117.0
Richardstr.,tram,15,1956121_unified,"52.47097392,13.44630104",,,,,,,,1956875.0
Bhf. Sonnenallee,tram,15,1956122_unified,"52.47414313,13.45549953",,,,,,,,1956144.0
Dammweg,tram,15,1956123_unified,"52.47070358,13.46392233",,,,,,,,1956252.0
Schulenburgpark,tram,15,1956124_unified,"52.46666061,13.47029259",,,,,,,,1956960.0
Bhf. Rosenthal,tram,22,1956125_unified,"52.59866400,13.37266520",Q65364041,,,,,,,1956140.0
"Rosenthal, Siedlung",tram,22,1956126_unified,"52.59500971,13.38035214",,,,,,,,1956889.0
Nordendstr.,tram,22,1956127_unified,"52.58853400,13.38829520",Q65428345,,,,,,,1956739.0
Kurt-Fischer-Platz,tram,22,1956128_unified,"52.57866800,13.39830160",Q65032974,,,,,,,1956580.0
"Breitestr., Pankow, Rathaus",tram,22,1956129_unified,"52.56948160,13.40380450",Q65055060,,,,,,,1956194.0
"Pankow, Kirche",tram,22,1956130_unified,"52.57064520,13.41031150",Q65055066,,,,,,,1956781.0
"S-Bhf. Pankow, Florastr.",tram,22,1956131_unified,"52.56665023,13.40977581",,,,,,,,1956923.0
U-Bhf. Vinetastr.,tram,22,1956132_unified,"52.55961680,13.41323200",Q65075426,,,,,,,19561134.0
S-Bhf. Schönhauserallee,tram,22,1956133_unified,"52.54936190,13.41357340",Q65088013,,,,,,,1956929.0
"Eberswalderstr., U-Bhf. Dimitroffstr.",tram,22,1956134_unified,"52.54019280,13.41139790",Q65088313,,,,,,,1956275.0
Zionskirchstr.,tram,22,1956135_unified,"52.53410665,13.40496398",,,,,,,,19561248.0
Rosenthalerplatz,tram,22,1956136_unified,"52.53017690,13.40161210",Q65093945,,,,,,,1956891.0
Memhardtstr. Ecke Liebknechtstr.,tram,22,1956137_unified,"52.52399784,13.41225978",,,,,,,,1956700.0
"Alexanderplatz, Grunerstr.",tram,22,1956138_unified,"52.52008326,13.41408419",,,,,,,,19569.0
Elisabethstr.,tram,22,1956139_unified,"52.51764985,13.41804614",Q65364041,,,,,,,1956288.0
Bhf. Wollankstr.,tram,23,1956140_unified,"52.56476177,13.39378686",,,,,,,,1956161.0
Osloerstr. Ecke Prinzenallee,tram,23,1956141_unified,"52.55590720,13.38376140",Q65807451,,,,,,,1956762.0
Badstr. Ecke Prinzenallee,tram,23,1956142_unified,"52.55230699,13.38146827",,,,,,,,195663.0
Nettelbeckplatz,tram,23,1956143_unified,"52.54423653,13.36985307",,,,,,,,1956717.0
Weddingplatz,tram,23,1956144_unified,"52.54152536,13.36919855",,,,,,,,19561175.0
Fennbrücke,tram,23,1956145_unified,"52.53789914,13.36153552",,,,,,,,1956311.0
Augustenburgerplatz,tram,23,1956146_unified,"52.54195473,13.34900443",,,,,,,,195655.0
Birkenstr. Ecke Pulitzstr.,tram,23,1956147_unified,"52.53191761,13.34299174",,,,,,,,1956170.0
Stromstrase Ecke Turmstr.,tram,23,1956148_unified,"52.52630496,13.34320466",,,,,,,,19561040.0
Turmstr. Ecke Gotzkowskystr.,tram,23,1956149_unified,"52.52723422,13.33050811",,,,,,,,19561086.0
"Moabit, Zwinglistr.",tram,23,1956150_unified,"52.52574763,13.32804412",,,,,,,,1956706.0
Bhf. Wollankstr.,tram,24,1956151_unified,"52.56476177,13.39378686",,,,,,,,1956161.0
Osloerstr. Ecke Prinzenallee,tram,24,1956152_unified,"52.55590720,13.38376140",Q65807451,,,,,,,1956762.0
Prinzenallee Ecke Badstr.,tram,24,1956153_unified,"52.55229397,13.38143697",,,,,,,,1956828.0
Bhf. Gesundbrunnen,tram,24,1956154_unified,"52.54913506,13.38715173",,,,,,,,1956112.0
Rügenerstr. Ecke Brunnenstr.,tram,24,1956155_unified,"52.54468384,13.39105441",,,,,,,,1956905.0
Brunnenstr. Ecke Bernauerstr.,tram,24,1956156_unified,"52.53807160,13.39546530",Q65720089,,,,,,,1956205.0
Bernauerstr. Ecke Wollinerstr.,tram,24,1956157_unified,"52.53999960,13.40205640",Q65719652,,,,,,,1956100.0
"Tegel, Alt-Tegel",tram,25,1956158_unified,"52.58990423,13.28330695",,,,,,,,19561059.0
Bernauerstr. Ecke Berlinerstr.,tram,25,1956159_unified,"52.57628304,13.29473157",,,,,,,,195699.0
Eichborndamm Ecke Scharnweberstr.,tram,25,1956160_unified,"52.56794262,13.31192608",,,,,,,,1956278.0
Kurt-Schuhmacher-Platz,tram,25,1956161_unified,"52.56335709,13.32715511",,,,,,,,1956581.0
"Londonerstr., Strassenbahnhof",tram,25,1956162_unified,"52.56015136,13.33955687",,,,,,,,1956653.0
Seestr. Ecke Müllerstr.,tram,25,1956163_unified,"52.55044754,13.35197454",,,,,,,,1956981.0
Weddingplatz,tram,25,1956164_unified,"52.54152536,13.36919855",,,,,,,,19561175.0
Kriminalgericht,tram,25,1956165_unified,"52.52664000,13.35458000",Q121863924,,,,,,,1956569.0
Stromstr. Ecke Turmstr.,tram,25,1956166_unified,"52.52632254,13.34318535",,,,,,,,19561043.0
Turmstr. Ecke Gotzkowskystr.,tram,25,1956167_unified,"52.52723422,13.33050811",,,,,,,,19561086.0
U-Bhf. Ernst-Reuter-Platz,tram,25,1956168_unified,"52.51172658,13.32260140",,,,,,,,19561099.0
Bhf. Zoo,tram,25,1956169_unified,"52.50719346,13.33262988",,,,,,,,1956166.0
Wittenbergplatz,tram,25,1956170_unified,"52.50185026,13.34309835",,,,,,,,19561227.0
Grunewaldstr. Ecke Martin-Lutherstr.,tram,25,1956171_unified,"52.48911461,13.34498171",",",,,,,,,1956397.0
Badenschestr. Ecke Martin-Lutherstr.,tram,25,1956172_unified,"52.48560327,13.34506513",,,,,,,,195661.0
Rathaus Schöneberg (Belzigerstr.),tram,25,1956173_unified,"52.48461295,13.34517081",,,,,,,,1956849.0
Dominicusstr. Ecke Hauptstr.,tram,25,1956174_unified,"52.48178459,13.34836106",,,,,,,,1956266.0
Kaiser-Wilhelm-Platz,tram,25,1956175_unified,"52.48633166,13.35658468",,,,,,,,1956513.0
"Schöneberg, Gotenstr.",tram,25,1956176_unified,"52.48139451,13.36028490",,,,,,,,1956968.0
Spreewaldplatz,tram,26,1956177_unified,"52.49792228,13.43061701",,,,,,,,19561014.0
Reichenbergerstr.,tram,26,1956178_unified,"52.49553525,13.43036295",,,,,,,,1956861.0
Glogauerstr.,tram,26,1956179_unified,"52.49343700,13.43739125",,,,,,,,1956366.0
Sonnenallee,tram,26,1956180_unified,"52.48608536,13.43031148",,,,,,,,1956990.0
Hermannplatz,tram,26,1956181_unified,"52.48708557,13.42475245",,,,,,,,1956446.0
Weichselstr.,tram,26,1956182_unified,"52.48313753,13.43148031",,,,,,,,19561178.0
Rathaus Neukölln,tram,26,1956183_unified,"52.48156718,13.43428122",,,,,,,,1956844.0
Karl-Marxstr.-Station,tram,26,1956184_unified,"52.47611575,13.43937928",,,,,,,,1956527.0
U-Bhf. Neukölln,tram,26,1956185_unified,"52.46965568,13.44161494",,,,,,,,19561117.0
Hermannstr. Ecke Hertastr.,tram,26,1956186_unified,"52.46468382,13.43289577",,,,,,,,1956449.0
Germaniastr. Ecke Gottlieb-Dunkelstr.,tram,26,1956187_unified,"52.46053987,13.41805889",,,,,,,,1956354.0
"Tempelhof, Industriestr.",tram,26,1956188_unified,"52.45533980,13.40990180",,,,,,,,19561070.0
"Neukölln, Hermannplatz",tram,27,1956189_unified,"52.48645093,13.42424303",,,,,,,,1956725.0
U-Bhf. Boddinstr.,tram,27,1956190_unified,"52.48027865,13.42516905",,,,,,,,19561094.0
Bhf. Hermannstr.,tram,27,1956191_unified,"52.46768666,13.43121090",,,,,,,,1956118.0
Gradestr.,tram,27,1956192_unified,"52.45261828,13.43855271",,,,,,,,1956380.0
Mariendorferallee,tram,27,1956193_unified,"52.44417699,13.43356753",,,,,,,,1956677.0
"Buckow, Alt-Buckow",tram,27,1956194_unified,"52.42366888,13.43662763",,,,,,,,1956212.0
"Tegelort, Kurzestr.",tram,28,1956195_unified,"52.57057206,13.22914429",,,,,,,,19561060.0
Falkenplatz,tram,28,1956196_unified,"52.58528595,13.22745206",,,,,,,,1956305.0
Gabelung,tram,28,1956197_unified,"52.59988744,13.25203703",,,,,,,,1956342.0
Ruppinerchaussee Ecke Karolinenstr.,tram,28,1956198_unified,"52.59794147,13.27502436",,,,,,,,1956900.0
Alt-Tegel Ecke Schloßstr.,tram,28,1956199_unified,"52.58969334,13.28340091",,,,,,,,195624.0
Bernauerstr. Ecke Berlinerstr.,tram,28,1956200_unified,"52.57628304,13.29473157",,,,,,,,195699.0
"Eichenborndamm, Sportplatz Reinickendorf",tram,28,1956201_unified,"52.56791783,13.31195445",,,,,,,,1956281.0
Kurt-Schumacher-Platz,tram,28,1956202_unified,"52.56337003,13.32712512",,,,,,,,1956583.0
Londonerstr. Ecke Müllerstr.,tram,28,1956203_unified,"52.55872916,13.33738937",,,,,,,,1956654.0
Seestr. Ecke Müllerstr.,tram,28,1956204_unified,"52.55044754,13.35197454",,,,,,,,1956981.0
Müllerstr. Ecke Schulstr.,tram,28,1956205_unified,"52.54639789,13.35915043",,,,,,,,1956714.0
Reinickendorferstr. Ecke Schulstr.,tram,28,1956206_unified,"52.55157643,13.36736041",,,,,,,,1956869.0
Uferstr. Ecke Exerzierstr.,tram,28,1956207_unified,"52.55372400,13.37712267",,,,,,,,19561138.0
Pankstr./Prinzenallee,tram,28,1956208_unified,"52.55229630,13.38142104",,,,,,,,1956791.0
Bhf. Gesundbrunnen,tram,28,1956209_unified,"52.54913506,13.38715173",,,,,,,,1956112.0
Rügenesrstr. Ecke Brunnenstr.,tram,28,1956210_unified,"52.54471634,13.39101250",,,,,,,,1956906.0
"Heiligensee, Dorfaue",tram,29,1956211_unified,"52.60651089,13.21044464",,,,,,,,1956435.0
Hennigsdorferstr. Ecke Heiligensee,tram,29,1956212_unified,"52.61099507,13.21654711",,,,,,,,1956444.0
Gabelung,tram,29,1956213_unified,"52.59988744,13.25203703",,,,,,,,1956342.0
Ruppinerchaussee Ecke Karolinenstr.,tram,29,1956214_unified,"52.59794147,13.27502436",,,,,,,,1956900.0
Alt-Tegel Ecke Schloßstr.,tram,29,1956215_unified,"52.58969334,13.28340091",,,,,,,,195624.0
Bernauerstr. Ecke Berlinerstr.,tram,29,1956216_unified,"52.57628304,13.29473157",,,,,,,,195699.0
"Eichborndamm, Sportplatz Reinickendorf",tram,29,1956217_unified,"52.56784753,13.31180470",,,,,,,,1956279.0
Kurt-Schumacher-Platz,tram,29,1956218_unified,"52.56337003,13.32712512",,,,,,,,1956583.0
Londonerstr. Ecke Müllerstr.,tram,29,1956219_unified,"52.55872916,13.33738937",,,,,,,,1956654.0
Seestr. Ecke Müllerstr.,tram,29,1956220_unified,"52.55044754,13.35197454",,,,,,,,1956981.0
Müllerstr. Ecke Schulstr.,tram,29,1956221_unified,"52.54639789,13.35915043",,,,,,,,1956714.0
Reinickendorferstr. Ecke Schulstr.,tram,29,1956222_unified,"52.55157643,13.36736041",,,,,,,,1956869.0
Uferstr. Ekce Exerziestr.,tram,29,1956223_unified,"52.55376013,13.37708993",,,,,,,,19561139.0
Pankstr./Prinzenallee,tram,29,1956224_unified,"52.55229630,13.38142104",,,,,,,,1956791.0
Bhf. Gesundbrunnen,tram,29,1956225_unified,"52.54913506,13.38715173",,,,,,,,1956112.0
Rügenerstr. Ecke Brunnenstr.,tram,29,1956226_unified,"52.54468384,13.39105441",,,,,,,,1956905.0
"Siemensstradt, Nonnendammallee",tram,35,1956227_unified,"52.53828757,13.24772611",,,,,,,,1956987.0
Wernerwerk,tram,35,1956228_unified,"52.53552540,13.27577007",,,,,,,,19561193.0
Bhf. Jungfernheide,tram,35,1956229_unified,"52.53103414,13.30055948",,,,,,,,1956124.0
Tauroggenerstr. Ecke Osnabrückerstr.,tram,35,1956230_unified,"52.52583942,13.30193087",,,,,,,,19561057.0
Wiebestr. Ecke Huttenstr.,tram,35,1956231_unified,"52.52837387,13.31941765",,,,,,,,19561199.0
Gotzkowskystr. Ecke Turmstr.,tram,35,1956232_unified,"52.52723347,13.33050347",,,,,,,,1956378.0
Turmstr. Ecke Stromstr.,tram,35,1956233_unified,"52.52630830,13.34314531",,,,,,,,19561090.0
Rathenowerstr. Ecke Perlebergstr.,tram,35,1956234_unified,"52.53249140,13.35056840",,,,,,,,1956858.0
"Weddingplatz, Müllerstr.",tram,35,1956235_unified,"52.54067197,13.36925377",,,,,,,,19561176.0
Nettelbeckplatz,tram,35,1956236_unified,"52.54423653,13.36985307",,,,,,,,1956717.0
Schulstr. Ecke Reinickendorferstr.,tram,35,1956237_unified,"52.55156144,13.36736657",,,,,,,,1956962.0
Oskarplatz,tram,35,1956238_unified,"52.55701740,13.36599870",Q65767112,,,,,,,1956761.0
Pankowerallee Ecke Residenzstr.,tram,35,1956239_unified,"52.56382390,13.36428714",,,,,,,,1956789.0
Residenzstr. Ecke Alt-Reinickendorf,tram,35,1956240_unified,"52.57425517,13.35915958",,,,,,,,1956872.0
Graf-Roedern-Allee Ecke Alt-Reinickendorf,tram,35,1956241_unified,"52.57582679,13.34782317",,,,,,,,1956382.0
"Reinickendorf, Teichstr. Ecke Humboldtstr.",tram,35,1956242_unified,"52.57463493,13.34600018",,,,,,,,1956867.0
Bhf. Wilhelmsruh,tram,36,1956243_unified,"52.58108510,13.36343879",,,,,,,,1956157.0
Residenzstr. Ecke Alt-Reinickendorf,tram,36,1956244_unified,"52.57425517,13.35915958",,,,,,,,1956872.0
"Pankowerallee, Schäfersee",tram,36,1956245_unified,"52.56380596,13.36429106",,,,,,,,1956785.0
"Pankowerallee, Strassenbahnhof",tram,36,1956246_unified,"52.56413460,13.37143991",,,,,,,,1956786.0
Pankowerallee Ecke Provinzstr.,tram,36,1956247_unified,"52.56468701,13.37806438",,,,,,,,1956784.0
Osloerstr. Ecke Kolonie-Drontheim,tram,36,1956248_unified,"52.55646705,13.37707180",,,,,,,,1956763.0
Schwedenstr./Uferstr.,tram,36,1956249_unified,"52.55391106,13.37708343",,,,,,,,1956966.0
Pankstr. Ecke Badstr.,tram,36,1956250_unified,"52.55232676,13.38135951",,,,,,,,1956790.0
Bhf. Gesundbrunnen,tram,36,1956251_unified,"52.54913506,13.38715173",,,,,,,,1956112.0
Rügenerstr. Ecke Brunnenstr.,tram,36,1956252_unified,"52.54468384,13.39105441",,,,,,,,1956905.0
"Dahlem, Clayallee",tram,40,1956253_unified,"52.45975923,13.27462866",,,,,,,,1956247.0
Pacelliallee/Thielallee,tram,40,1956254_unified,"52.45822301,13.28706690",,,,,,,,1956775.0
U-Bhf. Dahlem-Dorf,tram,40,1956255_unified,"52.45806630,13.29031048",,,,,,,,19561096.0
Podbielskiallee (Botanischer Garten),tram,40,1956256_unified,"52.45866345,13.30379509",,,,,,,,1956806.0
Rathaus Steglitz,tram,40,1956257_unified,"52.45691683,13.32074535",,,,,,,,1956853.0
Bhf. Steglitz,tram,40,1956258_unified,"52.45628485,13.32238385",,,,,,,,1956150.0
Klingsorstr. Ecke Birkbuschstr.,tram,40,1956259_unified,"52.44753002,13.32634388",,,,,,,,1956550.0
"Steglitz, Birkbuschstr. Ecke Siemensstr.",tram,40,1956260_unified,"52.44243084,13.33209460",,,,,,,,19561029.0
"Tegel, Alt-Tegel",tram,41,1956261_unified,"52.58990423,13.28330695",,,,,,,,19561059.0
Bernauerstr. Ecke Berlinerstr.,tram,41,1956262_unified,"52.57628304,13.29473157",,,,,,,,195699.0
Eichborndamm Ecke Scharnweberstr.,tram,41,1956263_unified,"52.56794262,13.31192608",,,,,,,,1956278.0
Kurt-Schuhmacher-Platz,tram,41,1956264_unified,"52.56335709,13.32715511",,,,,,,,1956581.0
Graf-Roedernallee Ecke Reinickendorferstr.,tram,41,1956265_unified,"52.57584986,13.34786235",,,,,,,,1956383.0
Aroserallee Ecke Reinickendorferstr.,tram,41,1956266_unified,"52.57498246,13.35238254",,,,,,,,195650.0
Residenzstr. Ecke Alt-Reinickendorf,tram,41,1956267_unified,"52.57425517,13.35915958",,,,,,,,1956872.0
Pankowerallee (Schäfersee),tram,41,1956268_unified,"52.56381925,13.36434089",,,,,,,,1956787.0
Osloerstr. Ecke Schwedenstr.,tram,41,1956269_unified,"52.55673817,13.37381994",,,,,,,,1956766.0
Uferstr. Ecke Badstr.,tram,41,1956270_unified,"52.55371471,13.37727109",,,,,,,,19561137.0
Pankstr./Prinzenallee,tram,41,1956271_unified,"52.55229630,13.38142104",,,,,,,,1956791.0
U-Bhf. Gesundbrunnen,tram,41,1956272_unified,"52.54821571,13.38830481",,,,,,,,19561104.0
Usedomerstr.,tram,41,1956273_unified,"52.54110977,13.39379524",,,,,,,,19561151.0
Brunnenstr. Ecke Bernauerstr.,tram,41,1956274_unified,"52.53807160,13.39546530",Q65720089,,,,,,,1956205.0
Bernauerstr. Ecke Wollinerstr.,tram,41,1956275_unified,"52.53999960,13.40205640",Q65719652,,,,,,,1956100.0
"Sandkrugbrücke, Lehrter Bahnhof",tram,44,1956276_unified,"52.52767207,13.37315298",,,,,,,,1956940.0
Rathenowerstr. Ecke Invalidenstr.,tram,44,1956277_unified,"52.52364995,13.35693061",,,,,,,,1956857.0
Stromstr. Ecke Alt-Moabit,tram,44,1956278_unified,"52.52542313,13.34283987",,,,,,,,19561041.0
Gotzkowskystr. Ecke Alt-Moabit,tram,44,1956279_unified,"52.52377729,13.32978729",,,,,,,,1956376.0
U-Bhf. Ernst-Reuter-Platz,tram,44,1956280_unified,"52.51172658,13.32260140",,,,,,,,19561099.0
Wilmersdorferstr. Ecke Berlinerstr.,tram,44,1956281_unified,"52.51810404,13.30449192",,,,,,,,19561217.0
Kantstr. Ecke Wilmersdorferstr.,tram,44,1956282_unified,"52.50669670,13.30667853",,,,,,,,1956523.0
Kurfürstendamm Ecke Wilmersdorferstr.,tram,44,1956283_unified,"52.49999902,13.30701946",,,,,,,,1956576.0
Fehrbellinerplatz,tram,44,1956284_unified,"52.49032473,13.31431730",,,,,,,,1956308.0
Berlinerstr. Ecke Blissestr.,tram,44,1956285_unified,"52.48648463,13.32042373",,,,,,,,195689.0
Hildegardstr. Ecke Bundesallee,tram,44,1956286_unified,"52.48165881,13.32943520",,,,,,,,1956458.0
Bundesplatz,tram,44,1956287_unified,"52.47777991,13.32856619",,,,,,,,1956223.0
Friedrich-Wilhelm-Platz,tram,44,1956288_unified,"52.47132416,13.32841722",,,,,,,,1956331.0
Titania-Palast,tram,44,1956289_unified,"52.46403256,13.32750541",,,,,,,,19561079.0
Bhf. Steglitz,tram,44,1956290_unified,"52.45628485,13.32238385",,,,,,,,1956150.0
Schloßstr. Ecke Albrechtstr.,tram,44,1956291_unified,"52.45689967,13.32071750",,,,,,,,1956953.0
Birkbuschstr. Ecke Siemensstr.,tram,44,1956292_unified,"52.44244068,13.33208896",,,,,,,,1956169.0
"Niederschönhausen, Schillerstr.",tram,46,1956293_unified,"52.59230510,13.41088000",Q65032581,,,,,,,1956728.0
"Nordend, Dietzgenstr.",tram,46,1956294_unified,"52.59006654,13.40176941",,,,,,,,1956737.0
Ossietzkyplatz,tram,46,1956295_unified,"52.58100580,13.40401481",,,,,,,,1956769.0
Kurt-Fischer-Platz,tram,46,1956296_unified,"52.57866800,13.39830160",Q65032974,,,,,,,1956580.0
"Breitestr., Pankow, Rathaus",tram,46,1956297_unified,"52.56948160,13.40380450",Q65055060,,,,,,,1956194.0
"Pankow, Kirche",tram,46,1956298_unified,"52.57064520,13.41031150",Q65055066,,,,,,,1956781.0
"S-Bhf. Pankow, Florastr.",tram,46,1956299_unified,"52.56665023,13.40977581",,,,,,,,1956923.0
U-Bhf. Vinetastr.,tram,46,1956300_unified,"52.55961680,13.41323200",Q65075426,,,,,,,19561134.0
S-Bhf. Schönhauserallee,tram,46,1956301_unified,"52.54936190,13.41357340",Q65088013,,,,,,,1956929.0
"Eberswalderstr., U-Bhf. Dimitroffstr.",tram,46,1956302_unified,"52.54019280,13.41139790",Q65088313,,,,,,,1956275.0
Zionskirchstr.,tram,46,1956303_unified,"52.53410665,13.40496398",,,,,,,,19561248.0
Veteranenstr. Ecke Brunnenstr.,tram,46,1956304_unified,"52.53245420,13.39742360",Q65691740,,,,,,,19561155.0
Invalidenstr. Ecke Chausseestr.,tram,46,1956305_unified,"52.53041580,13.38273020",Q65552697,,,,,,,1956497.0
Oranienburger Tor,tram,46,1956306_unified,"52.52560310,13.38727450",Q65095375,,,,,,,1956754.0
"Weidendammbrücke, Bhf. Friedrichstr.",tram,46,1956307_unified,"52.52169302,13.38797771",,,,,,,,19561179.0
Am Kupfergraben,tram,46,1956308_unified,"52.51942080,13.39538390",Q65055027,,,,,,,195635.0
Hermannplatz,tram,47,1956309_unified,"52.48708557,13.42475245",,,,,,,,1956446.0
"Erkstr., Rathaus Neukölln",tram,47,1956310_unified,"52.48088289,13.43544595",,,,,,,,1956298.0
Karl-Marxstr. Station,tram,47,1956311_unified,"52.47610260,13.43944506",,,,,,,,1956526.0
U-Bhf. Neukölln,tram,47,1956312_unified,"52.46965568,13.44161494",,,,,,,,19561117.0
U-Bhf. Grenzallee,tram,47,1956313_unified,"52.46348179,13.44437727",,,,,,,,19561106.0
Buschkrug,tram,47,1956314_unified,"52.45247090,13.45074820",,,,,,,,1956225.0
Parchimerallee Ecke Rudowerstr.,tram,47,1956315_unified,"52.44546833,13.45502533",,,,,,,,1956795.0
Krankenhaus Neukölln,tram,47,1956316_unified,"52.43977054,13.45935906",,,,,,,,1956566.0
Johannisthalerchaussee Ecke Rudowerstr.,tram,47,1956317_unified,"52.43434486,13.46906946",,,,,,,,1956506.0
Wildmeisterdamm,tram,47,1956318_unified,"52.42612406,13.48276595",,,,,,,,19561209.0
"Rudow, Bahnhofstr.",tram,47,1956319_unified,"52.40195521,13.51319618",,,,,,,,1956895.0
Buchholz,tram,49,1956320_unified,"52.61907206,13.39338336",,,,,,,,1956211.0
Eweststr.,tram,49,1956321_unified,"52.59407923,13.43217120",,,,,,,,1956300.0
"Galenusstr., Pankow, Krankenhaus",tram,49,1956322_unified,"52.58181830,13.42876780",Q66195410,,,,,,,1956343.0
S-Bhf. Pankow-Heinersdorf,tram,49,1956323_unified,"52.57750782,13.42785306",,,,,,,,1956924.0
"Pankow, Kirche",tram,49,1956324_unified,"52.57064520,13.41031150",Q65055066,,,,,,,1956781.0
"S-Bhf. Pankow, Florastr.",tram,49,1956325_unified,"52.56665023,13.40977581",,,,,,,,1956923.0
U-Bhf. Vinetastr.,tram,49,1956326_unified,"52.55961680,13.41323200",Q65075426,,,,,,,19561134.0
S-Bhf. Schönhauserallee,tram,49,1956327_unified,"52.54936190,13.41357340",Q65088013,,,,,,,1956929.0
"Eberswalderstr., U-Bhf. Dimitroffstr.",tram,49,1956328_unified,"52.54019280,13.41139790",Q65088313,,,,,,,1956275.0
Zionskirchstr.,tram,49,1956329_unified,"52.53410665,13.40496398",,,,,,,,19561248.0
Rosenthalerplatz,tram,49,1956330_unified,"52.53017690,13.40161210",Q65093945,,,,,,,1956891.0
Hackescher Markt,tram,49,1956331_unified,"52.52270059,13.40160586",Q65094590,,,,,,,1956410.0
Große Präsidentenstr.,tram,49,1956332_unified,"52.52326346,13.40113459",,,,,,,,1956392.0
"Roseneck, Grunewald",tram,51,1956333_unified,"52.47683489,13.28092533",,,,,,,,1956887.0
U-Bhf. Heidelbergerplatz,tram,51,1956334_unified,"52.48019262,13.31240105",,,,,,,,19561109.0
Berlinerstr. Ecke Uhlandstr.,tram,51,1956335_unified,"52.48648936,13.32251576",,,,,,,,195694.0
U-Bhf. Hohenzollernplatz,tram,51,1956336_unified,"52.49388141,13.32412807",,,,,,,,19561110.0
U-Bhf. Uhlandstr.,tram,51,1956337_unified,"52.50265789,13.32593310",,,,,,,,19561132.0
Bhf. Zoo,tram,51,1956338_unified,"52.50719346,13.33262988",,,,,,,,1956166.0
"Spandau, Johannesstift",tram,54,1956339_unified,"52.56765350,13.19183036",,,,,,,,1956999.0
"Spandau, Stadtpark",tram,54,1956340_unified,"52.56203117,13.19705297",,,,,,,,19561003.0
Fehrbelliner Tor,tram,54,1956341_unified,"52.55534911,13.19862189",,,,,,,,1956310.0
Hafenplatz,tram,54,1956342_unified,"52.54229255,13.20620113",,,,,,,,1956413.0
"Spandau, Markt",tram,54,1956343_unified,"52.53784350,13.20413543",,,,,,,,19561001.0
Bhf. Spandau,tram,54,1956344_unified,"52.53469534,13.19948962",,,,,,,,1956146.0
Teltowerstr. Ecke Charlottenburgerstr.,tram,54,1956345_unified,"52.52694633,13.21601948",,,,,,,,19561066.0
U-Bhf. Ruhleben,tram,54,1956346_unified,"52.52595777,13.24137187",,,,,,,,19561125.0
Schloß Ruhwald,tram,54,1956347_unified,"52.52172957,13.25972837",,,,,,,,1956952.0
Königin-Elisabethstr. Ecke Spandauerdamm,tram,54,1956348_unified,"52.51836598,13.28021074",,,,,,,,1956588.0
Schloßstr. Ecke Spandauerdamm,tram,54,1956349_unified,"52.51943665,13.29585615",,,,,,,,1956957.0
Luisenplatz,tram,54,1956350_unified,"52.51951940,13.30002435",,,,,,,,1956656.0
Wilmersdorferstr. Ecke Berlinerstr.,tram,54,1956351_unified,"52.51810404,13.30449192",,,,,,,,19561217.0
U-Bhf. Richard-Wagner-Platz,tram,54,1956352_unified,"52.51748234,13.30658446",,,,,,,,19561123.0
Leibnizstr. Ecke Berlinerstr.,tram,54,1956353_unified,"52.51465833,13.31518122",,,,,,,,1956616.0
U-Bhf. Ernst-Reuter-Platz,tram,54,1956354_unified,"52.51172658,13.32260140",,,,,,,,19561099.0
Kantstr. Ecke Hardenburgerstr.,tram,54,1956355_unified,"52.50545801,13.33392938",,,,,,,,1956522.0
Bhf. Zoo,tram,54,1956356_unified,"52.50719346,13.33262988",,,,,,,,1956166.0
"Spandau, Nauenerstr.",tram,55,1956357_unified,"52.53843225,13.18234539",,,,,,,,19561002.0
"Spandau, Markt",tram,55,1956358_unified,"52.53784350,13.20413543",,,,,,,,19561001.0
Siedlung Haselhorst,tram,55,1956359_unified,"52.54187454,13.23587661",,,,,,,,1956983.0
Gartenfelderstr. Ecke Paulsternstr.,tram,55,1956360_unified,"52.54413345,13.24708023",,,,,,,,1956347.0
Verwaltungsgebäude,tram,55,1956361_unified,"52.53699731,13.26226422",,,,,,,,19561154.0
Bhf. Jungfernheide,tram,55,1956362_unified,"52.53103414,13.30055948",,,,,,,,1956124.0
Luisenplatz,tram,55,1956363_unified,"52.51951940,13.30002435",,,,,,,,1956656.0
U-Bhf. Richard-Wagner-Platz,tram,55,1956364_unified,"52.51748234,13.30658446",,,,,,,,19561123.0
Knie,tram,55,1956365_unified,"52.51266888,13.32185992",,,,,,,,1956553.0
Bhf. Zoo,tram,55,1956366_unified,"52.50719346,13.33262988",,,,,,,,1956166.0
Königin-Elisabethstr. Ecke Kaiserdamm,tram,60,1956367_unified,"52.51001645,13.28183896",,,,,,,,1956587.0
Spandauerdamm Königin-Elisabethstr.,tram,60,1956368_unified,"52.51838060,13.28020893",,,,,,,,19561007.0
Klausenerplatz,tram,60,1956369_unified,"52.51920201,13.29186737",,,,,,,,1956543.0
Schlossstr. Ecke Suarezstr.,tram,60,1956370_unified,"52.51097987,13.29734687",,,,,,,,1956951.0
Kaiser-Friedrichstr. Ecke Kantstr.,tram,60,1956371_unified,"52.50677000,13.30233639",,,,,,,,1956511.0
Stuttgarterplatz,tram,60,1956372_unified,"52.50566811,13.30686450",,,,,,,,19561045.0
Kurfürstendamm Ecke Wilmersdorferstr.,tram,60,1956373_unified,"52.49999902,13.30701946",,,,,,,,1956576.0
Konstanzerstr. Ecke Brandenburgischestr.,tram,60,1956374_unified,"52.49353646,13.31014241",,,,,,,,1956558.0
Westfälischestr. Ecke Brandenburgischestr.,tram,60,1956375_unified,"52.49140704,13.31274307",,,,,,,,19561195.0
Fehrbellinerplatz,tram,60,1956376_unified,"52.49032473,13.31431730",,,,,,,,1956308.0
Blissestr. Ecke Berlinerstr.,tram,60,1956377_unified,"52.48649404,13.32042177",,,,,,,,1956183.0
Uhlandstr. Ecke Berlinerstr.,tram,60,1956378_unified,"52.48648120,13.32242636",,,,,,,,19561141.0
Badenschestr. Ecke Berlinerstr.,tram,60,1956379_unified,"52.48664140,13.32769076",,,,,,,,195659.0
Bundesallee Ecke Berlinerstr.,tram,60,1956380_unified,"52.48733630,13.33101416",,,,,,,,1956220.0
Martin-Lutherstr. Ecke Grunewaldstr.,tram,60,1956381_unified,"52.48908287,13.34506639",,,,,,,,1956689.0
Hauptstr. Ecke Dominicusstr.,tram,60,1956382_unified,"52.48179322,13.34838566",,,,,,,,1956424.0
Bhf. Papestr.,tram,60,1956383_unified,"52.47408874,13.36380474",,,,,,,,1956138.0
Sachsendamm Ecke Alboinstr.,tram,60,1956384_unified,"52.47043069,13.37277491",,,,,,,,1956937.0
Lindenhof Eythstr.,tram,60,1956385_unified,"52.45989496,13.36216742",,,,,,,,1956645.0
"Hohenschönhausen, Gartenstadt",tram,63,1956386_unified,"52.55086720,13.50949940",Q65555882,,,,,,,1956470.0
Falkenbergerstr. Ecke Wartenbergerstr.,tram,63,1956387_unified,"52.55036672,13.50991503",,,,,,,,1956303.0
Freienwalderstr. Ecke Orankestr.,tram,63,1956388_unified,"52.54435170,13.49299920",Q65555700,,,,,,,1956326.0
Weißenseerweg,tram,63,1956389_unified,"52.53225800,13.47670500",Q65942700,,,,,,,19561188.0
Steuerhaus,tram,63,1956390_unified,"52.53049300,13.46149890",Q65553632,,,,,,,19561032.0
S-Bhf. Leninallee,tram,63,1956391_unified,"52.52851097,13.45586231","nan, nan",,,,,,,1956919.0
"Leninallee, Dimitroffstr.",tram,63,1956392_unified,"52.52635269,13.44764781",,,,,,,,1956624.0
Leninplatz,tram,63,1956393_unified,"52.52326580,13.43264570",Q65553105,,,,,,,1956628.0
Kleine Frankfurterstr.,tram,63,1956394_unified,"52.52316104,13.42784979",,,,,,,,1956544.0
"Alexanderplatz, Memhardstr.",tram,63,1956395_unified,"52.52334390,13.41107730",Q65227406,,,,,,,195611.0
U-Bhf. Weinmeisterstr.,tram,63,1956396_unified,"52.52532150,13.40350470",Q65094293,,,,,,,19561135.0
Hackescher Markt,tram,63,1956397_unified,"52.52270059,13.40160586",Q65094590,,,,,,,1956410.0
Große Präsidentenstr.,tram,63,1956398_unified,"52.52326346,13.40113459",,,,,,,,1956392.0
"Hohenschönhausen, Falkenbergerstr.",tram,64,1956399_unified,"52.55086720,13.50949940",Q65555882,,,,,,,1956469.0
Orankestr.,tram,64,1956400_unified,"52.54404811,13.49229386",,,,,,,,1956759.0
Weißenseerweg,tram,64,1956401_unified,"52.53225800,13.47670500",Q65942700,,,,,,,19561188.0
Steuerhaus,tram,64,1956402_unified,"52.53049300,13.46149890",Q65553632,,,,,,,19561032.0
S-Bhf. Leninallee,tram,64,1956403_unified,"52.52851097,13.45586231","nan, nan",,,,,,,1956919.0
Leninallee Ecke Dimitroffstr.,tram,64,1956404_unified,"52.52637687,13.44760955",,,,,,,,1956623.0
Leninplatz,tram,64,1956405_unified,"52.52326580,13.43264570",Q65553105,,,,,,,1956628.0
Kleine Frankfurterstr.,tram,64,1956406_unified,"52.52316104,13.42784979",,,,,,,,1956544.0
"Alexanderplatz, Grunestr.",tram,64,1956407_unified,"52.52008326,13.41408419",,,,,,,,195610.0
Bhf. Jannowitzbrücke,tram,64,1956408_unified,"52.51476677,13.41791870",,,,,,,,1956122.0
U-Bhf. Neanderstr.,tram,64,1956409_unified,"52.51103451,13.41638558",,,,,,,,19561116.0
Spittelmarkt,tram,64,1956410_unified,"52.51124332,13.40494540",,,,,,,,19561011.0
"Dönhoffplatz, Krausenstr.",tram,64,1956411_unified,"52.51008269,13.39891167",,,,,,,,1956273.0
Belzigerstr. Ecke Martin-Lutherstr.,tram,66,1956412_unified,"52.48460511,13.34520300",,,,,,,,195684.0
Hauptstr. Ecke Dominicusstr.,tram,66,1956413_unified,"52.48179322,13.34838566",,,,,,,,1956424.0
Innsbruckerplatz,tram,66,1956414_unified,"52.47804266,13.34344688",,,,,,,,1956492.0
Traegerstr.,tram,66,1956415_unified,"52.47629622,13.34118853",,,,,,,,19561080.0
Ceciliengärten,tram,66,1956416_unified,"52.47507947,13.34306477",,,,,,,,1956233.0
Beckerstr. Ecke Rubensstr.,tram,66,1956417_unified,"52.46715058,13.34420202",,,,,,,,195680.0
Canovastr. (Krankenhaus),tram,66,1956418_unified,"52.46319679,13.34468869",,,,,,,,1956232.0
Thorwaldsenstr. Ecke Grazerdamm,tram,66,1956419_unified,"52.45913402,13.34873604",,,,,,,,19561075.0
"Bhf. Wittenau, Nordbahn, Cyclopstr.",tram,68,1956420_unified,"52.59763812,13.33245625",,,,,,,,1956159.0
Alt-Wittenau Ecke Oranienburgerstr.,tram,68,1956421_unified,"52.58971751,13.33418250",,,,,,,,195629.0
Heilanstalt,tram,68,1956422_unified,"52.58284635,13.33436306",,,,,,,,1956433.0
Kurt-Schuhmacher-Platz,tram,68,1956423_unified,"52.56335709,13.32715511",,,,,,,,1956581.0
Londonerstr. Ecke Müllerstr.,tram,68,1956424_unified,"52.55872916,13.33738937",,,,,,,,1956654.0
Seestr. Ecke Müllerstr.,tram,68,1956425_unified,"52.55044754,13.35197454",,,,,,,,1956981.0
Schulstr. Ecke Müllerstr.,tram,68,1956426_unified,"52.54639010,13.35914132",,,,,,,,1956961.0
Nettelbeckplatz,tram,68,1956427_unified,"52.54423653,13.36985307",,,,,,,,1956717.0
"Johannisthal, Haeckelstr.",tram,69,1956428_unified,"52.44029440,13.50526380",Q66225573,,,,,,,1956504.0
Königsweide,tram,69,1956429_unified,"52.44677990,13.50667070",Q66236157,,,,,,,1956596.0
Bhf. Schöneweide,tram,69,1956430_unified,"52.45640818,13.50991657",,,,,,,,1956143.0
Oberschöneweide Ecke Wilhelminenhofstr.,tram,69,1956431_unified,"52.46244038,13.51413138",,,,,,,,1956742.0
"Hegemeisterweg, Rennbahn",tram,69,1956432_unified,"52.47416630,13.52040160",Q65951916,,,,,,,1956431.0
S-Bhf. Karlshorst,tram,69,1956433_unified,"52.48133100,13.52544330",Q65952829,,,,,,,1956915.0
Tierpark Berlin,tram,69,1956434_unified,"52.50297205,13.52091647",,,,,,,,19561078.0
Schlossstr. Ecke Alt-Friedrichsfelde,tram,69,1956435_unified,"52.50962903,13.51868779",,,,,,,,1956950.0
Bhf. Lichtenberg,tram,69,1956436_unified,"52.51236030,13.49775470",Q66013733,,,,,,,1956127.0
"BVG-Bf. Lichtenberg, Siegfriedstr.",tram,69,1956437_unified,"52.52064110,13.49944540",Q66014798,,,,,,,195656.0
Roederplatz,tram,69,1956438_unified,"52.52660010,13.47906800",Q65685373,,,,,,,1956883.0
Steuerhaus,tram,69,1956439_unified,"52.53049300,13.46149890",Q65553632,,,,,,,19561032.0
Leninallee Ecke Dimitroffstr.,tram,69,1956440_unified,"52.52637687,13.44760955",,,,,,,,1956623.0
Leninplatz,tram,69,1956441_unified,"52.52326580,13.43264570",Q65553105,,,,,,,1956628.0
"Alexanderplatz, Memhardstr.",tram,69,1956442_unified,"52.52334390,13.41107730",Q65227406,,,,,,,195611.0
Hackescher Markt,tram,69,1956443_unified,"52.52270059,13.40160586",Q65094590,,,,,,,1956410.0
Oranienburger Tor,tram,69,1956444_unified,"52.52560310,13.38727450",Q65095375,,,,,,,1956754.0
Walter-Ulbricht-Stadion,tram,69,1956445_unified,"52.53596333,13.37632165",,,,,,,,19561163.0
"Hohenschönhausen, Falkenbergerstr.",tram,70,1956446_unified,"52.55086720,13.50949940",Q65555882,,,,,,,1956469.0
Suermondtstr. Ecke Hauptstr.,tram,70,1956447_unified,"52.54903058,13.50161485",,,,,,,,19561049.0
Stadion Buschallee,tram,70,1956448_unified,"52.55667180,13.48698340",Q65504715,,,,,,,19561016.0
Buschallee Ecke Klement-Gottwald-Allee,tram,70,1956449_unified,"52.55375980,13.46919660",Q65546661,,,,,,,1956224.0
Antonplatz,tram,70,1956450_unified,"52.54848030,13.45174160",Q65548849,,,,,,,195647.0
Prenzlauer Promenade Ecke Gustav-Adolfstr.,tram,70,1956451_unified,"52.55175629,13.43036423",,,,,,,,1956822.0
"Wichertstr., Humannplatz",tram,70,1956452_unified,"52.54849083,13.42153020",,,,,,,,19561198.0
Schönhauserallee,tram,70,1956453_unified,"52.55377050,13.41388980",Q65076842,,,,,,,1956973.0
Zionskirchstr.,tram,70,1956454_unified,"52.53410665,13.40496398",,,,,,,,19561248.0
Invalidenstr. Ecke Brunnenstr.,tram,70,1956455_unified,"52.53245420,13.39742360",Q65691740,,,,,,,1956495.0
Invalidenstr. Ecke Chausseestr.,tram,70,1956456_unified,"52.53041580,13.38273020",Q65552697,,,,,,,1956497.0
Oranienburger Tor,tram,70,1956457_unified,"52.52560310,13.38727450",Q65095375,,,,,,,1956754.0
"Weidendammbrücke, Bhf. Friedrichstr.",tram,70,1956458_unified,"52.52169302,13.38797771",,,,,,,,19561179.0
Clara-Zetkinstr. Ecke Neue Wilhelmstr.,tram,70,1956459_unified,"52.51818349,13.38042348",,,,,,,,1956241.0
"Heinersdorf, Romain-Rollandstr.",tram,71,1956460_unified,"52.57255110,13.43710630",Q65096052,,,,,,,1956441.0
"Heinersdorf, Kirche",tram,71,1956461_unified,"52.56869080,13.43890530",Q65096107,,,,,,,1956440.0
"Am Steinberg, Thulestr.",tram,71,1956462_unified,"52.55644689,13.42922646",,,,,,,,195637.0
Prenzlauer Promenade Ecke Wisbyerstr.,tram,71,1956463_unified,"52.55114993,13.43015763",,,,,,,,1956824.0
S-Bhf. Prenzlauerallee,tram,71,1956464_unified,"52.54480750,13.42740800",Q65219791,,,,,,,1956925.0
Dimitroffstr. Ecke Prenzlauerallee,tram,71,1956465_unified,"52.53922690,13.42420920",,,,,,,,1956261.0
Saarbrückerstr. Ecke Prenzlauer Tor,tram,71,1956466_unified,"52.52860241,13.41703644",,,,,,,,1956932.0
"Alexanderplatz, Grunerstr.",tram,71,1956467_unified,"52.52008326,13.41408419",,,,,,,,19569.0
"Jüdenstr., Berliner Rathaus",tram,71,1956468_unified,"52.51752981,13.41012157",,,,,,,,1956509.0
"Weißensee, Rennbahnstr. Ecke Parkstr.",tram,72,1956469_unified,"52.55895644,13.46204258",,,,,,,,19561185.0
Klement-Gottwald-Allee Ecke Bernkastelerstr.,tram,72,1956470_unified,"52.55702058,13.46690319",,,,,,,,1956545.0
Antonplatz,tram,72,1956471_unified,"52.54848030,13.45174160",Q65548849,,,,,,,195647.0
Gustav-Adolfstr. Ecke Prenzlauer Promenade,tram,72,1956472_unified,"52.55168802,13.43034930",,,,,,,,1956405.0
S-Bhf. Prenzlauerallee,tram,72,1956473_unified,"52.54480750,13.42740800",Q65219791,,,,,,,1956925.0
Dimitroffstr. Ecke Prenzlauerallee,tram,72,1956474_unified,"52.53922690,13.42420920",,,,,,,,1956261.0
"Saarbrückerstr., Prenzlauer Tor",tram,72,1956475_unified,"52.52860241,13.41703644",,,,,,,,1956933.0
"Alexanderplatz, Grunerstr.",tram,72,1956476_unified,"52.52008326,13.41408419",,,,,,,,19569.0
Molkenmarkt,tram,72,1956477_unified,"52.51679321,13.40933062",,,,,,,,1956707.0
Roßstr. Ecke Breitestr.,tram,72,1956478_unified,"52.51204472,13.40869460",,,,,,,,1956893.0
Charlottenstr. Ecke Taubenstr.,tram,72,1956479_unified,"52.51312230,13.39137347",,,,,,,,1956236.0
Bhf. Lichterfelde-Ost,tram,73,1956480_unified,"52.42891494,13.32900292",,,,,,,,1956130.0
"Wiesenbaude, Giesendorferstr.",tram,73,1956481_unified,"52.43129460,13.30961031",,,,,,,,19561206.0
Hindenburgdamm Ecke Schloßstr.,tram,73,1956482_unified,"52.45350181,13.31562343",,,,,,,,1956460.0
Rathaus Steglitz,tram,73,1956483_unified,"52.45691683,13.32074535",,,,,,,,1956853.0
Schloßstr. Ecke Bundesallee,tram,73,1956484_unified,"52.46494568,13.32850852",,,,,,,,1956956.0
Kaisereiche,tram,73,1956485_unified,"52.46894213,13.33267296",,,,,,,,1956516.0
Lauterplatz,tram,73,1956486_unified,"52.47552895,13.34016015",,,,,,,,1956613.0
Innsbruckerplatz,tram,73,1956487_unified,"52.47804266,13.34344688",,,,,,,,1956492.0
Dominicusstr. Ecke Hauptstr.,tram,73,1956488_unified,"52.48178459,13.34836106",,,,,,,,1956266.0
Eisenacherstr. Ecke Hauptstr.,tram,73,1956489_unified,"52.48459361,13.35306003",,,,,,,,1956285.0
Pallasstr. Ecke Potsdamerstr.,tram,73,1956490_unified,"52.49433491,13.36106668",,,,,,,,1956777.0
U-Bhf. Bülowstr.,tram,73,1956491_unified,"52.49779471,13.36204149",,,,,,,,19561095.0
Lützowstr. Ecke Potdamerstr.,tram,73,1956492_unified,"52.50308591,13.36568821",,,,,,,,1956661.0
"Potsdamerplatz, Linkstr.",tram,73,1956493_unified,"52.50856493,13.37713268",,,,,,,,1956812.0
"Lichtefelde, Finckensteinallee",tram,74,1956494_unified,"52.43248606,13.29928827",,,,,,,,1956631.0
Wiesenbaude,tram,74,1956495_unified,"52.43330952,13.30727218",,,,,,,,19561205.0
Hindenburgdamm Ecke Schloßstr.,tram,74,1956496_unified,"52.45350181,13.31562343",,,,,,,,1956460.0
Rathaus Steglitz,tram,74,1956497_unified,"52.45691683,13.32074535",,,,,,,,1956853.0
Bundesallee,tram,74,1956498_unified,"52.46490360,13.32839963",,,,,,,,1956218.0
Innsbruckerplatz,tram,74,1956499_unified,"52.47804266,13.34344688",,,,,,,,1956492.0
Dominicusstr.,tram,74,1956500_unified,"52.48182812,13.34836902",,,,,,,,1956264.0
Pallasstr.,tram,74,1956501_unified,"52.49433532,13.36103444",,,,,,,,1956776.0
Bülowstr.,tram,74,1956502_unified,"52.49781334,13.36204006",,,,,,,,1956227.0
"Potsdamerplatz, Linkstr.",tram,74,1956503_unified,"52.50856493,13.37713268",,,,,,,,1956812.0
"Wießensee, Rennbahnstr. Ecke Parkstr.",tram,74,1956504_unified,"52.55895924,13.46204494",,,,,,,,19561207.0
Klement-Gottwald-Allee Ecke Bernkastelerstr.,tram,74,1956505_unified,"52.55702058,13.46690319",,,,,,,,1956545.0
Antonplatz,tram,74,1956506_unified,"52.54848030,13.45174160",Q65548849,,,,,,,195647.0
S-Bhf. Greifswalderstr.,tram,74,1956507_unified,"52.54072340,13.43829040",Q65548932,,,,,,,1956913.0
Dimitroffstr. Ecke Greifswalderstr.,tram,74,1956508_unified,"52.53616929,13.43302316",,,,,,,,1956260.0
Königstor,tram,74,1956509_unified,"52.52821600,13.42386902",,,,,,,,1956593.0
"Alexanderplatz, Grunerstr.",tram,74,1956510_unified,"52.52008326,13.41408419",,,,,,,,19569.0
Molkenmarkt,tram,74,1956511_unified,"52.51679321,13.40933062",,,,,,,,1956707.0
Spittelmarkt,tram,74,1956512_unified,"52.51124332,13.40494540",,,,,,,,19561011.0
Charlottenstr. Ecke Taubenstr.,tram,74,1956513_unified,"52.51312230,13.39137347",,,,,,,,1956236.0
"Bhf. Zoo, Kantstr.",tram,75,1956514_unified,"52.50540350,13.33036756",,,,,,,,1956167.0
Leibnizstr. Ecke Kantstr.,tram,75,1956515_unified,"52.50628299,13.31389142",,,,,,,,1956617.0
Wilmersdorferstr. Ecke Kantstr.,tram,75,1956516_unified,"52.50669333,13.30667347",,,,,,,,19561218.0
Kaiser-Friedrichstr. Ecke Kantstr.,tram,75,1956517_unified,"52.50677000,13.30233639",,,,,,,,1956511.0
Amtsgericht,tram,75,1956518_unified,"52.50682618,13.29739145",,,,,,,,195641.0
Messedamm,tram,75,1956519_unified,"52.50641939,13.28039244",,,,,,,,1956702.0
Reichskanzlerplatz,tram,75,1956520_unified,"52.50891408,13.27225141",,,,,,,,1956863.0
Bhf. Heerstr.,tram,75,1956521_unified,"52.50857976,13.25835390",,,,,,,,1956116.0
Scholzplatz,tram,75,1956522_unified,"52.50686710,13.22787844",,,,,,,,1956959.0
Stößenseebrücke,tram,75,1956523_unified,"52.50889437,13.21747597",,,,,,,,19561048.0
Pichelsdorferstr. Ecke Heerstr.,tram,75,1956524_unified,"52.51308507,13.19681563",,,,,,,,1956801.0
"Weverstr., Strassenbahnhof",tram,75,1956525_unified,"52.51946975,13.19781896",,,,,,,,19561197.0
Seeburgerstr. Ecke Klosterstr.,tram,75,1956526_unified,"52.52913288,13.19560053",,,,,,,,1956977.0
Rathaus Spandau,tram,75,1956527_unified,"52.53488082,13.19905885",,,,,,,,1956851.0
"Spandau, Markt",tram,75,1956528_unified,"52.53784350,13.20413543",,,,,,,,19561001.0
Hafenplatz,tram,75,1956529_unified,"52.54229255,13.20620113",,,,,,,,1956413.0
Hakenfelde,tram,75,1956531_unified,"52.57886010,13.21005780",,,,,,,,1956415.0
Bhf. Zoo,tram,77,1956532_unified,"52.50719346,13.33262988",,,,,,,,1956166.0
Wittenbergplatz,tram,77,1956533_unified,"52.50185026,13.34309835",,,,,,,,19561227.0
Pariserstr. Ecke Bundesallee,tram,77,1956534_unified,"52.49610379,13.33069837",,,,,,,,1956796.0
Bundesallee Ecke Berlinerstr.,tram,77,1956535_unified,"52.48733630,13.33101416",,,,,,,,1956220.0
Bundesplatz,tram,77,1956536_unified,"52.47777991,13.32856619",,,,,,,,1956223.0
Friedrich-Wilhelm-Platz,tram,77,1956537_unified,"52.47132416,13.32841722",,,,,,,,1956331.0
Schloßstr. Ecke Bundesallee,tram,77,1956538_unified,"52.46494568,13.32850852",,,,,,,,1956956.0
Rathaus Steglitz,tram,77,1956539_unified,"52.45691683,13.32074535",,,,,,,,1956853.0
Hindenburgdamm Ecke Schloßstr.,tram,77,1956540_unified,"52.45350181,13.31562343",,,,,,,,1956460.0
Händelplatz,tram,77,1956541_unified,"52.45027909,13.31546678",,,,,,,,1956483.0
Bhf. Botanischer Garten,tram,77,1956542_unified,"52.44730099,13.30830066",,,,,,,,1956108.0
Bhf. Lichterfelde-West,tram,77,1956543_unified,"52.44269517,13.29704649",,,,,,,,1956132.0
Baselerstr.,tram,77,1956544_unified,"52.43778762,13.29538229",,,,,,,,195674.0
Rittberg-Krankenhaus,tram,77,1956545_unified,"52.42987952,13.28896146",,,,,,,,1956879.0
Goerzallee Ecke Wismarerstr.,tram,77,1956546_unified,"52.42193878,13.29849545",,,,,,,,1956370.0
"Lichterfelde, Goerzallee",tram,77,1956547_unified,"52.42193393,13.29852968",,,,,,,,1956638.0
Bhf. Zoo,tram,78,1956548_unified,"52.50719346,13.33262988",,,,,,,,1956166.0
Wittenbergplatz,tram,78,1956549_unified,"52.50185026,13.34309835",,,,,,,,19561227.0
Pariserstr. Ecke Bundesallee,tram,78,1956550_unified,"52.49610379,13.33069837",,,,,,,,1956796.0
Bundesallee Ecke Berlinerstr.,tram,78,1956551_unified,"52.48733630,13.33101416",,,,,,,,1956220.0
Bundesplatz,tram,78,1956552_unified,"52.47777991,13.32856619",,,,,,,,1956223.0
Friedrich-Wilhelm-Platz,tram,78,1956553_unified,"52.47132416,13.32841722",,,,,,,,1956331.0
Schloßstr. Ecke Bundesallee,tram,78,1956554_unified,"52.46494568,13.32850852",,,,,,,,1956956.0
Rathaus Steglitz,tram,78,1956555_unified,"52.45691683,13.32074535",,,,,,,,1956853.0
Hindenburgdamm Ecke Schloßstr.,tram,78,1956556_unified,"52.45350181,13.31562343",,,,,,,,1956460.0
Händelplatz,tram,78,1956557_unified,"52.45027909,13.31546678",,,,,,,,1956483.0
Bhf. Botanischer Garten,tram,78,1956558_unified,"52.44730099,13.30830066",,,,,,,,1956108.0
Bhf. Lichterfelde-West,tram,78,1956559_unified,"52.44269517,13.29704649",,,,,,,,1956132.0
Baselerstr.,tram,78,1956560_unified,"52.43778762,13.29538229",,,,,,,,195674.0
Rittberg-Krankenhaus,tram,78,1956561_unified,"52.42987952,13.28896146",,,,,,,,1956879.0
Wismarerstr. Ecke Goerzallee,tram,78,1956562_unified,"52.42194049,13.29854583",,,,,,,,19561223.0
Lindenstr.,tram,78,1956563_unified,"52.41767689,13.30604355",,,,,,,,1956646.0
"Dönhoffplatz, Krausenstr.",tram,82,1956564_unified,"52.51008269,13.39891167",,,,,,,,1956273.0
Spittelmarkt,tram,82,1956565_unified,"52.51124332,13.40494540",,,,,,,,19561011.0
Molkenmarkt,tram,82,1956566_unified,"52.51679321,13.40933062",,,,,,,,1956707.0
Ostbahnhof,tram,82,1956567_unified,"52.50910764,13.43550619",,,,,,,,1956772.0
Warschauerstr.,tram,82,1956568_unified,"52.50277753,13.44690821",,,,,,,,19561171.0
Markgrafendamm,tram,82,1956569_unified,"52.49918958,13.46580795",,,,,,,,1956686.0
S-Bhf. Ostkreuz,tram,82,1956570_unified,"52.50243022,13.46902005",,,,,,,,1956922.0
Kraftwerk Klingenberg,tram,82,1956571_unified,"52.48813740,13.49586850",Q66079524,,,,,,,1956564.0
"Karlshorst, Treskowallee",tram,82,1956572_unified,"52.47857308,13.52447035",,,,,,,,1956529.0
"Hegemeisterweg, Rennbahn",tram,82,1956573_unified,"52.47416630,13.52040160",Q65951916,,,,,,,1956431.0
Edisonstr. Ecke Wilhelminenhofstr.,tram,82,1956574_unified,"52.46194960,13.51390490",Q65951882,,,,,,,1956276.0
"Oberschöneweide, Parkstr.",tram,82,1956575_unified,"52.45762108,13.53878979",,,,,,,,1956743.0
Pionierrepublik,tram,82,1956576_unified,"52.45757790,13.54360310",Q66104117,,,,,,,1956802.0
Lindenstr. Ecke Bahnhofstr.,tram,82,1956577_unified,"52.45050940,13.57268400",Q66095701,,,,,,,1956647.0
S-Bhf. Köpenick,tram,82,1956578_unified,"52.45821530,13.57904350",Q66370784,,,,,,,1956918.0
"Köpenick, Hirtestr.",tram,82,1956579_unified,"52.45904460,13.58383020",Q66459446,,,,,,,1956598.0
Wendenschloß Ecke Ekhofstr.,tram,83,1956580_unified,"52.41633001,13.58969077",,,,,,,,19561190.0
Strassenbahnhof Köpenick,tram,83,1956581_unified,"52.43991340,13.58178240",Q66370900,,,,,,,19561035.0
Schüßlerplatz,tram,83,1956582_unified,"52.44553304,13.57693508",,,,,,,,1956976.0
Lindenstr. Ecke Bahnhofstr.,tram,83,1956583_unified,"52.45050940,13.57268400",Q66095701,,,,,,,1956647.0
S-Bhf. Köpenick,tram,83,1956584_unified,"52.45821530,13.57904350",Q66370784,,,,,,,1956918.0
Uhlenhorst,tram,83,1956585_unified,"52.46827685,13.58675426",,,,,,,,19561143.0
"Mahlsdorf-Süd, Hubertus",tram,83,1956586_unified,"52.47416630,13.59914430",Q66368466,,,,,,,1956669.0
Bütowerstr.,tram,83,1956587_unified,"52.48610300,13.60398300",Q66364552,,,,,,,1956231.0
Rahnsdorferstr.,tram,83,1956588_unified,"52.49851730,13.61310100",Q66364532,,,,,,,1956840.0
S-Bhf. Mahlsdorf,tram,83,1956589_unified,"52.51221827,13.61219075",,,,,,,,1956921.0
"Altglienicke, Am Falkenberg",tram,84,1956590_unified,"52.41079970,13.57045293",,,,,,,,195630.0
Köpenickerstr.,tram,84,1956591_unified,"52.42048348,13.53874534",,,,,,,,1956603.0
Benzolwerk,tram,84,1956592_unified,"52.42641469,13.54644441",,,,,,,,195685.0
S-Bhf. Adlershof,tram,84,1956593_unified,"52.43525100,13.54084890",Q66363728,,,,,,,1956907.0
Marktplatz,tram,84,1956594_unified,"52.43777454,13.54773333",,,,,,,,1956687.0
S-Bhf. Spindlersfeld,tram,84,1956595_unified,"52.44573110,13.56242980",Q66363397,,,,,,,1956930.0
Köllnischerplatz,tram,84,1956596_unified,"52.44471890,13.56862250",Q66363379,,,,,,,1956586.0
Schüßlerplatz,tram,84,1956597_unified,"52.44553304,13.57693508",,,,,,,,1956976.0
Lindenstr. Ecke Bahnhofstr.,tram,84,1956598_unified,"52.45050940,13.57268400",Q66095701,,,,,,,1956647.0
Seelenbinderstr.,tram,84,1956599_unified,"52.45546320,13.57693030",Q66324934,,,,,,,1956978.0
"Hirschgarten, Fürstenwalderdamm",tram,84,1956600_unified,"52.45185330,13.60062450",Q66360740,,,,,,,1956462.0
S-Bhf. Friedrichshagen,tram,84,1956601_unified,"52.45641260,13.62536560",Q66360784,,,,,,,1956911.0
Brauerei,tram,84,1956602_unified,"52.44699266,13.62425200",,,,,,,,1956193.0
"Friedrichshagen, Wasserwerk",tram,84,1956603_unified,"52.45605630,13.64199560",Q66362601,,,,,,,1956336.0
Alt-Schmöckwitz,tram,86,1956604_unified,"52.37527670,13.64954900",Q66459540,,,,,,,195622.0
Vetschauerallee,tram,86,1956605_unified,"52.38641240,13.63378600",Q66459670,,,,,,,19561156.0
Richtershorn,tram,86,1956606_unified,"52.40105000,13.62484730",Q66481215,,,,,,,1956876.0
Regattahäuser,tram,86,1956607_unified,"52.41142870,13.58808810",Q66490561,,,,,,,1956859.0
Bhf. Grünau,tram,86,1956608_unified,"52.41349300,13.57468020",Q62470512,,,,,,,1956114.0
Chemische Fabrik,tram,86,1956609_unified,"52.42696433,13.57354047",,,,,,,,1956238.0
Vollkropfgraben,tram,86,1956610_unified,"52.43866650,13.57148890",Q66493847,,,,,,,19561158.0
Köllnischerplatz,tram,86,1956611_unified,"52.44471890,13.56862250",Q66363379,,,,,,,1956586.0
Schüßlerplatz,tram,86,1956612_unified,"52.44553304,13.57693508",,,,,,,,1956976.0
Lindenstr. Ecke Bahnhofstr.,tram,86,1956613_unified,"52.45050940,13.57268400",Q66095701,,,,,,,1956647.0
S-Bhf. Köpenick,tram,86,1956614_unified,"52.45821530,13.57904350",Q66370784,,,,,,,1956918.0
Uhlenhorst,tram,86,1956615_unified,"52.46827685,13.58675426",,,,,,,,19561143.0
"Mahlsdorf-Süd, Hubertus",tram,86,1956616_unified,"52.47416630,13.59914430",Q66368466,,,,,,,1956669.0
Rahnsdorf,tram,87,1956617_unified,"52.44353169,13.68503800",Q66361311,,,,,,,1956839.0
Müggelseedamm,tram,87,1956618_unified,"52.44986380,13.66153400",Q66361484,,,,,,,1956712.0
S-Bhf. Friedrichshagen,tram,87,1956619_unified,"52.45641260,13.62536560",Q66360784,,,,,,,1956911.0
Brauerei,tram,87,1956620_unified,"52.44699266,13.62425200",,,,,,,,1956193.0
Hirschgartenm Fürstenwalderdamm,tram,87,1956621_unified,"52.45185330,13.60062450",Q66360740,,,,,,,1956463.0
Seelenbinderstr.,tram,87,1956622_unified,"52.45546320,13.57693030",Q66324934,,,,,,,1956978.0
Bahnhofstr. Ecke Lindenstr.,tram,87,1956623_unified,"52.45050940,13.57268400",Q66095701,,,,,,,195671.0
Pionierrepublik,tram,87,1956624_unified,"52.45757790,13.54360310",Q66104117,,,,,,,1956802.0
Parkstr.,tram,87,1956625_unified,"52.45876522,13.53993546",,,,,,,,1956797.0
Wilhelminenhofstr. Ecke Edisonstr.,tram,87,1956626_unified,"52.46194960,13.51390490",Q65951882,,,,,,,19561211.0
"Brückenstr., Bhf. Schöneweide",tram,87,1956627_unified,"52.45637440,13.50994529",,,,,,,,1956208.0
Köpenicker Landstr. Ecke Baumschulenstr.,tram,87,1956628_unified,"52.46913201,13.49134005",,,,,,,,1956602.0
Bulgarischestr.,tram,87,1956629_unified,"52.48142359,13.47306736",,,,,,,,1956215.0
Elsenstr. Ecke Am Treptower Park,tram,87,1956630_unified,"52.49175632,13.45775787",,,,,,,,1956289.0
Wiener Brücke,tram,87,1956631_unified,"52.49588477,13.43650069",,,,,,,,19561200.0
Stadtpark,tram,88,1956632_unified,"52.45106715,13.33796792",,,,,,,,19561021.0
Feuerbachstr. Ecke Knausstr.,tram,88,1956633_unified,"52.46451766,13.33894524",,,,,,,,1956314.0
Kaisereiche Ecke Rheinstr.,tram,88,1956634_unified,"52.46899095,13.33259281",,,,,,,,1956517.0
Innsbruckerplatz,tram,88,1956635_unified,"52.47804266,13.34344688",,,,,,,,1956492.0
Dominicusstr. Ecke Hauptstr.,tram,88,1956636_unified,"52.48178459,13.34836106",,,,,,,,1956266.0
Eisenacherstr. Ecke Hauptstr.,tram,88,1956637_unified,"52.48459361,13.35306003",,,,,,,,1956285.0
Pallasstr. Ecke Potsdamerstr.,tram,88,1956638_unified,"52.49433491,13.36106668",,,,,,,,1956777.0
Bülowstr. Ecke Potsdamerstr.,tram,88,1956639_unified,"52.49781509,13.36202633",,,,,,,,1956229.0
Potsdamerstr. Ecke Lützowstr.,tram,88,1956640_unified,"52.50308960,13.36569303",,,,,,,,1956819.0
Anhalter Bahnhof,tram,88,1956641_unified,"52.50453275,13.38232653",,,,,,,,195645.0
U-Bhf. Kochstr.,tram,88,1956642_unified,"52.50671105,13.39050917",,,,,,,,19561112.0
Jerusalemerstr. Ecke Oranienstr.,tram,88,1956643_unified,"52.50708720,13.39825339",,,,,,,,1956500.0
U-Bhf. Moritzplatz,tram,88,1956644_unified,"52.50364223,13.41070894",,,,,,,,19561115.0
U-Bhf. Görlitzer Bahnhof,tram,88,1956645_unified,"52.49925564,13.42774699",,,,,,,,19561107.0
Spreewaldplatz,tram,88,1956646_unified,"52.49792228,13.43061701",,,,,,,,19561014.0
Wiener Brücke,tram,88,1956647_unified,"52.49588477,13.43650069",,,,,,,,19561200.0
"Treptow, Spreeterrassen",tram,91,1956648_unified,"52.48580768,13.48219419",,,,,,,,19561083.0
"Treptow, Rathaus",tram,91,1956649_unified,"52.48361304,13.48031758",,,,,,,,19561082.0
Bulgarischestr. Ecke Köpenicker Landstr.,tram,91,1956650_unified,"52.48145143,13.47309632",,,,,,,,1956216.0
Baumschulenstr.,tram,91,1956651_unified,"52.46908185,13.49132991",,,,,,,,195675.0
"Grünauerstr., Bhf. Schöneweide",tram,91,1956652_unified,"52.45604415,13.51044964",,,,,,,,1956400.0
Königsheideweg,tram,91,1956653_unified,"52.44677990,13.50667070",Q66236157,,,,,,,1956591.0
"Johannisthal, Haeckelstr.",tram,91,1956654_unified,"52.44029440,13.50526380",Q66225573,,,,,,,1956504.0
"Treptow, Flutgraben",tram,92,1956655_unified,"52.49652090,13.45021185",,,,,,,,19561081.0
"Elsenstr., S-Bhf. Treptow",tram,92,1956656_unified,"52.49392051,13.46063713",,,,,,,,1956291.0
Bulgarischestr.,tram,92,1956657_unified,"52.48142359,13.47306736",,,,,,,,1956215.0
Baumschulenstr.,tram,92,1956658_unified,"52.46908185,13.49132991",,,,,,,,195675.0
"Grünauerstr., Bhf. Schöneweide",tram,92,1956659_unified,"52.45604415,13.51044964",,,,,,,,1956400.0
Britzerstr.,tram,92,1956660_unified,"52.45407075,13.51932687",,,,,,,,1956202.0
Oberspree,tram,92,1956661_unified,"52.45208940,13.53292788",,,,,,,,1956745.0
"Oranienplatz, Dresdenerstr.",tram,94,1956662_unified,"52.50311696,13.41535205",,,,,,,,1956758.0
Kottbusser Tor,tram,94,1956663_unified,"52.49904928,13.41824081",,,,,,,,1956562.0
U-Bhf. Kottbusserdamm,tram,94,1956664_unified,"52.49267739,13.42228715",,,,,,,,19561113.0
Hermannplatz,tram,94,1956665_unified,"52.48708557,13.42475245",,,,,,,,1956446.0
Erkstr. Ecke Sonnenallee,tram,94,1956666_unified,"52.48169988,13.44014370",,,,,,,,1956297.0
Bhf. Sonnenallee,tram,94,1956667_unified,"52.47414313,13.45549953",,,,,,,,1956144.0
Dammweg Ecke Sonnenallee,tram,94,1956668_unified,"52.47028918,13.46461967",,,,,,,,1956253.0
"Neukölln, Schulenburgpark",tram,94,1956669_unified,"52.46665670,13.47019302",,,,,,,,1956726.0
Attilaplatz,tram,95,1956670_unified,"52.45549834,13.37561964",,,,,,,,195653.0
Berlinickeplatz,tram,95,1956671_unified,"52.46632968,13.37814469",,,,,,,,195696.0
Hoeppnerstr. Ecke Boelckestr.,tram,95,1956672_unified,"52.47242397,13.37788094",,,,,,,,1956466.0
Adolf-Scheidt-Platz,tram,95,1956673_unified,"52.47819486,13.37836902",,,,,,,,19562.0
U-Bhf. Flughafen,tram,95,1956674_unified,"52.48477998,13.38596223",,,,,,,,19561102.0
Gneisenaustr./Yorckstr.,tram,95,1956675_unified,"52.49296372,13.38772018",,,,,,,,1956368.0
Hallesches Tor,tram,95,1956676_unified,"52.49761471,13.38904658",,,,,,,,1956418.0
Zossenerstr. Ecke Blücherstr.,tram,95,1956677_unified,"52.49619215,13.39506978",,,,,,,,19561252.0
Baerwaldstr. Ecke Urbanstr.,tram,95,1956678_unified,"52.49389984,13.40346009",,,,,,,,195664.0
Urban-Krankenhaus,tram,95,1956679_unified,"52.49317001,13.40795886",,,,,,,,19561149.0
Hermannplatz,tram,95,1956680_unified,"52.48708557,13.42475245",,,,,,,,1956446.0
Erkstr. Ecke Sonnenallee,tram,95,1956681_unified,"52.48169988,13.44014370",,,,,,,,1956297.0
Hertzbergplatz,tram,95,1956682_unified,"52.47737355,13.44884381",,,,,,,,1956454.0
Bhf. Sonnenallee,tram,95,1956683_unified,"52.47414313,13.45549953",,,,,,,,1956144.0
Schulenburgpark,tram,95,1956684_unified,"52.46666061,13.47029259",,,,,,,,1956960.0
Sonnenallee Ecke Schwarzerweg,tram,95,1956685_unified,"52.46218349,13.47710442",,,,,,,,1956991.0
"Baumschulenweg, Sonnenallee",tram,95,1956686_unified,"52.46729434,13.48909403",,,,,,,,195678.0
Köpenicker Landstr.,tram,95,1956687_unified,"52.47976607,13.47552390",,,,,,,,1946298.0
S-Bhf. Schöneweide,tram,95,1956688_unified,"52.45534130,13.51104490",Q65950245,,,,,,,1956928.0
Wilhelminenhofstr. Ecke Edisonstr.,tram,95,1956689_unified,"52.46194960,13.51390490",Q65951882,,,,,,,19561211.0
Pionierrepublik,tram,95,1956690_unified,"52.45757790,13.54360310",Q66104117,,,,,,,1956802.0
"Köpenick, Lindenstr. Ecke Bahnhofstr.",tram,95,1956691_unified,"52.45050940,13.57268400",Q66095701,,,,,,,1956601.0
Grünstr.,tram,95,1956692_unified,"52.44496665,13.57413387",,,,,,,,1956403.0
"Köpenick, Krankenhaus",tram,95,1956693_unified,"52.43883960,13.59207630",Q66091900,,,,,,,1956600.0
U-Bhf. Tempelhof,tram,96,1956694_unified,"52.46591364,13.38552519",,,,,,,,19561130.0
Alt-Tempelhof Ecke Tempelhoferdamm,tram,96,1956695_unified,"52.46591425,13.38560342",,,,,,,,195627.0
Kaiserin-Augustastr. Ecke Tempelhoferdamm,tram,96,1956696_unified,"52.45936645,13.38448918",,,,,,,,1956519.0
Attilaplatz,tram,96,1956697_unified,"52.45549834,13.37561964",,,,,,,,195653.0
Bhf. Mariendorf,tram,96,1956698_unified,"52.44707831,13.36143980",,,,,,,,1956134.0
"Lankwitz, Kirche",tram,96,1956699_unified,"52.43629411,13.34577794",,,,,,,,1956611.0
Bhf. Lichtefelde-Ost,tram,96,1956700_unified,"52.42882621,13.32868081",,,,,,,,1956125.0
Bismarckstr. Ecke Wilhelmstr.,tram,96,1956701_unified,"52.42583357,13.31682271",,,,,,,,1956177.0
Lindenstr. Ecke Berlinerstr.,tram,96,1956702_unified,"52.41789737,13.30518026",,,,,,,,1956648.0
"Lichterfelde-Süd, Schwelmerstr.",tram,96,1956703_unified,"52.41217121,13.29905184",,,,,,,,1956642.0
Machnower Schleuse,tram,96,1956704_unified,"52.39513316,13.20831380",,,,,,,,1956664.0
Zehlendorferdamm,tram,96,1956705_unified,"52.39232816,13.22247573",,,,,,,,19561240.0
"Neue Wagenhalle, Kleiststr.",tram,96,1956706_unified,"52.39400752,13.23728894",,,,,,,,1956720.0
"Teltow, Hamburgerplatz",tram,96,1956707_unified,"52.39834658,13.24655830",,,,,,,,19561062.0
Stadthaus Teltow,tram,96,1956708_unified,"52.40110956,13.26263747",,,,,,,,19561018.0
Ruhlsdorferplatz,tram,96,1956709_unified,"52.40085342,13.26885357",,,,,,,,1956898.0
"Teltow, Paul-Gerhardtstr.",tram,96,1956710_unified,"52.41175172,13.29789335",,,,,,,,19561063.0
Mehringplatz (Hallesches Tor),tram,98,1956711_unified,"52.49792491,13.39108107",,,,,,,,1956699.0
Yorckstr./Gneisenaustr.,tram,98,1956712_unified,"52.49296205,13.38772750",,,,,,,,19561236.0
U-Bhf. Flughafen,tram,98,1956713_unified,"52.48477998,13.38596223",,,,,,,,19561102.0
U-Bhf. Paradestr.,tram,98,1956714_unified,"52.47820975,13.38579797",,,,,,,,19561120.0
Bahnhof Tempelhof,tram,98,1956715_unified,"52.46588000,13.38561354",,,,,,,,195667.0
Alt-Tempelhof,tram,98,1956716_unified,"52.46607741,13.38563164",,,,,,,,195626.0
Kaiserin-Augustastr.,tram,98,1956717_unified,"52.45936586,13.38448942",,,,,,,,1956518.0
Friedrich-Karlstr.,tram,98,1956718_unified,"52.45579726,13.38393428",,,,,,,,1956330.0
Kaiserstr.,tram,98,1956719_unified,"52.44556345,13.38580842",,,,,,,,1956520.0
Prühßstr.,tram,98,1956720_unified,"52.44327481,13.38622116",,,,,,,,1956834.0
Mariendorferdamm Ecke Alt-Mariendorf,tram,98,1956721_unified,"52.44018031,13.38732780",,,,,,,,1956678.0
Grossbeerenstr. Ecke Daimlerstr.,tram,98,1956722_unified,"52.42636680,13.37431638",,,,,,,,1956390.0
Daimlerstr. Ecke Birnhornweg,tram,98,1956723_unified,"52.42214077,13.38461615",,,,,,,,1956251.0
"Lindenstr., Jerusalemer Kirche",tram,99,1956724_unified,"52.50361387,13.39557941",,,,,,,,1956650.0
Mehringplatz,tram,99,1956725_unified,"52.49792491,13.39108107",,,,,,,,1956698.0
Yorckstr./Gneisenaustr.,tram,99,1956726_unified,"52.49296205,13.38772750",,,,,,,,19561236.0
U-Bhf. Flughafen,tram,99,1956727_unified,"52.48477998,13.38596223",,,,,,,,19561102.0
Bhf. Tempelhof,tram,99,1956728_unified,"52.47077333,13.38563803",,,,,,,,1956153.0
Alt-Tempelhof,tram,99,1956729_unified,"52.46607741,13.38563164",,,,,,,,195626.0
Kaiserin-Augustastr.,tram,99,1956730_unified,"52.45936586,13.38448942",,,,,,,,1956518.0
Friedrich-Karlstr.,tram,99,1956731_unified,"52.45579726,13.38393428",,,,,,,,1956330.0
Kaiserstr.,tram,99,1956732_unified,"52.44556345,13.38580842",,,,,,,,1956520.0
Alt-Mariendorf,tram,99,1956733_unified,"52.44015322,13.38726501",,,,,,,,195616.0
Rennbahn,tram,99,1956734_unified,"52.43006059,13.39244351",,,,,,,,1956870.0
Marienfelderchaussee,tram,99,1956735_unified,"52.41460414,13.40113673",,,,,,,,1956682.0
Marienfelderstr.,tram,99,1956736_unified,"52.39246328,13.40666202",,,,,,,,1956683.0
Bhf. Lichtenrade,tram,99,1956737_unified,"52.38669306,13.39694577",,,,,,,,1956128.0
Pankow (Vinetastr.),u-bahn,A I,1956738_unified,"52.55916667,13.41333333",Q570906,,,,,,,1956780.0
Schönhauserallee,u-bahn,A I,1956739_unified,"52.54932889,13.41370611",Q47014936,,,,,,,1956974.0
Dimitroffstr.,u-bahn,A I,1956740_unified,"52.54166667,13.41222222",Q571382,,,,,,,1956257.0
Senefelderplatz,u-bahn,A I,1956741_unified,"52.53242000,13.41274300",Q32661454,,,,,,,1956982.0
Luxemburgplatz,u-bahn,A I,1956742_unified,"52.52833333,13.41027778",Q658790,,,,,,,1956657.0
Alexanderplatz,u-bahn,A I,1956743_unified,"52.52140000,13.41190000",Q17173458,,,,,,,19568.0
Klosterstr.,u-bahn,A I,1956744_unified,"52.51611111,13.41222222",Q657893,,,,,,,1956551.0
Märkisches Museum,u-bahn,A I,1956745_unified,"52.51194444,13.40888889",Q657871,,,,,,,1956710.0
Spittelmarkt,u-bahn,A I,1956746_unified,"52.51111111,13.40361111",Q569489,,,,,,,19561012.0
Hausvogteiplatz,u-bahn,A I,1956747_unified,"52.51305556,13.39666667",Q656523,,,,,,,1956427.0
Stadtmitte (Mohrenstr.),u-bahn,A I,1956748_unified,"52.51220000,13.38940000",Q660066,,,,,,,19561020.0
Thälmannplatz,u-bahn,A I,1956749_unified,"52.51167000,13.38472000",Q658391,,,,,,,19561076.0
Potsdamerplatz,u-bahn,A I,1956750_unified,"52.50920000,13.37820000",Q3909578,,,,,,,1956811.0
Gleisdreieck,u-bahn,A I,1956751_unified,"52.49952000,13.37409000",Q678372,,,,,,,1956360.0
Bülowstr.,u-bahn,A I,1956752_unified,"52.49755278,13.36341944",Q374881,,,,,,,1956226.0
Nollendorfplatz,u-bahn,A I,1956753_unified,"52.49916667,13.35388889",Q571039,,,,,,,1956733.0
Wittenbergplatz,u-bahn,A I,1956754_unified,"52.50194444,13.34305556",Q692727,,,,,,,19561228.0
Zoologischer Garten,u-bahn,A I,1956755_unified,"52.50586690,13.33302360",Q4024764,,,,,,,19561250.0
Ernst-Reuter-Platz,u-bahn,A I,1956756_unified,"52.51194444,13.32222222",Q658361,,,,,,,1956299.0
Deutsches Opernhaus (Bismarckstr.),u-bahn,A I,1956757_unified,"52.51194444,13.31055556",Q869501,,,,,,,1956256.0
Sophie-Charlotte-Platz,u-bahn,A I,1956758_unified,"52.51083333,13.29666667",Q657879,,,,,,,1956992.0
Kaiserdamm (Messedamm),u-bahn,A I,1956759_unified,"52.51000000,13.28220000",Q656409,,,,,,,1956514.0
Reichskanzlerplatz,u-bahn,A I,1956760_unified,"52.50972222,13.27305556",Q657857,,,,,,,1956864.0
Neu-Westend,u-bahn,A I,1956761_unified,"52.51555556,13.26111111",Q656431,,,,,,,1956718.0
Olympia-Stadion,u-bahn,A I,1956762_unified,"52.51722222,13.25000000",Q656441,,,,,,,1956748.0
Ruhleben,u-bahn,A I,1956763_unified,"52.52555556,13.24138889",Q656401,,,,,,,1956897.0
Kottbusser Tor,u-bahn,A II,1956764_unified,"52.49916667,13.41805556",Q819768,,,,,,,1956563.0
Prinzenstr.,u-bahn,A II,1956765_unified,"52.49833333,13.40611111",Q689797,,,,,,,1956830.0
Hallesches Tor,u-bahn,A II,1956766_unified,"52.49777778,13.39111111",Q658302,,,,,,,1956419.0
Möckernbrücke,u-bahn,A II,1956767_unified,"52.49916667,13.38277778",Q704716,,,,,,,1956711.0
Gleisdreieck,u-bahn,A II,1956768_unified,"52.49952000,13.37409000",Q678372,,,,,,,1956360.0
Kurfürstenstr.,u-bahn,A II,1956769_unified,"52.50000000,13.36194444",Q690203,,,,,,,1956577.0
Nollendorfplatz,u-bahn,A II,1956770_unified,"52.49916667,13.35388889",Q571039,,,,,,,1956733.0
Hohenzollernplatz,u-bahn,A II,1956771_unified,"52.49388889,13.32500000",Q571570,,,,,,,1956474.0
Fehrbellinerplatz,u-bahn,A II,1956772_unified,"52.49027778,13.31444444",Q663245,,,,,,,1956309.0
Heidelbergerplatz,u-bahn,A II,1956773_unified,"52.47980833,13.31323611",Q21777872,,,,,,,1956432.0
Rüdesheimerplatz,u-bahn,A II,1956774_unified,"52.47333333,13.31444444",Q167147,,,,,,,1956904.0
Breitenbachplatz,u-bahn,A II,1956775_unified,"52.46638889,13.30805556",Q571339,,,,,,,1956196.0
Podbielskiallee,u-bahn,A II,1956776_unified,"52.46444444,13.29638889",Q571324,,,,,,,1956805.0
Dahlem-Dorf,u-bahn,A II,1956777_unified,"52.45694444,13.28944444",Q668585,,,,,,,1956248.0
Thielplatz,u-bahn,A II,1956778_unified,"52.45111111,13.28222222",Q571331,,,,,,,19561074.0
Oskar-Helene-Heim,u-bahn,A II,1956779_unified,"52.45027778,13.26972222",Q681336,,,,,,,1956760.0
Onkel Toms Hütte,u-bahn,A II,1956780_unified,"52.45027778,13.25333333",Q389214,,,,,,,1956749.0
Krumme Lanke,u-bahn,A II,1956781_unified,"52.44333333,13.24138889",Q663945,,,,,,,1956570.0
Deutsches Opernhaus (Bismarckstr.),u-bahn,A III,1956782_unified,"52.51194444,13.31055556",Q869501,,,,,,,1956256.0
Richard-Wagner-Platz,u-bahn,A III,1956783_unified,"52.51750000,13.30638889",Q662201,,,,,,,1956874.0
"Moabit, Waldstr.",autobus,A1,1956784_unified,"52.52924131,13.33090579",,,,,,,,1956704.0
"Heimholtzstr., Autobusbahnhof",autobus,A1,1956785_unified,"52.52150833,13.32451369",,,,,,,,1956438.0
Bismarckstr. Ecke Leibnizstr.,autobus,A1,1956786_unified,"52.51215119,13.31478566",,,,,,,,1956175.0
Kurfürstendamm Ecke Konstanzerstr.,autobus,A1,1956787_unified,"52.50059910,13.31304941",,,,,,,,1956575.0
U-Bhf. Fehrbellinerplatz,autobus,A1,1956788_unified,"52.49039093,13.31417746",,,,,,,,19561100.0
Detmolderstr. Ecke Blissestr.,autobus,A1,1956789_unified,"52.47876003,13.32030364",,,,,,,,1956255.0
Breitenbachplatz,autobus,A1,1956790_unified,"52.46721972,13.30947349",,,,,,,,1956195.0
Botanischer Garten,autobus,A1,1956791_unified,"52.45859880,13.30343606",,,,,,,,1956190.0
U-Bhf. Oskar-Helene-Heim,autobus,A1,1956792_unified,"52.45027901,13.27036199",,,,,,,,19561119.0
Potsdamerstr. Ecke Clayallee,autobus,A1,1956793_unified,"52.43504800,13.26042558",,,,,,,,1956815.0
Bhf. Zehlendorf,autobus,A1,1956794_unified,"52.43121178,13.25916441",,,,,,,,1956163.0
Teltowerdamm Ecke Beeskowdamm,autobus,A1,1956795_unified,"52.40898248,13.26741907",,,,,,,,19561064.0
Goerzallee Ecke Wismarerstr.,autobus,A1,1956796_unified,"52.42193976,13.29849525",,,,,,,,1956371.0
"Haselhorst, Kirche",autobus,A10,1956797_unified,"52.54682818,13.23706589",,,,,,,,1956422.0
Gartenfelderstr. Ecke Paulsternstr.,autobus,A10,1956798_unified,"52.54415086,13.24707680",,,,,,,,1956346.0
Verwaltungs-Gebäude,autobus,A10,1956799_unified,"52.53706333,13.26228517",,,,,,,,19561153.0
"Rohrdammbrücke (Bhf. Siemensstadt, Fürstenbrunn)",autobus,A10,1956800_unified,"52.53894892,13.26378176",,,,,,,,1956884.0
Spandauerdamm Ecke Königin-Elisabethstr.,autobus,A10,1956801_unified,"52.51837003,13.28016802",,,,,,,,19561006.0
U-Bhf. Kaiserdamm,autobus,A10,1956802_unified,"52.50999451,13.28180313",,,,,,,,19561111.0
Bhf. Witzleben,autobus,A10,1956803_unified,"52.50645624,13.28272781",,,,,,,,1956160.0
Amtsgerichsplatz,autobus,A10,1956804_unified,"52.50685666,13.29505748",,,,,,,,195640.0
Joachim-Friedrichstr. Ecke Kurfürstendamm,autobus,A10,1956805_unified,"52.49797143,13.29622564",,,,,,,,1956501.0
Bhf. Halensee,autobus,A10,1956806_unified,"52.49686559,13.28955734",,,,,,,,1956115.0
Elsterplatz,autobus,A10,1956807_unified,"52.47977983,13.28550761",,,,,,,,1956292.0
Am Wilden Eber,autobus,A10,1956808_unified,"52.47052881,13.28962424",,,,,,,,195639.0
"Königin-Luisestr., Dahlem-Dorf",autobus,A10,1956809_unified,"52.45807172,13.28970578",,,,,,,,1956589.0
U-Bhf. Thielplatz,autobus,A10,1956810_unified,"52.45104521,13.28173642",,,,,,,,19561131.0
Corrensplatz,autobus,A10,1956811_unified,"52.44601401,13.28426468",,,,,,,,1956244.0
Berlinerstr. Ecke Thielallee,autobus,A10,1956812_unified,"52.44189077,13.28275313",,,,,,,,195693.0
Winfriedstr. Ecke Berlinerstr.,autobus,A10,1956813_unified,"52.43751006,13.26945545",,,,,,,,19561222.0
Clayallee Ecke Teltowerdamm,autobus,A10,1956814_unified,"52.43505050,13.26043301",,,,,,,,1956242.0
Bhf. Zehlendorf,autobus,A10,1956815_unified,"52.43121178,13.25916441",,,,,,,,1956163.0
Behring-Krankenhaus,autobus,A10,1956816_unified,"52.42410895,13.25176454",,,,,,,,195682.0
"Zehlendorf, Andreezeile Ecke Sachtlebenstr.",autobus,A10,1956817_unified,"52.41039022,13.26633991",,,,,,,,19561239.0
Saargemünderstr.,autobus,A11,1956818_unified,"52.45091808,13.27092249",,,,,,,,1956934.0
U-Bhf. Oskar-Helene-Heim,autobus,A11,1956819_unified,"52.45027901,13.27036199",,,,,,,,19561119.0
Ihnestr.,autobus,A11,1956820_unified,"52.44831039,13.27635507",,,,,,,,1956486.0
Corrensplatz,autobus,A11,1956821_unified,"52.44601401,13.28426468",,,,,,,,1956244.0
Unter den Eichen Ecke Habelschwerdterallee,autobus,A11,1956822_unified,"52.44571624,13.29368933",,,,,,,,19561146.0
Bhf. Lichterfelde-West,autobus,A11,1956823_unified,"52.44397676,13.29562870",,,,,,,,1956131.0
Ringstr. Ecke Drakestr.,autobus,A11,1956824_unified,"52.43979421,13.30020166",,,,,,,,1956878.0
Wiesenbaude,autobus,A11,1956825_unified,"52.43049524,13.31180861",,,,,,,,19561204.0
Berlinerstr. Ecke Wilhelmstr.,autobus,A11,1956826_unified,"52.43078277,13.31751799",,,,,,,,195687.0
Marienstr. Ecke Wilhelmstr.,autobus,A11,1956827_unified,"52.42960082,13.32132294",,,,,,,,1956684.0
Bismarckstr. Ecke Wilhelmstr.,autobus,A11,1956828_unified,"52.42818044,13.32516262",,,,,,,,1956176.0
Bhf. Lichterfelde-Ost,autobus,A11,1956829_unified,"52.42911681,13.32984727",,,,,,,,1956129.0
Langestr. Ecke Lorenzstr.,autobus,A11,1956830_unified,"52.42401409,13.33313324",,,,,,,,1956608.0
Hildburghauserstr. Ecke Sonderhauserstr.,autobus,A11,1956831_unified,"52.41595187,13.34173266",,,,,,,,1956456.0
U-Bhf. Seestr.,autobus,A12,1956832_unified,"52.55031541,13.35229850",,,,,,,,19561128.0
Emmentalerstr. Ecke Aroserallee,autobus,A12,1956833_unified,"52.56756406,13.35134242",,,,,,,,1956293.0
Alt-Reinickendorf Ecke Roedernstr.,autobus,A12,1956834_unified,"52.57584796,13.34779091",,,,,,,,195621.0
Oranienburgerstr. Ecke Alt-Wittenau,autobus,A12,1956835_unified,"52.58969701,13.33421412",,,,,,,,1956756.0
Holzhauserstr. Ecke Alt-Wittenau,autobus,A12,1956836_unified,"52.59188527,13.32644644",,,,,,,,1956478.0
Cyclopstr. Ecke Hermsdorferstr.,autobus,A12,1956837_unified,"52.60209920,13.32482686",,,,,,,,1956245.0
Waidmannslusterdamm Ecke Oraniendamm,autobus,A12,1956838_unified,"52.60785017,13.32380280",,,,,,,,19561161.0
Hermsdorferdamm Ecke Hohefeldstr.,autobus,A12,1956839_unified,"52.62054077,13.30594251",,,,,,,,1956451.0
Bhf. Frohnau,autobus,A12,1956840_unified,"52.63311783,13.28947656",,,,,,,,1956111.0
"Frohnau, Invalidensiedlung",autobus,A12,1956841_unified,"52.65584642,13.29035793",,,,,,,,1956341.0
U-Bhf. Seestr.,autobus,A12S,1956842_unified,"52.55031541,13.35229850",,,,,,,,19561128.0
Emmentalerstr. Ecke Aroserallee,autobus,A12S,1956843_unified,"52.56756406,13.35134242",,,,,,,,1956293.0
Alt-Reinickendorf Ecke Roedernstr.,autobus,A12S,1956844_unified,"52.57584796,13.34779091",,,,,,,,195621.0
Oranienburgerstr. Ecke Alt-Wittenau,autobus,A12S,1956845_unified,"52.58969701,13.33421412",,,,,,,,1956756.0
Holzhauserstr. Ecke Alt-Wittenau,autobus,A12S,1956846_unified,"52.59188527,13.32644644",,,,,,,,1956478.0
Cyclopstr. Ecke Hermsdorferstr.,autobus,A12S,1956847_unified,"52.60209920,13.32482686",,,,,,,,1956245.0
Waidmannslusterdamm Ecke Oraniendamm,autobus,A12S,1956848_unified,"52.60785017,13.32380280",,,,,,,,19561161.0
Hermsdorferdamm Ecke Hohefeldstr.,autobus,A12S,1956849_unified,"52.62054077,13.30594251",,,,,,,,1956451.0
Bhf. Frohnau,autobus,A12S,1956850_unified,"52.63311783,13.28947656",,,,,,,,1956111.0
"Spandau, Weinmeisterhornweg",autobus,A13,1956851_unified,"52.51105909,13.17158703",,,,,,,,19561005.0
Heerstr. Ecke Wilhelmstr.,autobus,A13,1956852_unified,"52.51662458,13.17902230",,,,,,,,1956430.0
Adamstr. Ecke Wilhelmstr.,autobus,A13,1956853_unified,"52.52109743,13.18799032",,,,,,,,19560.0
Päwesinerweg Ecke Seeburgerstr.,autobus,A13,1956854_unified,"52.52634764,13.18185125",,,,,,,,1956836.0
Rathaus Spandau,autobus,A13,1956855_unified,"52.53480744,13.19950552",,,,,,,,1956850.0
Gartenfelderstr. Ecke Nonnendammallee,autobus,A13,1956856_unified,"52.53933030,13.23223963",,,,,,,,1956345.0
Gartenfelderstr. Ecke Paulsternstr.,autobus,A13,1956857_unified,"52.54415086,13.24707680",,,,,,,,1956346.0
Kabelwerk,autobus,A13,1956858_unified,"52.54877902,13.24791109",,,,,,,,1956510.0
Weg nach Saatwinkel,autobus,A13,1956859_unified,"52.56198891,13.25462846",,,,,,,,19561177.0
Wasserwerk,autobus,A13,1956860_unified,"52.57559435,13.26505197",,,,,,,,19561173.0
Krankenhaus Tegel-Süd,autobus,A13,1956861_unified,"52.57573398,13.27874933",,,,,,,,1956567.0
Berlinerstr. Ecke Bernauerstr.,autobus,A13,1956862_unified,"52.57629189,13.29470160",,,,,,,,195688.0
Alt-Tegel/Gorkistr.,autobus,A13,1956863_unified,"52.58966265,13.28374466",,,,,,,,195625.0
Bhf. Tegel,autobus,A13,1956864_unified,"52.58863501,13.28998515",,,,,,,,1956152.0
Osloerstr. Ecke Schwedenstr.,autobus,A14,1956865_unified,"52.55665602,13.37386300",,,,,,,,1956765.0
Koloniestr. Ecke Drontheimerstr.,autobus,A14,1956866_unified,"52.55659295,13.37718642",,,,,,,,1956557.0
Pankowerallee Ecke Provinzstr.,autobus,A14,1956867_unified,"52.56468311,13.37806141",,,,,,,,1956788.0
"Herbstr., Bhf. Schönholz",autobus,A14,1956868_unified,"52.57156679,13.37987849",,,,,,,,1956445.0
Residenzstr./Kopenhagenerstr.,autobus,A14,1956869_unified,"52.57425340,13.35916961",,,,,,,,1956873.0
Roedernallee Ecke Reinickdorferstr.,autobus,A14,1956870_unified,"52.57584198,13.34782188",,,,,,,,1956881.0
Lindenweg Ecke Roedernallee,autobus,A14,1956871_unified,"52.58316056,13.34373537",,,,,,,,1956651.0
Oranienburgerstr. Ecke Alt-Wittenau,autobus,A14,1956872_unified,"52.58969701,13.33421412",,,,,,,,1956756.0
"Holszhauserstr., Rathaus Reinickendorf",autobus,A14,1956873_unified,"52.58866003,13.32490711",,,,,,,,1956476.0
Hermsdorferstr. Ecke Alt-Wittenau,autobus,A14,1956874_unified,"52.59359736,13.32127607",,,,,,,,1956453.0
Ziekowstr. Ecke Gorkistr.,autobus,A14,1956875_unified,"52.59058636,13.29210637",,,,,,,,19561246.0
Berlinerstr./Alt-Tegel,autobus,A14,1956876_unified,"52.58996129,13.28328292",,,,,,,,195695.0
Heiligenseestr. Ecke Karolinenstr.,autobus,A14,1956877_unified,"52.59794705,13.27503667",,,,,,,,1956437.0
Bhf. Schulzendorf,autobus,A14,1956878_unified,"52.61386002,13.24587966",,,,,,,,1956141.0
Kaserne,autobus,A14,1956879_unified,"52.61786251,13.24144420",,,,,,,,1956532.0
Bhf. Heiligensee,autobus,A14,1956880_unified,"52.62515124,13.22965907",,,,,,,,1956117.0
"Heiligensee, Hennigsdorferstr. Ecke Mattenbuder Pfad",autobus,A14,1956881_unified,"52.61696001,13.22053831",,,,,,,,1956436.0
Bhf. Wittenau,autobus,A15,1956882_unified,"52.59721247,13.33263147",,,,,,,,1956158.0
Alt-Wittenau Ecke Holzhauserstr.,autobus,A15,1956883_unified,"52.59184438,13.32638232",,,,,,,,195628.0
Bhf. Eichbornstr.,autobus,A15,1956884_unified,"52.57760144,13.31554155",,,,,,,,1956110.0
Borsigwalderweg Ecke Conradstr.,autobus,A15,1956885_unified,"52.58481417,13.29793579",,,,,,,,1956189.0
Alt-Tegel,autobus,A15,1956886_unified,"52.58954346,13.28367978",,,,,,,,195623.0
Hermsdorferdamm Ecke Karolinenstr.,autobus,A15,1956887_unified,"52.59678278,13.27662690",,,,,,,,1956452.0
Bhf. Hermsdorf,autobus,A15,1956888_unified,"52.61953939,13.30416069",,,,,,,,1956119.0
Dominikus-Krankenhaus,autobus,A15,1956889_unified,"52.62619652,13.29449567",,,,,,,,1956267.0
Donnersmarckplatz,autobus,A15,1956890_unified,"52.62982465,13.28047497",,,,,,,,1956268.0
Bhf. Frohnau,autobus,A15,1956891_unified,"52.63311783,13.28947656",,,,,,,,1956111.0
U-Bhf. Seestr.,autobus,A16,1956892_unified,"52.55031541,13.35229850",,,,,,,,19561128.0
Seestr. Ecke Amrumerstr.,autobus,A16,1956893_unified,"52.54621914,13.34404991",,,,,,,,1956980.0
Augustenburgerplatz,autobus,A16,1956894_unified,"52.54218636,13.34942314",,,,,,,,195654.0
Bhf. Pulitzstr.,autobus,A16,1956895_unified,"52.53623559,13.34372526",,,,,,,,1956139.0
Turmstr. Ecke Stromstr.,autobus,A16,1956896_unified,"52.52631574,13.34320006",,,,,,,,19561089.0
Hansaplatz,autobus,A16,1956897_unified,"52.51793433,13.34203819",,,,,,,,1956421.0
Großer Stern,autobus,A16,1956898_unified,"52.51452472,13.34993319",,,,,,,,1956393.0
Lützowplatz,autobus,A16,1956899_unified,"52.50502902,13.35182287",,,,,,,,1956659.0
"Nollendorfplatz, Einemstr.",autobus,A16,1956900_unified,"52.49984404,13.35411029",,,,,,,,1956734.0
Martin-Lutherstr. Ecke Motzstr.,autobus,A16,1956901_unified,"52.49711021,13.34605056",,,,,,,,1956690.0
Grunewaldstr. Ecke Martin-Lutherstr.,autobus,A16,1956902_unified,"52.48905218,13.34501538",,,,,,,,1956396.0
Rathaus Schöneberg,autobus,A16,1956903_unified,"52.48515474,13.34508660",,,,,,,,1956846.0
Innsbruckerplatz,autobus,A16,1956904_unified,"52.47854551,13.34405869",,,,,,,,1956490.0
Kufsteinerstr. Ecke Wexstr.,autobus,A16,1956905_unified,"52.47882775,13.33691958",,,,,,,,1956571.0
Bundesplatz,autobus,A16,1956906_unified,"52.47867899,13.32860278",,,,,,,,1956222.0
Wiesbadenerstr. Ecke Süd-West-Korso,autobus,A16,1956907_unified,"52.47163977,13.31958573",,,,,,,,19561202.0
Breitenbachplatz,autobus,A16,1956908_unified,"52.46721972,13.30947349",,,,,,,,1956195.0
"Englerallee, Breitenbachplatz",autobus,A16,1956909_unified,"52.46584181,13.30615348",,,,,,,,1956295.0
Bhf. Grunewald,autobus,A17,1956910_unified,"52.48801015,13.26315525",,,,,,,,1956113.0
Hagenplatz,autobus,A17,1956911_unified,"52.48338297,13.26581870",,,,,,,,1956414.0
Roseneck,autobus,A17,1956912_unified,"52.47580090,13.28241127",,,,,,,,1956885.0
U-Bhf. Rüdesheimerplatz,autobus,A17,1956913_unified,"52.47208311,13.31490978",,,,,,,,19561126.0
Kaisereiche,autobus,A17,1956914_unified,"52.46896806,13.33261489",,,,,,,,1956515.0
Bundesallee,autobus,A17,1956915_unified,"52.46493053,13.32853185",,,,,,,,1956217.0
Rathaus Steglitz,autobus,A17,1956916_unified,"52.45683245,13.32075740",,,,,,,,1956852.0
Stadtpark Steglitz,autobus,A17,1956917_unified,"52.45110500,13.33726323",,,,,,,,19561022.0
Leonorenstr.,autobus,A17,1956918_unified,"52.44436716,13.33887986",,,,,,,,1956629.0
Stadion Lichterfelde-Ost,autobus,A17,1956919_unified,"52.43855447,13.32489164",,,,,,,,19561017.0
Wilhelmstr.,autobus,A17,1956920_unified,"52.43057880,13.31859290",,,,,,,,19561215.0
"Lichterfelde, Saaleckplatz",autobus,A17,1956921_unified,"52.41647199,13.32405876",,,,,,,,1956640.0
Saargemünderstr.,autobus,A18,1956922_unified,"52.45091808,13.27092249",,,,,,,,1956934.0
U-Bhf. Oskar-Helene-Heim,autobus,A18,1956923_unified,"52.45027901,13.27036199",,,,,,,,19561119.0
Sophie-Charlottenstr.,autobus,A18,1956924_unified,"52.44594955,13.26778841",,,,,,,,1956994.0
Potsdamerstr. Ecke Clayallee,autobus,A18,1956925_unified,"52.43504800,13.26042558",,,,,,,,1956815.0
Spanischeallee Ecke Potsdamerchaussee,autobus,A18,1956926_unified,"52.42964102,13.22404076",,,,,,,,19561009.0
Quantzstr. Ecke Potsdamerchaussee,autobus,A18,1956927_unified,"52.42318728,13.20223524",,,,,,,,1956837.0
Rathaus Wannsee,autobus,A18,1956929_unified,"52.41844013,13.14887249",,,,,,,,1956854.0
Stölpchensee,autobus,A18,1956930_unified,"52.41228329,13.14180067",,,,,,,,19561046.0
Kohlhasenbrück,autobus,A18,1956931_unified,"52.39938685,13.14140115",,,,,,,,1956556.0
"Roseneck, Grunewald",autobus,A19,1956932_unified,"52.47720486,13.28063929",,,,,,,,1956886.0
Hagenplatz,autobus,A19,1956933_unified,"52.48338297,13.26581870",,,,,,,,1956414.0
Bhf. Halensee,autobus,A19,1956934_unified,"52.49686559,13.28955734",,,,,,,,1956115.0
Joachimthalerstr. Ecke Kurfürstendamm,autobus,A19,1956935_unified,"52.50386159,13.33132511",,,,,,,,1956503.0
Wilmersdorferstr. Ecke Kurfürstendamm,autobus,A19,1956936_unified,"52.50002845,13.30712512",,,,,,,,19561219.0
Leinbnizstr. Ecke Kurfürstendamm,autobus,A19,1956937_unified,"52.50066113,13.31302316",,,,,,,,1956618.0
Uhlandstr. Ecke Kurfürstendamm,autobus,A19,1956938_unified,"52.50253243,13.32528045",,,,,,,,19561142.0
Breitscheidplatz,autobus,A19,1956939_unified,"52.50443806,13.33564616",,,,,,,,1956199.0
Wittenbergplatz,autobus,A19,1956940_unified,"52.50188939,13.34269788",,,,,,,,19561226.0
Nollendorfplatz,autobus,A19,1956941_unified,"52.49968844,13.35308644",,,,,,,,1956731.0
Potsdamerstr. Ecke Bülowstr.,autobus,A19,1956942_unified,"52.49790083,13.36200447",,,,,,,,1956814.0
Bhf. Yorckstr.,autobus,A19,1956943_unified,"52.49297748,13.36953091",,,,,,,,1956162.0
Katzbachstr.,autobus,A19,1956944_unified,"52.49158428,13.37672546",,,,,,,,1956533.0
Yorckstr. Ecke Mehringdamm,autobus,A19,1956945_unified,"52.49284415,13.38759523",,,,,,,,19561235.0
Dudenstr. Ecke Mehringdamm,autobus,A19,1956946_unified,"52.48494389,13.38602671",,,,,,,,1956272.0
"Tempelhof, Flughafen",autobus,A19,1956947_unified,"52.47821366,13.38585074",,,,,,,,19561069.0
Am Knie,autobus,A2,1956948_unified,"52.51273163,13.32187918",,,,,,,,195633.0
Bhf. Zoo,autobus,A2,1956949_unified,"52.50623278,13.33236208",,,,,,,,1956165.0
Berlinerstr. Ecke Bundesallee,autobus,A2,1956950_unified,"52.48732454,13.33099328",,,,,,,,195690.0
Bundesplatz,autobus,A2,1956951_unified,"52.47867899,13.32860278",,,,,,,,1956222.0
Schloßstr. Ecke Bundesallee,autobus,A2,1956952_unified,"52.46496301,13.32843046",,,,,,,,1956955.0
Feuerbachstr. Ecke Bismarckstr.,autobus,A2,1956953_unified,"52.46451344,13.33892787",,,,,,,,1956313.0
Stadtpark Steglitz,autobus,A2,1956954_unified,"52.45110500,13.33726323",,,,,,,,19561022.0
Siemensstr. Ecke Leonorenstr.,autobus,A2,1956955_unified,"52.44438217,13.33884209",,,,,,,,1956988.0
"Lankwitz, Kirche",autobus,A2,1956956_unified,"52.43629187,13.34574539",,,,,,,,1956610.0
"Lankwitz, Trippsteinstr.",autobus,A2,1956957_unified,"52.41898094,13.34615060",,,,,,,,1956612.0
Bhf. Tegel,autobus,A20,1956958_unified,"52.58863501,13.28998515",,,,,,,,1956152.0
Berlinerstr./Alt-Tegel,autobus,A20,1956959_unified,"52.58996129,13.28328292",,,,,,,,195695.0
Kettelerpfad,autobus,A20,1956960_unified,"52.59645135,13.29423219",,,,,,,,1956538.0
Freie Scholle,autobus,A20,1956961_unified,"52.59985154,13.30173616",,,,,,,,1956325.0
Bhf. Waidmannslust,autobus,A20,1956962_unified,"52.60711751,13.32022371",,,,,,,,1956154.0
Oraniendamm Ecke Waidmannslusterdamm,autobus,A20,1956963_unified,"52.60786539,13.32376278",,,,,,,,1956757.0
Am Vierrutenberg,autobus,A20,1956964_unified,"52.61353554,13.34382721",,,,,,,,195638.0
"Lübars, Alt-Lübars",autobus,A20,1956965_unified,"52.61810884,13.35462587",,,,,,,,1956658.0
Wentowsteig Ecke Wilhelmsruherdamm,autobus,A21,1956966_unified,"52.59672562,13.35703894",,,,,,,,19561191.0
Oranienburgerstr. Ecke Eichborndamm,autobus,A21,1956967_unified,"52.59549417,13.33297744",,,,,,,,1956752.0
Alt-Wittenau Ecke Holzhauserstr.,autobus,A21,1956968_unified,"52.59184438,13.32638232",,,,,,,,195628.0
Bhf. Eichbornstr.,autobus,A21,1956969_unified,"52.57760144,13.31554155",,,,,,,,1956110.0
Sportplatz Reinickendorf,autobus,A21,1956970_unified,"52.56795889,13.31203540",,,,,,,,19561013.0
Kurt-Schumacher-Platz,autobus,A21,1956971_unified,"52.56343825,13.32713029",,,,,,,,1956582.0
Saatwinklerdamm,autobus,A21,1956972_unified,"52.54802939,13.30056946",,,,,,,,1956936.0
Bhf. Jungfernheide,autobus,A21,1956973_unified,"52.53013879,13.29601882",,,,,,,,1956123.0
Luisenplatz,autobus,A21,1956974_unified,"52.52005409,13.29951339",,,,,,,,1956655.0
Stuttgarterplatz,autobus,A21,1956975_unified,"52.50551611,13.30292330",,,,,,,,19561044.0
Amtsgericht Charlottenburg,autobus,A21,1956976_unified,"52.50571854,13.29534740",,,,,,,,195642.0
Kurfürstendamm Ecke Joachim-Friedrichstr.,autobus,A21,1956977_unified,"52.49794483,13.29620731",,,,,,,,1956573.0
Bhf. Hohenzollerndamm,autobus,A21,1956978_unified,"52.48832717,13.30143693",,,,,,,,1956121.0
U-Bhf. Fehrbellinerplatz,autobus,A21,1956979_unified,"52.49039093,13.31417746",,,,,,,,19561100.0
"Hessenwinkel, Lindenstr.",autobus,A22,1956980_unified,"52.42653519,13.72845897",,,,,,,,1956455.0
S-Bhf. Wilhelmshagen,autobus,A22,1956981_unified,"52.43886122,13.72106025",,,,,,,,1956931.0
Zentralschule,autobus,A22,1956982_unified,"52.43465069,13.70369221",,,,,,,,19561241.0
Paradiesgarten,autobus,A22,1956983_unified,"52.44194345,13.68660587",,,,,,,,1956794.0
S-Bhf. Rahnsdorf,autobus,A22,1956984_unified,"52.45162837,13.69157910",,,,,,,,1956926.0
"Fichtenau, Stadtgrenze",autobus,A22,1956985_unified,"52.45479242,13.70149996",,,,,,,,1956315.0
"Altglienicke, Kirche",autobus,A23,1956986_unified,"52.42184573,13.53940770",,,,,,,,195631.0
Dankmarsteig,autobus,A23,1956987_unified,"52.41246045,13.52870523",,,,,,,,1956254.0
Wolfmarsteig,autobus,A23,1956988_unified,"52.41268952,13.53660263",,,,,,,,19561230.0
"Moabit, Wiebestr. Strassenbahnhof",autobus,A24,1956989_unified,"52.53058474,13.31939218",,,,,,,,1956705.0
Gotzkowskystr. Ecke Turmstr.,autobus,A24,1956990_unified,"52.52721970,13.33057000",,,,,,,,1956377.0
Stromstr. Ecke Turmstr.,autobus,A24,1956991_unified,"52.52634184,13.34312496",,,,,,,,19561042.0
Rathenowerstr. Ecke Turmstr.,autobus,A24,1956992_unified,"52.52674220,13.35538761",,,,,,,,1956856.0
Alt-Moabit/Paulstr.,autobus,A24,1956993_unified,"52.52362367,13.35692524",,,,,,,,195619.0
Brückenallee Ecke Altonaerstr.,autobus,A24,1956994_unified,"52.51683079,13.34467504",,,,,,,,1956207.0
Großer Stern,autobus,A24,1956995_unified,"52.51452472,13.34993319",,,,,,,,1956393.0
Lützowplatz,autobus,A24,1956996_unified,"52.50502902,13.35182287",,,,,,,,1956659.0
Potsdamerstr. Ecke Lützowstr.,autobus,A24,1956997_unified,"52.50309197,13.36572928",,,,,,,,1956817.0
Anhalter Bhf.,autobus,A24,1956998_unified,"52.50469390,13.38196950",,,,,,,,195646.0
U-Bhf. Hallesches Tor,autobus,A24,1956999_unified,"52.49791002,13.39130767",,,,,,,,19561108.0
U-Bhf. Gneisenaustr.,autobus,A24,19561000_unified,"52.49122659,13.39632791",,,,,,,,19561105.0
Friesenstr. Ecke Columbiadamm,autobus,A24,19561001_unified,"52.48395584,13.39438227",,,,,,,,1956338.0
"Tempelhof, Flughafen",autobus,A24,19561002_unified,"52.47821366,13.38585074",,,,,,,,19561069.0
Unionplatz,autobus,A25,19561003_unified,"52.53305940,13.33727881",,,,,,,,19561145.0
Turmstr. Ecke Huttenstr.,autobus,A25,19561004_unified,"52.52739409,13.32866580",,,,,,,,19561087.0
Gotzkowskybrücke Ecke Alt-Moabit,autobus,A25,19561005_unified,"52.52378498,13.32959257",,,,,,,,1956375.0
Hansaplatz,autobus,A25,19561006_unified,"52.51793433,13.34203819",,,,,,,,1956421.0
U-Bhf. Ernst-Reuter-Platz,autobus,A25,19561007_unified,"52.51164603,13.32229086",,,,,,,,19561098.0
Bhf. Zoo,autobus,A25,19561008_unified,"52.50623278,13.33236208",,,,,,,,1956165.0
Kurfürstendamm Ecke Joachimstalerstr.,autobus,A25,19561009_unified,"52.50382176,13.33132406",,,,,,,,1956574.0
Berlinerstr. Ecke Bundesallee,autobus,A25,19561010_unified,"52.48732454,13.33099328",,,,,,,,195690.0
Badenschestr. Ecke Bundeasallee,autobus,A25,19561011_unified,"52.48615871,13.33112651",,,,,,,,195660.0
Hildegardstr. Ecke Bundesallee,autobus,A25,19561012_unified,"52.48166617,13.32941338",,,,,,,,1956457.0
Süd-West-Korso Ecke Bundesallee,autobus,A25,19561013_unified,"52.47725242,13.32847936",,,,,,,,19561053.0
Wiesbadenerstr. Ecke Bundesallee,autobus,A25,19561014_unified,"52.47133681,13.32850654",,,,,,,,19561203.0
Kaisereiche,autobus,A25,19561015_unified,"52.46896806,13.33261489",,,,,,,,1956515.0
Bismarckstr. Ecke Beckerstr.,autobus,A25,19561016_unified,"52.46664521,13.33851238",,,,,,,,1956174.0
Rubensstr. Ecke Grazerplatz,autobus,A25,19561017_unified,"52.46748001,13.34412048",,,,,,,,1956894.0
Grazerdamm Ecke Prellerweg,autobus,A25,19561018_unified,"52.45905794,13.34860437",,,,,,,,1956384.0
Röblingstr. Ecke Arnulfstr.,autobus,A25,19561019_unified,"52.45674603,13.35940855",,,,,,,,1956902.0
Attilaplatz,autobus,A25,19561020_unified,"52.45590180,13.37651250",,,,,,,,195652.0
Tempelhoferdamm Ecke Friedrich-Karlstr.,autobus,A25,19561021_unified,"52.45576628,13.38391357",,,,,,,,19561072.0
Gottlieb-Dunkelstr. Ecke Germaniastr.,autobus,A25,19561022_unified,"52.46056888,13.41797540",,,,,,,,1956373.0
Gradestr. (51) Ecke Tempelhoferweg,autobus,A25,19561023_unified,"52.45253309,13.43301994",,,,,,,,1956381.0
Britzerdamm Ecke Tempelhoferweg,autobus,A25,19561024_unified,"52.44894113,13.43622048",,,,,,,,1956201.0
Fritz-Reuter-Allee Ecke Parchimerallee,autobus,A25,19561025_unified,"52.44564579,13.44994872",,,,,,,,1956339.0
Grünerweg Ecke Buschkrugallee,autobus,A25,19561026_unified,"52.44277699,13.45626759",,,,,,,,1956402.0
"S-Bhf. Kaulsdorf, Planitzstr.",autobus,A27,19561027_unified,"52.51113864,13.58755467",,,,,,,,1956916.0
Chemnitzerstr.,autobus,A27,19561028_unified,"52.50512886,13.58158505",,,,,,,,1956240.0
Ulmenstr.,autobus,A27,19561029_unified,"52.48730878,13.57493203",,,,,,,,19561144.0
Gehsenerstr.,autobus,A27,19561030_unified,"52.46321578,13.58365869",,,,,,,,1956351.0
S-Bhf. Köpenick,autobus,A27,19561031_unified,"52.45882190,13.57956468",,,,,,,,1956917.0
Bahnhofstr. Ecke Lindenstr.,autobus,A27,19561032_unified,"52.45096281,13.57214687",,,,,,,,195670.0
"Köpenick, Krankenhaus",autobus,A27,19561033_unified,"52.43861201,13.59241126",,,,,,,,1956599.0
Chausseehaus,autobus,A27,19561034_unified,"52.43009087,13.61469429",,,,,,,,1956237.0
Alt-Müggelheim,autobus,A27,19561035_unified,"52.41018331,13.66589753",,,,,,,,195620.0
Loewenhardtdamm Ecke Boelckestr.,autobus,A28,19561036_unified,"52.47958964,13.37690003",,,,,,,,1956652.0
Dudenstr. Ecke Katzbachstr.,autobus,A28,19561037_unified,"52.48507658,13.37657607",,,,,,,,1956271.0
Monumentenstr. Ecke Katzbachstr.,autobus,A28,19561038_unified,"52.48771272,13.37664037",,,,,,,,1956708.0
Yorckstr. Ecke Großbeerenstr.,autobus,A28,19561039_unified,"52.49371348,13.38350221",,,,,,,,19561234.0
Mehringdamm Ecke Gneisenaustr.,autobus,A28,19561040_unified,"52.49294263,13.38769751",,,,,,,,1956697.0
U-Bhf. Gneisenaustr.,autobus,A28,19561041_unified,"52.49122659,13.39632791",,,,,,,,19561105.0
Urbanstr. Ecke Baerwaldstr.,autobus,A28,19561042_unified,"52.49391291,13.40347082",,,,,,,,19561150.0
U-Bhf. Prinzenstr.,autobus,A28,19561043_unified,"52.49844154,13.40664384",,,,,,,,19561121.0
U-Bhf Kottbusser Tor,autobus,A28,19561044_unified,"52.49905126,13.41835901",,,,,,,,19561091.0
Manteuffelstr. Ecke Köpenickerstr.,autobus,A28,19561045_unified,"52.50572612,13.43197053",,,,,,,,1956672.0
U-Bhf. Schlesisches Tor,autobus,A28,19561046_unified,"52.50108420,13.44197126",,,,,,,,19561127.0
Schlesischestr. Ecke Heckmannufer,autobus,A28,19561047_unified,"52.49754553,13.44838500",,,,,,,,1956948.0
Roseneck,autobus,A29,19561048_unified,"52.47580090,13.28241127",,,,,,,,1956885.0
Hubertussportplatz,autobus,A29,19561049_unified,"52.48558021,13.28421360",,,,,,,,1956480.0
Bismarckplatz,autobus,A29,19561050_unified,"52.49206454,13.28493897",,,,,,,,1956173.0
Bhf. Halensee,autobus,A29,19561051_unified,"52.49686559,13.28955734",,,,,,,,1956115.0
Joachim-Friedrichstr. Ecke Kurfürstendamm,autobus,A29,19561052_unified,"52.49797143,13.29622564",,,,,,,,1956501.0
Wilmersdorferstr. Ecke Kurfürstendamm,autobus,A29,19561053_unified,"52.50002845,13.30712512",,,,,,,,19561219.0
Uhlandstr. Ecke Kurfürstendamm,autobus,A29,19561054_unified,"52.50253243,13.32528045",,,,,,,,19561142.0
Breitscheidplatz,autobus,A29,19561055_unified,"52.50443806,13.33564616",,,,,,,,1956199.0
Wittenbergplatz,autobus,A29,19561056_unified,"52.50188939,13.34269788",,,,,,,,19561226.0
Lützowplatz Ecke Lützowstr.,autobus,A29,19561057_unified,"52.50531246,13.35376242",,,,,,,,1956660.0
Potsdamerstr. Ecke Lützowstr.,autobus,A29,19561058_unified,"52.50309197,13.36572928",,,,,,,,1956817.0
Anhalter Bhf.,autobus,A29,19561059_unified,"52.50469390,13.38196950",,,,,,,,195646.0
Rathaus Zehlendorf,autobus,A3,19561060_unified,"52.43320752,13.25953192",,,,,,,,1956855.0
U-Bhf. Oskar-Helene-Heim,autobus,A3,19561061_unified,"52.45027901,13.27036199",,,,,,,,19561119.0
U-Bhf. Onkel-Toms-Hütte,autobus,A3,19561062_unified,"52.45007713,13.25127259",,,,,,,,19561118.0
U-Bhf. Krumme Lanke,autobus,A3,19561063_unified,"52.44308075,13.24046555",,,,,,,,19561114.0
Bhf. Zehlendorf-West,autobus,A3,19561064_unified,"52.43749073,13.23218404",,,,,,,,1956164.0
Potsdamerchaussee Ecke Spanischeallee,autobus,A3,19561065_unified,"52.42963465,13.22407111",,,,,,,,1956809.0
Bhf. Nikolassee,autobus,A3,19561066_unified,"52.43378197,13.19315206",,,,,,,,1956137.0
Bhf. Wannsee,autobus,A3,19561067_unified,"52.42151302,13.17810257",,,,,,,,1956155.0
Rathaus Wannsee,autobus,A3,19561068_unified,"52.41844013,13.14887249",,,,,,,,1956854.0
"Stölpchensee, Wilhelmplatz",autobus,A3,19561069_unified,"52.41240583,13.14164452",,,,,,,,19561047.0
Saargemünderstr.,autobus,A3E,19561070_unified,"52.45091808,13.27092249",,,,,,,,1956934.0
U-Bhf. Oskar-Helene-Heim,autobus,A3E,19561071_unified,"52.45027901,13.27036199",,,,,,,,19561119.0
Sophie-Charlottestr.,autobus,A3E,19561072_unified,"52.44597916,13.26781747",,,,,,,,1956993.0
Potsdamerstr. Ecke Berlinerstr.,autobus,A3E,19561073_unified,"52.43503285,13.26047648",,,,,,,,1956818.0
Bhf. Zehlendorf,autobus,A3E,19561074_unified,"52.43121178,13.25916441",,,,,,,,1956163.0
Jänickestr.,autobus,A3E,19561075_unified,"52.42721394,13.27165945",,,,,,,,1956508.0
"Lichterfelde, Osteweg",autobus,A3E,19561076_unified,"52.42100406,13.28112836",,,,,,,,1956639.0
"Gartenstadt, Staaken, Heidelbergplan",autobus,A31,19561077_unified,"52.54119983,13.14684287",,,,,,,,1956348.0
Eichholzbahn,autobus,A31,19561078_unified,"52.53745642,13.14983572",,,,,,,,1956282.0
Magistratsweg Ecke Brunsbüttelerdamm,autobus,A31,19561079_unified,"52.53308686,13.15795581",,,,,,,,1956666.0
Egelpfuhlstr. Ecke Brunsbüttelerdamm,autobus,A31,19561080_unified,"52.53351470,13.16941721",,,,,,,,1956277.0
Brunsbüttelerdamm Ecke Klosterstr.,autobus,A31,19561081_unified,"52.53290711,13.19846559",,,,,,,,1956206.0
Rathaus Spandau,autobus,A31,19561082_unified,"52.53480744,13.19950552",,,,,,,,1956850.0
Breitestr. Ecke Charlottenstr.,autobus,A31,19561083_unified,"52.53614646,13.20441369",,,,,,,,1956197.0
Bhf. Spandau,autobus,A31,19561084_unified,"52.53480117,13.19940653",,,,,,,,1956145.0
Breitenbachplatz,autobus,A32 (Obus),19561085_unified,"52.46721972,13.30947349",,,,,,,,1956195.0
Rathaus Steglitz,autobus,A32 (Obus),19561086_unified,"52.45683245,13.32075740",,,,,,,,1956852.0
Stadtpark Steglitz,autobus,A32 (Obus),19561087_unified,"52.45110500,13.33726323",,,,,,,,19561022.0
"Lankwitz, Kirche",autobus,A32 (Obus),19561088_unified,"52.43629187,13.34574539",,,,,,,,1956610.0
Marchandstr./Lankwitzer Ring,autobus,A32 (Obus),19561089_unified,"52.42302375,13.35749031",,,,,,,,1956673.0
Marienfelderallee Ecke Lankwitzstr.,autobus,A32 (Obus),19561090_unified,"52.41374126,13.36208676",,,,,,,,1956681.0
Bhf. Marienfelde,autobus,A32 (Obus),19561091_unified,"52.42342247,13.37466418",,,,,,,,1956135.0
Bhf. Steglitz,autobus,A33 (Obus),19561092_unified,"52.45673896,13.32114702",,,,,,,,1956149.0
Stadtpark Steglitz,autobus,A33 (Obus),19561093_unified,"52.45110500,13.33726323",,,,,,,,19561022.0
Bhf. Südende,autobus,A33 (Obus),19561094_unified,"52.44906893,13.35409783",,,,,,,,1956151.0
Bhf. Mariendorf,autobus,A33 (Obus),19561095_unified,"52.44675774,13.36055021",,,,,,,,1956133.0
Kaiserstr./Ringstr.,autobus,A33 (Obus),19561096_unified,"52.44449600,13.37223381",,,,,,,,1956521.0
"Mariendorf, Kaiserstr. Ecke Mariendorferdamm",autobus,A33 (Obus),19561097_unified,"52.44556685,13.38579424",,,,,,,,1956676.0
"Spandau, Friedhof",autobus,A34,19561098_unified,"52.55313629,13.17967445",,,,,,,,1956998.0
Hafenplatz,autobus,A34,19561099_unified,"52.54215888,13.20604486",,,,,,,,1956412.0
Rathaus Spandau,autobus,A34,19561100_unified,"52.53480744,13.19950552",,,,,,,,1956850.0
Heerstr. Ecke Pichelsdorferstr.,autobus,A34,19561101_unified,"52.51303189,13.19686538",,,,,,,,1956429.0
"Gatow, Kirche",autobus,A34,19561102_unified,"52.48684681,13.18215148",,,,,,,,1956350.0
Badewiese Ecke Kladowerdamm,autobus,A34,19561103_unified,"52.47885441,13.17917096",,,,,,,,195662.0
"Gatow, Flugplatz",autobus,A34,19561104_unified,"52.47170253,13.12305743",,,,,,,,1956349.0
Neukladowerallee Ecke Kladowerdamm,autobus,A34,19561105_unified,"52.45988941,13.15389164",,,,,,,,1956722.0
Alt-Kladow,autobus,A34,19561106_unified,"52.45459141,13.14448804",,,,,,,,195614.0
"Groß-Glienicke, Gutshof",autobus,A34,19561107_unified,"52.47754828,13.12051365",,,,,,,,1956391.0
Germersheimerplatz,autobus,A35,19561108_unified,"52.54433254,13.18733636",,,,,,,,1956355.0
Rathaus Spandau,autobus,A35,19561109_unified,"52.53480744,13.19950552",,,,,,,,1956850.0
Heerstr. Ecke Pichelsdorferstr.,autobus,A35,19561110_unified,"52.51303189,13.19686538",,,,,,,,1956429.0
Weinmeisterhornweg,autobus,A35,19561111_unified,"52.50924682,13.18031485",,,,,,,,19561180.0
"Gatow, Kirche",autobus,A35,19561112_unified,"52.48684681,13.18215148",,,,,,,,1956350.0
Badewiese Ecke Kladowerdamm,autobus,A35,19561113_unified,"52.47885441,13.17917096",,,,,,,,195662.0
Flugplatz,autobus,A35,19561114_unified,"52.46661352,13.16464896",,,,,,,,1956320.0
Neukladowerallee Ecke Kladowerdamm,autobus,A35,19561115_unified,"52.45988941,13.15389164",,,,,,,,1956722.0
Alt-Kladow Ecke Kladowerdamm,autobus,A35,19561116_unified,"52.45345696,13.14393050",,,,,,,,195615.0
"Kladow, Hottengrund (Stadtgrenze)",autobus,A35,19561117_unified,"52.44607912,13.12629608",,,,,,,,1956542.0
S-Bhf. Grünau,autobus,A36,19561118_unified,"52.41361516,13.57379629",,,,,,,,1956914.0
"Bohnsdorf, Kirche",autobus,A36,19561119_unified,"52.39948771,13.55557443",,,,,,,,1956185.0
Falkenhöhe,autobus,A36,19561120_unified,"52.40050703,13.53822948",,,,,,,,1956304.0
Waltersdorferchaussee (Spinne),autobus,A36,19561121_unified,"52.39285300,13.52267710",,,,,,,,19561165.0
"Schönefeld, Dorfplatz",autobus,A36,19561122_unified,"52.34209306,13.51046545",,,,,,,,1956969.0
Bhf. Lichtenberg,autobus,A37,19561123_unified,"52.51128756,13.49959112",,,,,,,,1956126.0
"Friedrichsfelde, Schloßstr.",autobus,A37,19561124_unified,"52.50970331,13.51904588",,,,,,,,1956334.0
S-Bhf. Biesdorf,autobus,A37,19561125_unified,"52.51343259,13.55538728",,,,,,,,1956909.0
Cäcilienstr.,autobus,A37,19561126_unified,"52.52964699,13.55800435",,,,,,,,1956246.0
"Geißenweide, Elisabethstr.",autobus,A37,19561127_unified,"52.53416191,13.56138097",,,,,,,,1956352.0
"Alt-Marzahn, Kirche",autobus,A37,19561128_unified,"52.54242345,13.56406175",,,,,,,,195618.0
Waltersdorf,autobus,A38,19561129_unified,"52.36492901,13.55571241",,,,,,,,19561164.0
"Bohnsdorf, Waldstr.",autobus,A38,19561130_unified,"52.38939719,13.57066656",,,,,,,,1956186.0
Lindenstr. Ecke Waltersdorferstr.,autobus,A38,19561131_unified,"52.39226165,13.57226695",,,,,,,,1956649.0
Merkurstr. Ecke Schulzendorferstr.,autobus,A38,19561132_unified,"52.39730177,13.58261958",,,,,,,,1956701.0
S-Bhf. Grünau,autobus,A38,19561133_unified,"52.41361516,13.57379629",,,,,,,,1956914.0
"Wartenberg, Siedlung",autobus,A39,19561134_unified,"52.58393196,13.53076034",,,,,,,,19561172.0
Birkholzerweg,autobus,A39,19561135_unified,"52.57869320,13.51976315",,,,,,,,1956172.0
Falkenbergerchaussee,autobus,A39,19561136_unified,"52.56581686,13.51191371",,,,,,,,1956302.0
"Hohenschönhausen, Falkenbergerstr.",autobus,A39,19561137_unified,"52.55022955,13.50958504",,,,,,,,1956468.0
Brixplatz,autobus,A4,19561138_unified,"52.51907944,13.25699371",,,,,,,,1956203.0
Reichskanzlerplatz,autobus,A4,19561139_unified,"52.50929184,13.27265694",,,,,,,,1956862.0
Masurenallee Ecke Messedamm,autobus,A4,19561140_unified,"52.50649282,13.28038406",,,,,,,,1956694.0
Halenseestr. Ecke Kurfürstendamm,autobus,A4,19561141_unified,"52.49493973,13.28546614",,,,,,,,1956417.0
Bhf. Halensee,autobus,A4,19561142_unified,"52.49686559,13.28955734",,,,,,,,1956115.0
Hochmeisterplatz,autobus,A4,19561143_unified,"52.49468638,13.30125468",,,,,,,,1956465.0
U-Bhf. Fehrbellinerplatz,autobus,A4,19561144_unified,"52.49039093,13.31417746",,,,,,,,19561100.0
Bundesallee Ecke Badenschestr.,autobus,A4,19561145_unified,"52.48613795,13.33110030",,,,,,,,1956219.0
Rathaus Schöneberg,autobus,A4,19561146_unified,"52.48515474,13.34508660",,,,,,,,1956846.0
Innsbruckerplatz,autobus,A4,19561147_unified,"52.47854551,13.34405869",,,,,,,,1956490.0
Dominicusstr. Ecke Hauptstr.,autobus,A4,19561148_unified,"52.48180072,13.34837800",,,,,,,,1956265.0
Kaiser-Wilhelm-Platz,autobus,A4,19561149_unified,"52.48632925,13.35655627",,,,,,,,1956512.0
Katzbachstr. Ecke Dudenstr.,autobus,A4,19561150_unified,"52.48505321,13.37654668",,,,,,,,1956534.0
U-Bhf. Flughafen,autobus,A4,19561151_unified,"52.48488596,13.38599655",,,,,,,,19561101.0
Friesenstr. Ecke Columbiadamm,autobus,A4,19561152_unified,"52.48395584,13.39438227",,,,,,,,1956338.0
U-Bhf. Boddinstr.,autobus,A4,19561153_unified,"52.48028652,13.42527957",,,,,,,,19561093.0
Rathaus Neukölln,autobus,A4,19561154_unified,"52.48152537,13.43438108",,,,,,,,1956843.0
Finowstr. Ecke Sonnenallee,autobus,A4,19561155_unified,"52.48107312,13.44139568",,,,,,,,1956316.0
Leninallee Ecke Dimitroffstr.,autobus,A41,19561156_unified,"52.52640062,13.44756753",,,,,,,,1956622.0
Steuerhaus,autobus,A41,19561157_unified,"52.53049300,13.46149890",,,,,,,,19561031.0
Weißenseerweg,autobus,A41,19561158_unified,"52.53305920,13.47625284",,,,,,,,19561187.0
Genslerstr.,autobus,A41,19561159_unified,"52.53422668,13.49679181",,,,,,,,1956353.0
Dingelstädterstr.,autobus,A41,19561160_unified,"52.53587676,13.52205863",,,,,,,,1956262.0
"Marzahn, Bürknersfelde",autobus,A41,19561161_unified,"52.53899732,13.53460083",,,,,,,,1956692.0
"Buch, Zepernickerstr.",autobus,A42,19561162_unified,"52.64161725,13.51557571",,,,,,,,1956210.0
Lindenbergerweg,autobus,A42,19561163_unified,"52.63267168,13.50029910",,,,,,,,1956644.0
"Karow, Kirche",autobus,A42,19561164_unified,"52.61201627,13.48313435",,,,,,,,1956531.0
"Strasse 46, Güteraußenring",autobus,A42,19561165_unified,"52.60084858,13.47016362",,,,,,,,19561033.0
"Blankenburg, Bahnhofstr.",autobus,A42,19561166_unified,"52.59138047,13.45351227",,,,,,,,1956180.0
"Heinersdorf, Kirche",autobus,A42,19561167_unified,"52.56826376,13.44060190",,,,,,,,1956439.0
Gustav-Adolfstr. Ecke Rennbahnstr.,autobus,A42,19561168_unified,"52.56217827,13.45427509",,,,,,,,1956406.0
Ostseestr. Ecke Prenzlauerallee,autobus,A42,19561169_unified,"52.55116334,13.43015925",,,,,,,,1956774.0
Bürknersfelde,autobus,A43,19561170_unified,"52.53888981,13.53415938",,,,,,,,1956230.0
"Marzahn, Pekrunstr.",autobus,A43,19561171_unified,"52.54023585,13.54617009",,,,,,,,1956693.0
Güterbahnhof Springpfuhl,autobus,A43,19561172_unified,"52.52561232,13.53368732",,,,,,,,1956409.0
S-Bhf. Friedrichsfelde-Ost,autobus,A43,19561173_unified,"52.51324537,13.52403058",,,,,,,,1956910.0
U-Bhf. Friedrichsfelde,autobus,A43,19561174_unified,"52.50624112,13.51285306",,,,,,,,19561103.0
"Hönow, Dorfstr.",autobus,A44,19561175_unified,"52.54884928,13.63648688",,,,,,,,1956484.0
Hönowerstr. Ecke Greifswalderstr.,autobus,A44,19561176_unified,"52.53004080,13.62684607",,,,,,,,1956485.0
Am Rosenhag,autobus,A44,19561177_unified,"52.52474356,13.62177583",,,,,,,,195636.0
S-Bhf. Mahlsdorf,autobus,A44,19561178_unified,"52.51234909,13.61221794",,,,,,,,1956920.0
Greifswalderstr.,autobus,A44E,19561179_unified,"52.53002871,13.62681794",,,,,,,,1956386.0
Am Rosenhag,autobus,A44E,19561180_unified,"52.52474356,13.62177583",,,,,,,,195636.0
S-Bhf. Mahlsdorf,autobus,A44E,19561181_unified,"52.51234909,13.61221794",,,,,,,,1956920.0
"Wilhelmsruh, Fontanestr.",autobus,A45,19561182_unified,"52.58985939,13.36119357",,,,,,,,19561214.0
Hauptstr. Ecke Edelweißstr.,autobus,A45,19561183_unified,"52.58637926,13.36752939",,,,,,,,1956426.0
Provinzstr.,autobus,A45,19561184_unified,"52.57446959,13.38078669",,,,,,,,1956833.0
Heinrich-Mann-Platz,autobus,A45,19561185_unified,"52.57297246,13.39214613",,,,,,,,1956442.0
"Florastr., S-Bhf. Pankow",autobus,A45,19561186_unified,"52.56679371,13.41003251",,,,,,,,1956318.0
Kissingenplatz,autobus,A45,19561187_unified,"52.56737311,13.42233989",,,,,,,,1956540.0
Prenzlauer Promenade Ecke Thulestr.,autobus,A45,19561188_unified,"52.55640851,13.42916031",,,,,,,,1956823.0
Mirbachplatz,autobus,A45,19561189_unified,"52.55290279,13.44888578",,,,,,,,1956703.0
Rennbahnstr.,autobus,A45,19561190_unified,"52.55702983,13.46697689",,,,,,,,1956871.0
"Weißensee, Feldmannstr.",autobus,A45,19561191_unified,"52.56400731,13.46972804",,,,,,,,19561182.0
"Ahrensfeld, Lindenbergerstr.",autobus,A46,19561192_unified,"52.57534151,13.57646576",,,,,,,,19564.0
Bhf. Ahrensfelde,autobus,A46,19561193_unified,"52.57131372,13.56634155",,,,,,,,1956106.0
"Falkenberg, Schule",autobus,A46,19561194_unified,"52.56880574,13.54952831",,,,,,,,1956301.0
Strasse nach Wartenberg,autobus,A46,19561195_unified,"52.56866269,13.52058210",,,,,,,,19561034.0
Malchowerweg,autobus,A46,19561196_unified,"52.56152031,13.50048590",,,,,,,,1956671.0
Klement-Gottwald-Allee Ecke Falkenbergerstr.,autobus,A46,19561197_unified,"52.55500843,13.46765130",,,,,,,,1956546.0
"Weißensee, Feldtmannstr.",autobus,A46,19561198_unified,"52.56399218,13.46976829",,,,,,,,19561183.0
"Malchow, Dorfstr.",autobus,A46,19561199_unified,"52.58046227,13.48279758",,,,,,,,1956670.0
Bhf. Schöneweide,autobus,A47,19561200_unified,"52.45374952,13.51020040",,,,,,,,1956142.0
Sterndamm Ecke Königsheideweg,autobus,A47,19561201_unified,"52.44657997,13.50648026",,,,,,,,19561030.0
Baumschulenstr. Ecke Südostallee,autobus,A47,19561202_unified,"52.46095842,13.48119184",,,,,,,,195676.0
"S-Bhf. Baumschulenweg, Glanzstr.",autobus,A47,19561203_unified,"52.46785041,13.48979968",,,,,,,,1956908.0
Potsdamerstr. Ecke Fischerhüttenstr.,autobus,A48,19561204_unified,"52.43577515,13.25602800",,,,,,,,1956816.0
Berlinerstr. Ecke Teltowerdamm,autobus,A48,19561205_unified,"52.43505188,13.26049358",,,,,,,,195692.0
Sundgauerstr. Ecke Berlinerstr.,autobus,A48,19561206_unified,"52.43833637,13.27143837",,,,,,,,19561052.0
Thielallee Ecke Berlinerstr.,autobus,A48,19561207_unified,"52.44187703,13.28271563",,,,,,,,19561073.0
Drakestr. Ecke Unter den Eichen,autobus,A48,19561208_unified,"52.44573233,13.29369722",,,,,,,,1956269.0
Asternplatz,autobus,A48,19561209_unified,"52.44943429,13.30387630",,,,,,,,195651.0
Hindenburgdamm Ecke Schloßstr.,autobus,A48,19561210_unified,"52.45349803,13.31560004",,,,,,,,1956459.0
Rathaus Steglitz,autobus,A48,19561211_unified,"52.45683245,13.32075740",,,,,,,,1956852.0
"Bundesallee, Titaniapalast",autobus,A48,19561212_unified,"52.46484929,13.32838711",,,,,,,,1956221.0
Kaisereiche,autobus,A48,19561213_unified,"52.46896806,13.33261489",,,,,,,,1956515.0
Innsbruckerplatz,autobus,A48,19561214_unified,"52.47854551,13.34405869",,,,,,,,1956490.0
Dominicusstr. Ecke Hauptstr.,autobus,A48,19561215_unified,"52.48180072,13.34837800",,,,,,,,1956265.0
Kaiser-Wilhelm-Platz,autobus,A48,19561216_unified,"52.48632925,13.35655627",,,,,,,,1956512.0
Bülowstr. Ecke Potsdamerstr.,autobus,A48,19561217_unified,"52.49780909,13.36204568",,,,,,,,1956228.0
Lützowstr. Ecke Potsdamerstr.,autobus,A48,19561218_unified,"52.50306889,13.36567023",,,,,,,,1956662.0
"Potsdamer Brücke, Am Karlsbad",autobus,A48,19561219_unified,"52.50552546,13.36801927",,,,,,,,1956808.0
"Kaulsdorf, Bausdorfstr.",autobus,A49,19561220_unified,"52.51256368,13.60190682",,,,,,,,1956536.0
Ridbacherstr.,autobus,A49,19561221_unified,"52.52745720,13.60644776",,,,,,,,1956877.0
Baltenring,autobus,A49,19561222_unified,"52.52424994,13.59960952",,,,,,,,195673.0
Uckermarkstr.,autobus,A49,19561223_unified,"52.52145144,13.59672460",,,,,,,,19561136.0
"Kaulsdorf, Hönowerstr. Ecke Bausdorfstr.",autobus,A49,19561224_unified,"52.51299647,13.61223904",,,,,,,,1956537.0
Machandelweg Ecke Charlottenburgerchaussee,autobus,A5,19561225_unified,"52.52491856,13.24499064",,,,,,,,1956663.0
U-Bhf. Ruhleben,autobus,A5,19561226_unified,"52.52596833,13.24147858",,,,,,,,19561124.0
Teltowerstr. Ecke Charlottenburgerstr.,autobus,A5,19561227_unified,"52.52694633,13.21601948",,,,,,,,19561065.0
"Spandau, Markt",autobus,A5,19561228_unified,"52.53758155,13.20379731",,,,,,,,19561000.0
Rathaus Spandau,autobus,A5,19561229_unified,"52.53480744,13.19950552",,,,,,,,1956850.0
Bhf. Spandau-West,autobus,A5,19561230_unified,"52.53497194,13.19846033",,,,,,,,1956147.0
Hochgerichtstr. Ecke Seegefelderstr.,autobus,A5,19561231_unified,"52.53829982,13.18341341",,,,,,,,1956464.0
Zeppelinstr. Ecke Falkenhagenerchaussee,autobus,A5,19561232_unified,"52.54753014,13.18470940",,,,,,,,19561244.0
"Beerwinkel, Wasserwerk",autobus,A5,19561233_unified,"52.55122662,13.16537603",,,,,,,,195681.0
"Spandau, Waldkrankenhaus",autobus,A5,19561234_unified,"52.56214543,13.15834009",,,,,,,,19561004.0
"Emserplatz, Pfalzburgerstr.",autobus,A50,19561235_unified,"52.49294891,13.32174997",,,,,,,,1956294.0
Fehrbellinerplatz,autobus,A50,19561236_unified,"52.49040639,13.31420422",,,,,,,,1956307.0
Konstanzerstr. Ecke Hohenzollerndamm,autobus,A50,19561237_unified,"52.48855788,13.30797013",,,,,,,,1956559.0
Bhf. Hohenzollerndamm,autobus,A50,19561238_unified,"52.48832717,13.30143693",,,,,,,,1956121.0
Flinsbergerplatz,autobus,A50,19561239_unified,"52.48363158,13.29263347",,,,,,,,1956317.0
Elsterplatz,autobus,A50,19561240_unified,"52.47977983,13.28550761",,,,,,,,1956292.0
"Roseneck, Rheinbabenallee, Grunewald",autobus,A50,19561241_unified,"52.47687414,13.28102107",,,,,,,,1956888.0
Bhf. Wannsee,autobus,A51,19561242_unified,"52.42151302,13.17810257",,,,,,,,1956155.0
Bahnhofstr. Ecke Königstr.,autobus,A51,19561243_unified,"52.41995197,13.17530843",,,,,,,,195669.0
Königstr. Ecke Am Grossen Wannsee,autobus,A51,19561244_unified,"52.42052024,13.16717365",,,,,,,,1956594.0
Koblanckstr.,autobus,A51,19561245_unified,"52.42616031,13.16143704",,,,,,,,1956554.0
Colomierstr.,autobus,A51,19561246_unified,"52.42928676,13.16409030",,,,,,,,1956243.0
Krankenhaus Wannsee,autobus,A51,19561247_unified,"52.43102765,13.16496452",,,,,,,,1956568.0
Zum Heckeshorn,autobus,A51,19561248_unified,"52.43307505,13.16400874",,,,,,,,19561253.0
Krankenhaus Heckeshorn,autobus,A51,19561249_unified,"52.43498873,13.16171669",,,,,,,,1956565.0
Alt-Marienfelde Ecke Marienfelderallee,autobus,A52,19561250_unified,"52.41357787,13.36333052",,,,,,,,195617.0
Gutshof Marienfelde,autobus,A52,19561251_unified,"52.41088451,13.37319265",,,,,,,,1956407.0
Bhf. Buckowerchaussee,autobus,A52,19561252_unified,"52.41109590,13.38246650",,,,,,,,1956109.0
Lichtenraderdamm Ecke Buckowerchaussee,autobus,A52,19561253_unified,"52.41458110,13.40117040",,,,,,,,1956634.0
Buckowerdamm Ecke Alt-Buckow,autobus,A52,19561254_unified,"52.42364383,13.43666051",,,,,,,,1956214.0
Johannisthalerchaussee Ecke Rudowerstr.,autobus,A52,19561255_unified,"52.43434764,13.46903877",,,,,,,,1956505.0
Wildmeisterdamm Ecke Neuköllnerstr.,autobus,A52,19561256_unified,"52.42575103,13.48323058",,,,,,,,19561210.0
Neuköllnerstr. Ecke Köpenickerstr.,autobus,A52,19561257_unified,"52.41704466,13.49397932",,,,,,,,1956727.0
"Rudow, Kanalstr. Ecke Mimosenweg",autobus,A52,19561258_unified,"52.42676344,13.50612515",,,,,,,,1956896.0
"Wilhelmsruh, Fontanestr.",autobus,A55,19561259_unified,"52.58985939,13.36119357",,,,,,,,19561214.0
Hauptstr. Ecke Edelweißstr.,autobus,A55,19561260_unified,"52.58637926,13.36752939",,,,,,,,1956426.0
Provinzstr.,autobus,A55,19561261_unified,"52.57446959,13.38078669",,,,,,,,1956833.0
"Schulzestr., S-Bhf. Wollkanstr.",autobus,A55,19561262_unified,"52.56642191,13.39216577",,,,,,,,1956964.0
"Florastr., S-Bhf. Pankow",autobus,A55,19561263_unified,"52.56679371,13.41003251",,,,,,,,1956318.0
Prenzlauerstr. Ecke Granitzstr.,autobus,A55,19561264_unified,"52.57207384,13.42873962",,,,,,,,1956826.0
"Heinersdorf, Kirche",autobus,A55,19561265_unified,"52.56826376,13.44060190",,,,,,,,1956439.0
"Weißensee, Rennbahnstr. Ecke Gustav-Adolfstr.",autobus,A55,19561266_unified,"52.56218731,13.45427047",,,,,,,,19561184.0
"Weißensee, Schwarzelfenweg",autobus,A55,19561267_unified,"52.56729838,13.46535453",,,,,,,,19561186.0
Bhf. Wannsee,autobus,A6,19561268_unified,"52.42151302,13.17810257",,,,,,,,1956155.0
Königstr. Ecke Bahnhofstr.,autobus,A6,19561269_unified,"52.41995197,13.17530843",,,,,,,,1956595.0
Am Grossen Wannsee,autobus,A6,19561270_unified,"52.42049658,13.16719297",,,,,,,,195632.0
Pfaueninselchaussee,autobus,A6,19561271_unified,"52.41885403,13.15307472",,,,,,,,1956799.0
Rathaus Wannsee,autobus,A6,19561272_unified,"52.41844013,13.14887249",,,,,,,,1956854.0
Friedenstr.,autobus,A6,19561273_unified,"52.41722378,13.13895017",,,,,,,,1956328.0
Golfplatz,autobus,A6,19561274_unified,"52.41583759,13.12819426",,,,,,,,1956372.0
Nikolskoerweg,autobus,A6,19561275_unified,"52.41405939,13.10927075",,,,,,,,1956730.0
Glienicker Brücke,autobus,A6,19561276_unified,"52.41347409,13.09123588",,,,,,,,1956365.0
"Glienicke, Kirche",autobus,A7,19561277_unified,"52.63062737,13.31286192",,,,,,,,1956363.0
Sophienstr.,autobus,A7,19561278_unified,"52.63073121,13.33402670",,,,,,,,1956995.0
"Glienicke, Pilz",autobus,A7,19561279_unified,"52.63903715,13.36432776",,,,,,,,1956364.0
"Schildow, Kirche",autobus,A7,19561280_unified,"52.63581867,13.37771917",,,,,,,,1956943.0
"Blankenfelde, Hauptstr.",autobus,A7,19561281_unified,"52.63002535,13.38262328",,,,,,,,1956182.0
Industriebahn,autobus,A7,19561282_unified,"52.61860431,13.39039578",,,,,,,,1956488.0
"Nordend, Schillerstr.",autobus,A7,19561283_unified,"52.59023303,13.40273305",,,,,,,,1956738.0
Ossietzkyplatz,autobus,A7,19561284_unified,"52.58150701,13.40424959",,,,,,,,1956768.0
Kurt-Fischer-Platz,autobus,A7,19561285_unified,"52.57973293,13.39833073",,,,,,,,1956579.0
"Pankow, Rathaus",autobus,A7,19561286_unified,"52.56953909,13.40418644",,,,,,,,1956782.0
U-Bhf. Vinetastr.,autobus,A7,19561287_unified,"52.55981894,13.41320863",,,,,,,,19561133.0
Waldesruh,autobus,A8,19561288_unified,"52.48487247,13.62894222",,,,,,,,19561162.0
Summterstr.,autobus,A8,19561289_unified,"52.47786081,13.61322100",,,,,,,,19561050.0
Hultschinerdamm,autobus,A8,19561290_unified,"52.47711374,13.60059814",,,,,,,,1956481.0
Chemnitzer Ecke Ulmenstr.,autobus,A8,19561291_unified,"52.48730505,13.57494604",,,,,,,,1956239.0
Zimmermannstr.,autobus,A8,19561292_unified,"52.48661096,13.56036680",,,,,,,,19561247.0
Glewitzerstr.,autobus,A8,19561293_unified,"52.49387671,13.56190774",,,,,,,,1956361.0
"Alt-Biesdorf, Oberfeldstr.",autobus,A8,19561294_unified,"52.50918607,13.55334706",,,,,,,,195613.0
Schloßstr. Ecke Alt-Friedrichsfelde,autobus,A8,19561295_unified,"52.50961040,13.51903219",,,,,,,,1956954.0
U-Bhf. Friedrichsfelde,autobus,A8,19561296_unified,"52.50624112,13.51285306",,,,,,,,19561103.0
Kinderheim,autobus,A82P,19561297_unified,"52.48981531,13.48140423",,,,,,,,1956539.0
Friedrich-Jungestr.,autobus,A82P,19561298_unified,"52.49382897,13.47157287",,,,,,,,1956329.0
Markgrafendamm,autobus,A82P,19561299_unified,"52.49919969,13.46574229",,,,,,,,1956685.0
"Scharnhorststr., Volkspolizeikrankenhaus",autobus,A9,19561300_unified,"52.53487103,13.36972646",,,,,,,,1956942.0
Invalidenstr. Ecke Chausseestr.,autobus,A9,19561301_unified,"52.53058437,13.38307839",,,,,,,,1956496.0
Oranienburger Tor,autobus,A9,19561302_unified,"52.52716314,13.38710905",,,,,,,,1956753.0
S-Bhf. Friedrichstr.,autobus,A9,19561303_unified,"52.51965350,13.38848352",,,,,,,,1956912.0
Unter den Linden Ecke Friedrichstr.,autobus,A9,19561304_unified,"52.51700215,13.38883824",,,,,,,,19561148.0
"Spandauerstr., Rathaus",autobus,A9,19561305_unified,"52.51841076,13.40721396",,,,,,,,19561008.0
Bhf. Alexanderplatz,autobus,A9,19561306_unified,"52.52128739,13.41324204",,,,,,,,1956107.0
Königstor,autobus,A9,19561307_unified,"52.52520269,13.41983499",,,,,,,,1956592.0
"Arnsalderplatz, Dimitroffstr.",autobus,A9,19561308_unified,"52.53375379,13.43817137",,,,,,,,195648.0
Lindenberg,autobus,AL,19561309_unified,"52.60259771,13.52503064",,,,,,,,1956643.0
"Malchow, Dorfstr.",autobus,AL,19561310_unified,"52.58046227,13.48279758",,,,,,,,1956670.0
Bhf. Hohen Neuendorf,autobus,AN,19561311_unified,"52.66955559,13.28699468",,,,,,,,1956120.0
"Bergfelde, Karl-Marxstr.",autobus,AN,19561312_unified,"52.66511141,13.30744601",,,,,,,,195686.0
"Schönfließ , Kirche",autobus,AN,19561313_unified,"52.65606867,13.33892203",,,,,,,,1956971.0
Leninplatz,autobus,AN,19561314_unified,"52.63065468,13.31036848",,,,,,,,1956627.0
"Glienicke, Elsässerstr.",autobus,AN,19561315_unified,"52.63338504,13.34511173",,,,,,,,1956362.0
Warschauer Brücke,u-bahn,B I,19561316_unified,"52.50510000,13.44910000",Q18380174,,,,,,,19561168.0
Schlesisches Tor,u-bahn,B I,19561317_unified,"52.50083333,13.44166667",Q602282,,,,,,,1956947.0
Görlitzer Bahnhof (Oranienstr.),u-bahn,B I,19561318_unified,"52.49920000,13.42800000",Q597759,,,,,,,1956408.0
Kottbusser Tor,u-bahn,B I,19561319_unified,"52.49916667,13.41805556",Q819768,,,,,,,1956563.0
Prinzenstr.,u-bahn,B I,19561320_unified,"52.49833333,13.40611111",Q689797,,,,,,,1956830.0
Hallesches Tor,u-bahn,B I,19561321_unified,"52.49777778,13.39111111",Q658302,,,,,,,1956419.0
Möckernbrücke,u-bahn,B I,19561322_unified,"52.49916667,13.38277778",Q704716,,,,,,,1956711.0
Gleisdreieck,u-bahn,B I,19561323_unified,"52.49952000,13.37409000",Q678372,,,,,,,1956360.0
Kurfürstenstr.,u-bahn,B I,19561324_unified,"52.50000000,13.36194444",Q690203,,,,,,,1956577.0
Nollendorfplatz,u-bahn,B I,19561325_unified,"52.49916667,13.35388889",Q571039,,,,,,,1956733.0
Wittenbergplatz,u-bahn,B I,19561326_unified,"52.50194444,13.34305556",Q692727,,,,,,,19561228.0
Uhlandstr.,u-bahn,B I,19561327_unified,"52.50250000,13.32555556",Q568224,,,,,,,19561140.0
Nollendorfplatz,u-bahn,B II,19561328_unified,"52.49916667,13.35388889",Q571039,,,,,,,1956733.0
Viktoria-Luise-Platz,u-bahn,B II,19561329_unified,"52.49616111,13.34270278",Q178685,,,,,,,19561157.0
Bayerischerplatz,u-bahn,B II,19561330_unified,"52.48833333,13.34027778",Q668574,,,,,,,195679.0
Rathaus Schöneberg,u-bahn,B II,19561331_unified,"52.48311667,13.34193056",Q570926,,,,,,,1956848.0
Innsbruckerplatz (Hauptstr.),u-bahn,B II,19561332_unified,"52.47860000,13.34390000",Q10275871,,,,,,,1956494.0
Kurt-Schumacher-Platz,u-bahn,C I,19561333_unified,"52.56355556,13.32657222",Q555916,,,,,,,1956584.0
Afrikanischestr.,u-bahn,C I,19561334_unified,"52.56002778,13.33463333",Q559239,,,,,,,19563.0
Rehberge,u-bahn,C I,19561335_unified,"52.55670000,13.34120000",Q253850,,,,,,,1956860.0
Seestr.,u-bahn,C I,19561336_unified,"52.55056000,13.35194000",Q554391,,,,,,,1956979.0
Leopoldplatz,u-bahn,C I,19561337_unified,"52.54650000,13.35910000",Q1960809,,,,,,,1956630.0
Bahnhof Wedding,u-bahn,C I,19561338_unified,"52.54250000,13.36611100",Q4018733,,,,,,,195668.0
Reinickendorferstr.,u-bahn,C I,19561339_unified,"52.53991111,13.37037778",Q559249,,,,,,,1956868.0
Schwartzkopffstr.,u-bahn,C I,19561340_unified,"52.53527778,13.37722222",Q554360,,,,,,,1956965.0
Nordbahnhof,u-bahn,C I,19561341_unified,"52.53111111,13.38250000",Q554399,,,,,,,1956736.0
Oranienburger Tor,u-bahn,C I,19561342_unified,"52.52488611,13.38747778",Q571485,,,,,,,1956755.0
Bahnhof Friedrichstr. (Stadtbahn),u-bahn,C I,19561343_unified,"52.52011111,13.38830556",Q3753274,,,,,,,195665.0
Französischestr.,u-bahn,C I,19561344_unified,"52.51472222,13.38916667",Q571479,,,,,,,1956322.0
Stadtmitte (Leipzigerstr.),u-bahn,C I,19561345_unified,"52.51220000,13.38940000",Q660066,,,,,,,19561019.0
Kochstr.,u-bahn,C I,19561346_unified,"52.50589722,13.39061111",Q201849,,,,,,,1956555.0
Hallesches Tor,u-bahn,C I,19561347_unified,"52.49777778,13.39111111",Q658302,,,,,,,1956419.0
Mehringdamm,u-bahn,C I,19561348_unified,"52.49388889,13.38833333",Q657905,,,,,,,1956696.0
Gneisenaustr.,u-bahn,C I,19561349_unified,"52.49138889,13.39555556",Q668618,,,,,,,1956367.0
Südstern,u-bahn,C I,19561350_unified,"52.48944444,13.40777778",Q656081,,,,,,,19561056.0
Hermannplatz,u-bahn,C I,19561351_unified,"52.48629000,13.42455000",Q658929,,,,,,,1956447.0
Rathaus Neukölln,u-bahn,C I,19561352_unified,"52.48166667,13.43416667",Q628770,,,,,,,1956845.0
Karl-Marxstr.,u-bahn,C I,19561353_unified,"52.47611111,13.43916667",Q519494,,,,,,,1956525.0
Neukölln (Südring),u-bahn,C I,19561354_unified,"52.46916667,13.44166667",Q569905,,,,,,,1956724.0
Grenzallee,u-bahn,C I,19561355_unified,"52.46333333,13.44388889",Q571836,,,,,,,1956388.0
Mehringdamm,u-bahn,C II,19561356_unified,"52.49388889,13.38833333",Q657905,,,,,,,1956696.0
Flughafen,u-bahn,C II,19561357_unified,"52.48555600,13.38583300",Q557582,,,,,,,1956319.0
Paradestr.,u-bahn,C II,19561358_unified,"52.47805556,13.38611111",Q557543,,,,,,,1956793.0
Tempelhof (Südring),u-bahn,C II,19561359_unified,"52.47075000,13.38536111",Q3983109,,,,,,,19561068.0
Gesundbrunnen,u-bahn,D,19561360_unified,"52.54861100,13.38944400",Q3761416,,,,,,,1956357.0
Voltastr.,u-bahn,D,19561361_unified,"52.54209300,13.39302200",Q663308,,,,,,,19561159.0
Bernauerstr.,u-bahn,D,19561362_unified,"52.53750000,13.39666667",Q689293,,,,,,,195698.0
Rosenthalerplatz,u-bahn,D,19561363_unified,"52.53000000,13.40111111",Q663231,,,,,,,1956892.0
Weinmeisterstr.,u-bahn,D,19561364_unified,"52.52583333,13.40388889",Q661876,,,,,,,19561181.0
Alexanderplatz,u-bahn,D,19561365_unified,"52.52140000,13.41190000",Q17173458,,,,,,,19568.0
Jannowitzbrücke,u-bahn,D,19561366_unified,"52.51565600,13.41818500",Q27955418,,,,,,,1956499.0
Neanderstr.,u-bahn,D,19561367_unified,"52.51083333,13.41638889",Q663204,,,,,,,1956716.0
Moritzplatz,u-bahn,D,19561368_unified,"52.50361111,13.41083333",Q374225,,,,,,,1956709.0
Kottbusser Tor,u-bahn,D,19561369_unified,"52.49916667,13.41805556",Q819768,,,,,,,1956563.0
Kottbusserdamm (Schönleinstr.),u-bahn,D,19561370_unified,"52.49305556,13.42194444",Q666868,,,,,,,1956561.0
Hermannplatz,u-bahn,D,19561371_unified,"52.48629000,13.42455000",Q658929,,,,,,,1956447.0
Boddinstr.,u-bahn,D,19561372_unified,"52.48000000,13.42527778",Q819495,,,,,,,1956184.0
Leinestr.,u-bahn,D,19561373_unified,"52.47277778,13.42833333",Q668563,,,,,,,1956619.0
Alexanderplatz,u-bahn,E,19561374_unified,"52.52140000,13.41190000",Q17173458,,,,,,,19568.0
Schillingstr.,u-bahn,E,19561375_unified,"52.52027800,13.42166700",Q552899,,,,,,,1956945.0
Strausbergerplatz,u-bahn,E,19561376_unified,"52.51805556,13.43083333",Q570999,,,,,,,19561039.0
Marchlewskistr.,u-bahn,E,19561377_unified,"52.51679444,13.44499167",Q551768,,,,,,,1956674.0
Bersarinstr. (Frankfurter Tor),u-bahn,E,19561378_unified,"52.51583333,13.45416667",Q568627,,,,,,,1956102.0
Samariterstr.,u-bahn,E,19561379_unified,"52.51472222,13.46444444",Q552891,,,,,,,1956939.0
Stalinallee,u-bahn,E,19561380_unified,"52.51416667,13.47472222",Q552872,,,,,,,19561027.0
Magdalenenstr.,u-bahn,E,19561381_unified,"52.51250000,13.48638889",Q473901,,,,,,,1956665.0
Bahnhof Lichtenberg (Zentralfriedhof),u-bahn,E,19561382_unified,"52.51055600,13.49638900",Q3831986,,,,,,,195666.0
Friedrichsfelde (Tierpark),u-bahn,E,19561383_unified,"52.50611111,13.51277778",Q429781,,,,,,,1956332.0
Gesundbrunnen,s-bahn,KBS 100,19561384_unified,"52.54861111,13.38944444",Q111239092,,,,,,,1956356.0
Schönhauserallee,s-bahn,KBS 100,19561385_unified,"52.54932900,13.41370600",Q111264493,,,,,,,1956972.0
Prenzlauerallee,s-bahn,KBS 100,19561386_unified,"52.54477500,13.42611600",Q32661483,,,,,,,1956820.0
Greifswalderstr.,s-bahn,KBS 100,19561387_unified,"52.53972222,13.43944444",Q439246,,,,,,,1956385.0
Leninallee,s-bahn,KBS 100,19561388_unified,"52.52950000,13.45480000",Q800507,,,,,,,1956620.0
Zentralviehhof,s-bahn,KBS 100,19561389_unified,"52.52380000,13.46440000",Q800512,,,,,,,19561242.0
Stalinallee,s-bahn,KBS 100,19561390_unified,"52.51416667,13.47472222",Q111250033,,,,,,,19561025.0
Ostkreuz,s-bahn,KBS 100,19561391_unified,"52.50310000,13.46890000",Q111251530,,,,,,,1956773.0
Treptower Park,s-bahn,KBS 100,19561392_unified,"52.49380000,13.46180000",Q559274,,,,,,,19561084.0
Sonnenallee,s-bahn,KBS 100,19561393_unified,"52.47300000,13.45580000",Q481364,,,,,,,1956989.0
Neukölln,s-bahn,KBS 100,19561394_unified,"52.46916667,13.44166667",Q111325412,,,,,,,1956723.0
Hermannstr.,s-bahn,KBS 100,19561395_unified,"52.46750000,13.43111111",Q111263802,,,,,,,1956448.0
Tempelhof,s-bahn,KBS 100,19561396_unified,"52.47080000,13.38540000",Q111264368,,,,,,,19561067.0
Papestr.,s-bahn,KBS 100,19561397_unified,"52.47560000,13.36440000",Q111323139,,,,,,,1956792.0
Schöneberg,s-bahn,KBS 100,19561398_unified,"52.47940000,13.35170000",Q543855,,,,,,,1956967.0
Innsbruckerplatz,s-bahn,KBS 100,19561399_unified,"52.47860000,13.34390000",Q111263876,,,,,,,1956491.0
Wilmersdorf,s-bahn,KBS 100,19561400_unified,"52.47765833,13.32852500",Q464094,,,,,,,19561216.0
Schmargendorf,s-bahn,KBS 100,19561401_unified,"52.47967222,13.31244167",Q302810,,,,,,,1956958.0
Hohenzollerndamm,s-bahn,KBS 100,19561402_unified,"52.48850000,13.30040000",Q800503,,,,,,,1956473.0
Halensee,s-bahn,KBS 100,19561403_unified,"52.49610000,13.29060000",Q800476,,,,,,,1956416.0
Westkreuz,s-bahn,KBS 100,19561404_unified,"52.50110000,13.28390000",Q678125,,,,,,,19561196.0
Witzleben,s-bahn,KBS 100,19561405_unified,"52.50780000,13.28360000",Q321266,,,,,,,19561229.0
Westend,s-bahn,KBS 100,19561406_unified,"52.51810000,13.28440000",Q323214,,,,,,,19561194.0
Jungfernheide,s-bahn,KBS 100,19561407_unified,"52.53035000,13.29943333",Q110977325,,,,,,,1956507.0
Beusselstr.,s-bahn,KBS 100,19561408_unified,"52.53444444,13.32916667",Q323219,,,,,,,1956105.0
Putlitzstr.,s-bahn,KBS 100,19561409_unified,"52.53600000,13.34400000",Q465972,,,,,,,1956835.0
Wedding,s-bahn,KBS 100,19561410_unified,"52.54250000,13.36610000",Q638604,,,,,,,19561174.0
Westend,s-bahn,KBS 100a,19561411_unified,"52.51810000,13.28440000",Q323214,,,,,,,19561194.0
Witzleben,s-bahn,KBS 100a,19561412_unified,"52.50780000,13.28360000",Q321266,,,,,,,19561229.0
Westkreuz,s-bahn,KBS 100a,19561413_unified,"52.50110000,13.28390000",Q678125,,,,,,,19561196.0
Halensee,s-bahn,KBS 100a,19561414_unified,"52.49610000,13.29060000",Q800476,,,,,,,1956416.0
Hohenzollerndamm,s-bahn,KBS 100a,19561415_unified,"52.48850000,13.30040000",Q800503,,,,,,,1956473.0
Schmargendorf,s-bahn,KBS 100a,19561416_unified,"52.47967222,13.31244167",Q302810,,,,,,,1956958.0
Wilmersdorf,s-bahn,KBS 100a,19561417_unified,"52.47765833,13.32852500",Q464094,,,,,,,19561216.0
Innsbruckerplatz,s-bahn,KBS 100a,19561418_unified,"52.47860000,13.34390000",Q111263876,,,,,,,1956491.0
Schöneberg,s-bahn,KBS 100a,19561419_unified,"52.47940000,13.35170000",Q543855,,,,,,,1956967.0
Papestr.,s-bahn,KBS 100a,19561420_unified,"52.47560000,13.36440000",Q111323139,,,,,,,1956792.0
Tempelhof,s-bahn,KBS 100a,19561421_unified,"52.47080000,13.38540000",Q111264368,,,,,,,19561067.0
Hermannstr.,s-bahn,KBS 100a,19561422_unified,"52.46750000,13.43111111",Q111263802,,,,,,,1956448.0
Neukölln,s-bahn,KBS 100a,19561423_unified,"52.46916667,13.44166667",Q111325412,,,,,,,1956723.0
Köllnische Heide,s-bahn,KBS 100a,19561424_unified,"52.46940000,13.46750000",Q800505,,,,,,,1956585.0
Baumschulenweg,s-bahn,KBS 100a,19561425_unified,"52.46750000,13.48972200",Q324336,,,,,,,195677.0
Schöneweide,s-bahn,KBS 100a,19561426_unified,"52.45500000,13.50944444",Q111323931,,,,,,,1956970.0
Betriebsbahnhof Schöneweide,s-bahn,KBS 100a,19561427_unified,"52.44676000,13.52391000",Q4526101,,,,,,,1956104.0
Adlershof,s-bahn,KBS 100a,19561428_unified,"52.43472222,13.54138889",Q323551,,,,,,,19561.0
Grünau,s-bahn,KBS 100a,19561429_unified,"52.41220000,13.57460000",Q111307258,,,,,,,1956399.0
Blankenburg,s-bahn,KBS 100b,19561430_unified,"52.59150000,13.44350000",Q800469,,,,,,,1956179.0
Pankow-Heinersdorf,s-bahn,KBS 100b,19561431_unified,"52.57806530,13.42950930",Q4892366,,,,,,,1956783.0
Pankow,s-bahn,KBS 100b,19561432_unified,"52.56670000,13.41110000",Q111273850,,,,,,,1956779.0
Schönhauserallee,s-bahn,KBS 100b,19561433_unified,"52.54932900,13.41370600",Q111264493,,,,,,,1956972.0
Prenzlauerallee,s-bahn,KBS 100b,19561434_unified,"52.54477500,13.42611600",Q32661483,,,,,,,1956820.0
Greifswalderstr.,s-bahn,KBS 100b,19561435_unified,"52.53972222,13.43944444",Q439246,,,,,,,1956385.0
Leninallee,s-bahn,KBS 100b,19561436_unified,"52.52950000,13.45480000",Q800507,,,,,,,1956620.0
Zentralviehhof,s-bahn,KBS 100b,19561437_unified,"52.52380000,13.46440000",Q800512,,,,,,,19561242.0
Stalinallee,s-bahn,KBS 100b,19561438_unified,"52.51416667,13.47472222",Q111250033,,,,,,,19561025.0
Ostkreuz,s-bahn,KBS 100b,19561439_unified,"52.50310000,13.46890000",Q111251530,,,,,,,1956773.0
Warschauerstr.,s-bahn,KBS 100b,19561440_unified,"52.50641667,13.45095556",Q111252298,,,,,,,19561169.0
Gesundbrunnen,s-bahn,KBS 100c,19561441_unified,"52.54861111,13.38944444",Q111239092,,,,,,,1956356.0
Schönhauserallee,s-bahn,KBS 100c,19561442_unified,"52.54932900,13.41370600",Q111264493,,,,,,,1956972.0
Prenzlauerallee,s-bahn,KBS 100c,19561443_unified,"52.54477500,13.42611600",Q32661483,,,,,,,1956820.0
Greifswalderstr.,s-bahn,KBS 100c,19561444_unified,"52.53972222,13.43944444",Q439246,,,,,,,1956385.0
Leninallee,s-bahn,KBS 100c,19561445_unified,"52.52950000,13.45480000",Q800507,,,,,,,1956620.0
Zentralviehhof,s-bahn,KBS 100c,19561446_unified,"52.52380000,13.46440000",Q800512,,,,,,,19561242.0
Stalinallee,s-bahn,KBS 100c,19561447_unified,"52.51416667,13.47472222",Q111250033,,,,,,,19561025.0
Ostkreuz,s-bahn,KBS 100c,19561448_unified,"52.50310000,13.46890000",Q111251530,,,,,,,1956773.0
Warschauerstr.,s-bahn,KBS 100c,19561449_unified,"52.50641667,13.45095556",Q111252298,,,,,,,19561169.0
Jungfernheide,s-bahn,KBS 100d,19561450_unified,"52.53035000,13.29943333",Q110977325,,,,,,,1956507.0
Wernerwerk,s-bahn,KBS 100d,19561451_unified,"52.53486300,13.27599000",Q96077001,,,,,,,19561192.0
Siemensstadt,s-bahn,KBS 100d,19561452_unified,"52.53923000,13.26365000",Q96080453,,,,,,,1956985.0
Gartenfeld,s-bahn,KBS 100d,19561453_unified,"52.54695000,13.24882000",Q96080469,,,,,,,1956344.0
Staaken,s-bahn,KBS 101,19561454_unified,"52.53780000,13.14140000",Q477545,,,,,,,19561015.0
Spandau West,s-bahn,KBS 101,19561455_unified,"52.53470000,13.19580000",Q111325678,,,,,,,1956997.0
Spandau,s-bahn,KBS 101,19561456_unified,"52.53200000,13.20890000",Q800491,,,,,,,1956996.0
Pichelsberg,s-bahn,KBS 101,19561457_unified,"52.51030000,13.22710000",Q800488,,,,,,,1956800.0
Reichssportfeld,s-bahn,KBS 101,19561458_unified,"52.51100000,13.24160000",Q800506,,,,,,,1956865.0
Heerstr.,s-bahn,KBS 101,19561459_unified,"52.50860000,13.25860000",Q800502,,,,,,,1956428.0
Eichkamp,s-bahn,KBS 101,19561460_unified,"52.49870000,13.27020000",Q800504,,,,,,,1956283.0
Westkreuz,s-bahn,KBS 101,19561461_unified,"52.50110000,13.28390000",Q678125,,,,,,,19561196.0
Charlottenburg,s-bahn,KBS 101,19561462_unified,"52.50472222,13.30333333",Q111326217,,,,,,,1956235.0
Savignyplatz,s-bahn,KBS 101,19561463_unified,"52.50517460,13.31906590",Q554382,,,,,,,1956941.0
Zoologischer Garten,s-bahn,KBS 101,19561464_unified,"52.50722222,13.33250000",Q111326238,,,,,,,19561249.0
Tiergarten,s-bahn,KBS 101,19561465_unified,"52.51440000,13.33650000",Q572112,,,,,,,19561077.0
Bellevue,s-bahn,KBS 101,19561466_unified,"52.52000000,13.34805556",Q374018,,,,,,,195683.0
Lehrter Stadtbahnhof,s-bahn,KBS 101,19561467_unified,"52.52530000,13.36940000",Q821299,,,,,,,1956615.0
Friedrichstr.,s-bahn,KBS 101,19561468_unified,"52.52027778,13.38694444",Q111219456,,,,,,,1956337.0
Marx-Engels-Platz,s-bahn,KBS 101,19561469_unified,"52.52260000,13.40220000",Q689312,,,,,,,1956691.0
Alexanderplatz,s-bahn,KBS 101,19561470_unified,"52.52138889,13.41194444",Q111324700,,,,,,,19567.0
Jannowitzbrücke,s-bahn,KBS 101,19561471_unified,"52.51482222,13.41795000","Q27955427, Q27955427",,,,,,,1956498.0
Ostbahnhof,s-bahn,KBS 101,19561472_unified,"52.51000000,13.43470000",Q111325075,,,,,,,1956771.0
Warschauerstr.,s-bahn,KBS 101,19561473_unified,"52.50641667,13.45095556",Q111252298,,,,,,,19561169.0
Ostkreuz,s-bahn,KBS 101,19561474_unified,"52.50310000,13.46890000",Q111251530,,,,,,,1956773.0
Nöldnerplatz,s-bahn,KBS 101,19561475_unified,"52.50380000,13.48530000",Q4892447,,,,,,,1956740.0
Lichtenberg,s-bahn,KBS 101,19561476_unified,"52.51060000,13.49640000",Q634247,,,,,,,1956632.0
Friedrichsfelde Ost,s-bahn,KBS 101,19561477_unified,"52.51410000,13.51980000",Q800473,,,,,,,1956333.0
Biesdorf,s-bahn,KBS 101,19561478_unified,"52.51310000,13.55540000",Q4892357,,,,,,,1956168.0
Kaulsdorf,s-bahn,KBS 101,19561479_unified,"52.51210000,13.59040000",Q800478,,,,,,,1956535.0
Mahlsdorf,s-bahn,KBS 101,19561480_unified,"52.51210000,13.61060000",Q800484,,,,,,,1956668.0
Hoppegarten (Mark),s-bahn,KBS 101,19561481_unified,"52.51830000,13.67340000",Q15197357,,,,,,,1956479.0
Neuenhagen (b Bln),s-bahn,KBS 101,19561482_unified,"52.52080000,13.70030000",Q7001614,,,,,,,1956721.0
Fredersdorf (b Bln),s-bahn,KBS 101,19561483_unified,"52.52650000,13.76250000",Q15197387,,,,,,,1956324.0
Giebelsee,s-bahn,KBS 101,19561484_unified,"52.52910000,13.79100000",Q7178217,,,,,,,1956358.0
Strausberg,s-bahn,KBS 101,19561485_unified,"52.53193300,13.83693300",Q7622326,,,,,,,19561036.0
Strausberg,s-bahn,KBS 101a,19561486_unified,"52.53193300,13.83693300",Q7622326,,,,,,,19561036.0
Strausberg Stadt,s-bahn,KBS 101a,19561487_unified,"52.57660000,13.88780000",Q7622325,,,,,,,19561038.0
Strausberg Nord,s-bahn,KBS 101a,19561488_unified,"52.59020000,13.90840000",Q7622324,,,,,,,19561037.0
Potsdam,s-bahn,KBS 102,19561489_unified,"52.39170000,13.06670000",Q647973,,,,,,,1956807.0
Babelsberg,s-bahn,KBS 102,19561490_unified,"52.39140000,13.09280000",Q801326,,,,,,,195658.0
Griebnitzsee,s-bahn,KBS 102,19561491_unified,"52.39440000,13.12720000",Q315133,,,,,,,1956389.0
Wannsee,s-bahn,KBS 102,19561492_unified,"52.42140000,13.17920000",Q111325896,,,,,,,19561167.0
Nikolassee,s-bahn,KBS 102,19561493_unified,"52.43170000,13.19330000",Q637052,,,,,,,1956729.0
Grunewald,s-bahn,KBS 102,19561494_unified,"52.48920000,13.26140000",Q457266,,,,,,,1956395.0
Westkreuz,s-bahn,KBS 102,19561495_unified,"52.50110000,13.28390000",Q678125,,,,,,,19561196.0
Charlottenburg,s-bahn,KBS 102,19561496_unified,"52.50472222,13.30333333",Q111326217,,,,,,,1956235.0
Savignyplatz,s-bahn,KBS 102,19561497_unified,"52.50517460,13.31906590",Q554382,,,,,,,1956941.0
Zoologischer Garten,s-bahn,KBS 102,19561498_unified,"52.50722222,13.33250000",Q111326238,,,,,,,19561249.0
Tiergarten,s-bahn,KBS 102,19561499_unified,"52.51440000,13.33650000",Q572112,,,,,,,19561077.0
Bellevue,s-bahn,KBS 102,19561500_unified,"52.52000000,13.34805556",Q374018,,,,,,,195683.0
Lehrter Stadtbahnhof,s-bahn,KBS 102,19561501_unified,"52.52530000,13.36940000",Q821299,,,,,,,1956615.0
Friedrichstr.,s-bahn,KBS 102,19561502_unified,"52.52027778,13.38694444",Q111219456,,,,,,,1956337.0
Marx-Engels-Platz,s-bahn,KBS 102,19561503_unified,"52.52260000,13.40220000",Q689312,,,,,,,1956691.0
Alexanderplatz,s-bahn,KBS 102,19561504_unified,"52.52138889,13.41194444",Q111324700,,,,,,,19567.0
Jannowitzbrücke,s-bahn,KBS 102,19561505_unified,"52.51482222,13.41795000","Q27955427, Q27955427",,,,,,,1956498.0
Ostbahnhof,s-bahn,KBS 102,19561506_unified,"52.51000000,13.43470000",Q111325075,,,,,,,1956771.0
Warschauerstr.,s-bahn,KBS 102,19561507_unified,"52.50641667,13.45095556",Q111252298,,,,,,,19561169.0
Ostkreuz,s-bahn,KBS 102,19561508_unified,"52.50310000,13.46890000",Q111251530,,,,,,,1956773.0
Rummelsburg,s-bahn,KBS 102,19561509_unified,"52.50124400,13.47854500",Q15107132,,,,,,,1956899.0
Betriebsbahnhof Rummelsburg,s-bahn,KBS 102,19561510_unified,"52.49390000,13.49780000",Q829009,,,,,,,1956103.0
Karlshorst,s-bahn,KBS 102,19561511_unified,"52.48080000,13.52580000",Q111327045,,,,,,,1956528.0
Wuhlheide,s-bahn,KBS 102,19561512_unified,"52.46890000,13.55330000",Q800514,,,,,,,19561232.0
Köpenick,s-bahn,KBS 102,19561513_unified,"52.45860000,13.58080000",Q800479,,,,,,,1956597.0
Hirschgarten,s-bahn,KBS 102,19561514_unified,"52.45790000,13.60320000",Q4892435,,,,,,,1956461.0
Friedrichshagen,s-bahn,KBS 102,19561515_unified,"52.45740000,13.62330000",Q800474,,,,,,,1956335.0
Rahnsdorf,s-bahn,KBS 102,19561516_unified,"52.45163720,13.68997760",Q800489,,,,,,,1956838.0
Wilhelmshagen,s-bahn,KBS 102,19561517_unified,"52.43860000,13.72220000",Q800494,,,,,,,19561212.0
Erkner,s-bahn,KBS 102,19561518_unified,"52.42960000,13.75130000",Q14434071,,,,,,,1956296.0
Falkensee,s-bahn,KBS 103,19561519_unified,"52.55972200,13.08888900",Q5431918,,,,,,,1956306.0
Albrechtshof,s-bahn,KBS 103,19561520_unified,"52.54940000,13.12830000",Q800470,,,,,,,19566.0
Spandau West,s-bahn,KBS 103,19561521_unified,"52.53470000,13.19580000",Q111325678,,,,,,,1956997.0
Spandau,s-bahn,KBS 103,19561522_unified,"52.53200000,13.20890000",Q800491,,,,,,,1956996.0
Pichelsberg,s-bahn,KBS 103,19561523_unified,"52.51030000,13.22710000",Q800488,,,,,,,1956800.0
Reichssportfeld,s-bahn,KBS 103,19561524_unified,"52.51100000,13.24160000",Q800506,,,,,,,1956865.0
Heerstr.,s-bahn,KBS 103,19561525_unified,"52.50860000,13.25860000",Q800502,,,,,,,1956428.0
Eichkamp,s-bahn,KBS 103,19561526_unified,"52.49870000,13.27020000",Q800504,,,,,,,1956283.0
Westkreuz,s-bahn,KBS 103,19561527_unified,"52.50110000,13.28390000",Q678125,,,,,,,19561196.0
Charlottenburg,s-bahn,KBS 103,19561528_unified,"52.50472222,13.30333333",Q111326217,,,,,,,1956235.0
Savignyplatz,s-bahn,KBS 103,19561529_unified,"52.50517460,13.31906590",Q554382,,,,,,,1956941.0
Zoologischer Garten,s-bahn,KBS 103,19561530_unified,"52.50722222,13.33250000",Q111326238,,,,,,,19561249.0
Tiergarten,s-bahn,KBS 103,19561531_unified,"52.51440000,13.33650000",Q572112,,,,,,,19561077.0
Bellevue,s-bahn,KBS 103,19561532_unified,"52.52000000,13.34805556",Q374018,,,,,,,195683.0
Lehrter Stadtbahnhof,s-bahn,KBS 103,19561533_unified,"52.52530000,13.36940000",Q821299,,,,,,,1956615.0
Friedrichstr.,s-bahn,KBS 103,19561534_unified,"52.52027778,13.38694444",Q111219456,,,,,,,1956337.0
Marx-Engels-Platz,s-bahn,KBS 103,19561535_unified,"52.52260000,13.40220000",Q689312,,,,,,,1956691.0
Alexanderplatz,s-bahn,KBS 103,19561536_unified,"52.52138889,13.41194444",Q111324700,,,,,,,19567.0
Jannowitzbrücke,s-bahn,KBS 103,19561537_unified,"52.51482222,13.41795000","Q27955427, Q27955427",,,,,,,1956498.0
Ostbahnhof,s-bahn,KBS 103,19561538_unified,"52.51000000,13.43470000",Q111325075,,,,,,,1956771.0
Warschauerstr.,s-bahn,KBS 103,19561539_unified,"52.50641667,13.45095556",Q111252298,,,,,,,19561169.0
Ostkreuz,s-bahn,KBS 103,19561540_unified,"52.50310000,13.46890000",Q111251530,,,,,,,1956773.0
Treptower Park,s-bahn,KBS 103,19561541_unified,"52.49380000,13.46180000",Q559274,,,,,,,19561084.0
Plänterwald,s-bahn,KBS 103,19561542_unified,"52.47860000,13.47330000",Q7205917,,,,,,,1956803.0
Baumschulenweg,s-bahn,KBS 103,19561543_unified,"52.46750000,13.48972200",Q324336,,,,,,,195677.0
Schöneweide,s-bahn,KBS 103,19561544_unified,"52.45500000,13.50944444",Q111323931,,,,,,,1956970.0
Betriebsbahnhof Schöneweide,s-bahn,KBS 103,19561545_unified,"52.44676000,13.52391000",Q4526101,,,,,,,1956104.0
Adlershof,s-bahn,KBS 103,19561546_unified,"52.43472222,13.54138889",Q323551,,,,,,,19561.0
Grünau,s-bahn,KBS 103,19561547_unified,"52.41220000,13.57460000",Q111307258,,,,,,,1956399.0
Eichwalde,s-bahn,KBS 103,19561548_unified,"52.37150000,13.61520000",Q19274479,,,,,,,1956284.0
Zeuthen,s-bahn,KBS 103,19561549_unified,"52.34860000,13.62740000",Q8069824,,,,,,,19561245.0
Wildau,s-bahn,KBS 103,19561550_unified,"52.32000000,13.63400000",Q8000974,,,,,,,19561208.0
Königs Wusterhausen,s-bahn,KBS 103,19561551_unified,"52.29660000,13.63110000",Q178002,,,,,,,1956590.0
Spandau West,s-bahn,KBS 103a,19561552_unified,"52.53470000,13.19580000",Q111325678,,,,,,,1956997.0
Spandau,s-bahn,KBS 103a,19561553_unified,"52.53200000,13.20890000",Q800491,,,,,,,1956996.0
Siemensstadt-Fürstenbrunn,s-bahn,KBS 103a,19561554_unified,"52.52800000,13.26950000",Q18747940,,,,,,,1956986.0
Jungfernheide,s-bahn,KBS 103a,19561555_unified,"52.53035000,13.29943333",Q110977325,,,,,,,1956507.0
Beusselstr.,s-bahn,KBS 103a,19561556_unified,"52.53444444,13.32916667",Q323219,,,,,,,1956105.0
Putlitzstr.,s-bahn,KBS 103a,19561557_unified,"52.53600000,13.34400000",Q465972,,,,,,,1956835.0
Wedding,s-bahn,KBS 103a,19561558_unified,"52.54250000,13.36610000",Q638604,,,,,,,19561174.0
Gesundbrunnen,s-bahn,KBS 103a,19561559_unified,"52.54861111,13.38944444",Q111239092,,,,,,,1956356.0
Schönhauserallee,s-bahn,KBS 103a,19561560_unified,"52.54932900,13.41370600",Q111264493,,,,,,,1956972.0
Prenzlauerallee,s-bahn,KBS 103a,19561561_unified,"52.54477500,13.42611600",Q32661483,,,,,,,1956820.0
Greifswalderstr.,s-bahn,KBS 103a,19561562_unified,"52.53972222,13.43944444",Q439246,,,,,,,1956385.0
Leninallee,s-bahn,KBS 103a,19561563_unified,"52.52950000,13.45480000",Q800507,,,,,,,1956620.0
Zentralviehhof,s-bahn,KBS 103a,19561564_unified,"52.52380000,13.46440000",Q800512,,,,,,,19561242.0
Stalinallee,s-bahn,KBS 103a,19561565_unified,"52.51416667,13.47472222",Q111250033,,,,,,,19561025.0
Ostkreuz,s-bahn,KBS 103a,19561566_unified,"52.50310000,13.46890000",Q111251530,,,,,,,1956773.0
Treptower Park,s-bahn,KBS 103a,19561567_unified,"52.49380000,13.46180000",Q559274,,,,,,,19561084.0
Plänterwald,s-bahn,KBS 103a,19561568_unified,"52.47860000,13.47330000",Q7205917,,,,,,,1956803.0
Baumschulenweg,s-bahn,KBS 103a,19561569_unified,"52.46750000,13.48972200",Q324336,,,,,,,195677.0
Schöneweide,s-bahn,KBS 103a,19561570_unified,"52.45500000,13.50944444",Q111323931,,,,,,,1956970.0
Oberspree,s-bahn,KBS 103a,19561571_unified,"52.45250000,13.53820000",Q15192700,,,,,,,1956744.0
Spindlersfeld,s-bahn,KBS 103a,19561572_unified,"52.44720000,13.56130000",Q4892371,,,,,,,19561010.0
Oranienburg,s-bahn,KBS 104,19561573_unified,"52.75360000,13.24960000",Q2341669,,,,,,,1956750.0
Lehnitz,s-bahn,KBS 104,19561574_unified,"52.74110000,13.26350000",Q4258498,,,,,,,1956614.0
Borgsdorf,s-bahn,KBS 104,19561575_unified,"52.71550000,13.27640000",Q4093486,,,,,,,1956187.0
Birkenwerder,s-bahn,KBS 104,19561576_unified,"52.68850000,13.28880000",Q2343634,,,,,,,1956171.0
Hohen-Neuendorf (b Bln),s-bahn,KBS 104,19561577_unified,"52.66840000,13.28700000",Q4500489,,,,,,,1956467.0
Frohnau,s-bahn,KBS 104,19561578_unified,"52.63250000,13.29020000",Q800472,,,,,,,1956340.0
Hermsdorf,s-bahn,KBS 104,19561579_unified,"52.61780000,13.30690000",Q263189,,,,,,,1956450.0
Waidmannslust,s-bahn,KBS 104,19561580_unified,"52.60640000,13.32100000",Q800492,,,,,,,19561160.0
Wittenau (Nordbahn),s-bahn,KBS 104,19561581_unified,"52.59701300,13.33432900",Q111264319,,,,,,,19561225.0
Wilhelmsruh,s-bahn,KBS 104,19561582_unified,"52.58140000,13.36310000",Q800495,,,,,,,19561213.0
Schönholz,s-bahn,KBS 104,19561583_unified,"52.57140000,13.38140000",Q800490,,,,,,,1956975.0
Wollankstr.,s-bahn,KBS 104,19561584_unified,"52.56515250,13.39236270",Q800515,,,,,,,19561231.0
Bornholmerstr.,s-bahn,KBS 104,19561585_unified,"52.55428700,13.39798500",Q32662318,,,,,,,1956188.0
Gesundbrunnen,s-bahn,KBS 104,19561586_unified,"52.54861111,13.38944444",Q111239092,,,,,,,1956356.0
Humboldthain,s-bahn,KBS 104,19561587_unified,"52.54510000,13.37960000",Q481276,,,,,,,1956482.0
Nordbahnhof,s-bahn,KBS 104,19561588_unified,"52.53190000,13.38780000",Q673721,,,,,,,1956735.0
Oranienburgerstr.,s-bahn,KBS 104,19561589_unified,"52.52500000,13.39290000",Q480249,,,,,,,1956751.0
Friedrichstr.,s-bahn,KBS 104,19561590_unified,"52.52027778,13.38694444",Q111219456,,,,,,,1956337.0
Unter den Linden,s-bahn,KBS 104,19561591_unified,"52.51638889,13.38083333",Q477185,,,,,,,19561147.0
Potsdamerplatz,s-bahn,KBS 104,19561592_unified,"52.50940000,13.37660000",Q106086519,,,,,,,1956810.0
Anhalter Bahnhof,s-bahn,KBS 104,19561593_unified,"52.50305556,13.38194444",Q111324573,,,,,,,195644.0
Großgörschenstr.,s-bahn,KBS 104,19561594_unified,"52.49227450,13.36785880",Q21776726,,,,,,,1956394.0
Schöneberg,s-bahn,KBS 104,19561595_unified,"52.47940000,13.35170000",Q543855,,,,,,,1956967.0
Friedenau,s-bahn,KBS 104,19561596_unified,"52.47000000,13.34100000",Q800471,,,,,,,1956327.0
Feuerbachstr.,s-bahn,KBS 104,19561597_unified,"52.46361111,13.33277778",Q800501,,,,,,,1956312.0
Steglitz,s-bahn,KBS 104,19561598_unified,"52.45620000,13.32160000",Q111264179,,,,,,,19561028.0
Botanischer Garten,s-bahn,KBS 104,19561599_unified,"52.44806000,13.30722000",Q800498,,,,,,,1956191.0
Lichterfelde West,s-bahn,KBS 104,19561600_unified,"52.44330000,13.29470000",Q111327103,,,,,,,1956637.0
Sundgauerstr.,s-bahn,KBS 104,19561601_unified,"52.43629100,13.27377200",Q800513,,,,,,,19561051.0
Zehlendorf,s-bahn,KBS 104,19561602_unified,"52.43090000,13.25840000",Q737962,,,,,,,19561237.0
Zehlendorf West,s-bahn,KBS 104,19561603_unified,"52.43750000,13.23250000",Q315891,,,,,,,19561238.0
Schlachtensee,s-bahn,KBS 104,19561604_unified,"52.44010000,13.21530000",Q800509,,,,,,,1956946.0
Nikolassee,s-bahn,KBS 104,19561605_unified,"52.43170000,13.19330000",Q637052,,,,,,,1956729.0
Wannsee,s-bahn,KBS 104,19561606_unified,"52.42140000,13.17920000",Q111325896,,,,,,,19561167.0
Zehlendorf,s-bahn,KBS 104a,19561607_unified,"52.43090000,13.25840000",Q737962,,,,,,,19561237.0
Düppel-Kleinmachnow,s-bahn,KBS 104a,19561608_unified,"52.42138889,13.22666667",Q44763529,,,,,,,1956274.0
Wannsee,s-bahn,KBS 104b,19561609_unified,"52.42140000,13.17920000",Q111325896,,,,,,,19561167.0
Dreilinden,s-bahn,KBS 104b,19561610_unified,"52.40334211,13.17596363",Q96473908,,,,,,,1956270.0
Stahnsdorf,s-bahn,KBS 104b,19561611_unified,"52.38972222,13.19000000",Q23787450,,,,,,,19561023.0
Velten (Mark),s-bahn,KBS 105,19561612_unified,"52.68500000,13.17222200",Q19274518,,,,,,,19561152.0
Hohenschöpping,s-bahn,KBS 105,19561613_unified,"52.67000000,13.19450000",Q19274489,,,,,,,1956472.0
Hennigsdorf (b Bln),s-bahn,KBS 105,19561614_unified,"52.63800000,13.20570000",Q800909,,,,,,,1956443.0
Heiligensee,s-bahn,KBS 105,19561615_unified,"52.62470000,13.22920000",Q800475,,,,,,,1956434.0
Schulzendorf (b Tegel),s-bahn,KBS 105,19561616_unified,"52.61280000,13.24620000",Q800487,,,,,,,1956963.0
Tegel,s-bahn,KBS 105,19561617_unified,"52.58860000,13.28940000",Q800493,,,,,,,19561058.0
Eichbornstr.,s-bahn,KBS 105,19561618_unified,"52.57760000,13.31690000",Q800500,,,,,,,1956280.0
Wittenau (Kremmener Bahn),s-bahn,KBS 105,19561619_unified,"52.59701300,13.33432900",Q111264319,,,,,,,19561224.0
Reinickendorf,s-bahn,KBS 105,19561620_unified,"52.57790000,13.35060000",Q800496,,,,,,,1956866.0
Schönholz,s-bahn,KBS 105,19561621_unified,"52.57140000,13.38140000",Q800490,,,,,,,1956975.0
Wollankstr.,s-bahn,KBS 105,19561622_unified,"52.56515250,13.39236270",Q800515,,,,,,,19561231.0
Bornholmerstr.,s-bahn,KBS 105,19561623_unified,"52.55428700,13.39798500",Q32662318,,,,,,,1956188.0
Gesundbrunnen,s-bahn,KBS 105,19561624_unified,"52.54861111,13.38944444",Q111239092,,,,,,,1956356.0
Humboldthain,s-bahn,KBS 105,19561625_unified,"52.54510000,13.37960000",Q481276,,,,,,,1956482.0
Nordbahnhof,s-bahn,KBS 105,19561626_unified,"52.53190000,13.38780000",Q673721,,,,,,,1956735.0
Oranienburgerstr.,s-bahn,KBS 105,19561627_unified,"52.52500000,13.39290000",Q480249,,,,,,,1956751.0
Friedrichstr.,s-bahn,KBS 105,19561628_unified,"52.52027778,13.38694444",Q111219456,,,,,,,1956337.0
Unter den Linden,s-bahn,KBS 105,19561629_unified,"52.51638889,13.38083333",Q477185,,,,,,,19561147.0
Potsdamerplatz,s-bahn,KBS 105,19561630_unified,"52.50940000,13.37660000",Q106086519,,,,,,,1956810.0
Anhalter Bahnhof,s-bahn,KBS 105,19561631_unified,"52.50305556,13.38194444",Q111324573,,,,,,,195644.0
Yorckstr.,s-bahn,KBS 105,19561632_unified,"52.49177778,13.37214167",Q21776729,,,,,,,19561233.0
Papestr.,s-bahn,KBS 105,19561633_unified,"52.47560000,13.36440000",Q111323139,,,,,,,1956792.0
Priesterweg,s-bahn,KBS 105,19561634_unified,"52.46010000,13.35630000",Q800508,,,,,,,1956827.0
Mariendorf,s-bahn,KBS 105,19561635_unified,"52.44780000,13.36090000",Q800497,,,,,,,1956675.0
Marienfelde,s-bahn,KBS 105,19561636_unified,"52.42420000,13.37470000",Q800485,,,,,,,1956680.0
Buckower Ch.,s-bahn,KBS 105,19561637_unified,"52.41030000,13.38290000",Q800499,,,,,,,1956213.0
Lichtenrade,s-bahn,KBS 105,19561638_unified,"52.38760000,13.39630000",Q6543354,,,,,,,1956633.0
Mahlow,s-bahn,KBS 105,19561639_unified,"52.36020000,13.40850000",Q2641431,,,,,,,1956667.0
Blankenfelde (Kr. Zossen),s-bahn,KBS 105,19561640_unified,"52.33760000,13.41580000",Q111311372,,,,,,,1956181.0
Dahlewitz,s-bahn,KBS 105,19561641_unified,"52.32638900,13.41972200",Q5208886,,,,,,,1956249.0
Rangsdorf,s-bahn,KBS 105,19561642_unified,"52.29444400,13.43027800",Q801345,,,,,,,1956841.0
Bernau (b Bln),s-bahn,KBS 106,19561643_unified,"52.67630000,13.59310000",Q479789,,,,,,,195697.0
Röntgental,s-bahn,KBS 106,19561645_unified,"52.64870000,13.51360000",Q801386,,,,,,,1956903.0
Buch,s-bahn,KBS 106,19561646_unified,"52.63590000,13.49170000",Q4892359,,,,,,,1956209.0
Karow,s-bahn,KBS 106,19561647_unified,"52.61500000,13.46920000",Q111324168,,,,,,,1956530.0
Blankenburg,s-bahn,KBS 106,19561648_unified,"52.59150000,13.44350000",Q800469,,,,,,,1956179.0
Pankow-Heinersdorf,s-bahn,KBS 106,19561649_unified,"52.57806530,13.42950930",Q4892366,,,,,,,1956783.0
Pankow,s-bahn,KBS 106,19561650_unified,"52.56670000,13.41110000",Q111273850,,,,,,,1956779.0
Bornholmerstr.,s-bahn,KBS 106,19561651_unified,"52.55428700,13.39798500",Q32662318,,,,,,,1956188.0
Gesundbrunnen,s-bahn,KBS 106,19561652_unified,"52.54861111,13.38944444",Q111239092,,,,,,,1956356.0
Humboldthain,s-bahn,KBS 106,19561653_unified,"52.54510000,13.37960000",Q481276,,,,,,,1956482.0
Nordbahnhof,s-bahn,KBS 106,19561654_unified,"52.53190000,13.38780000",Q673721,,,,,,,1956735.0
Oranienburgerstr.,s-bahn,KBS 106,19561655_unified,"52.52500000,13.39290000",Q480249,,,,,,,1956751.0
Friedrichstr.,s-bahn,KBS 106,19561656_unified,"52.52027778,13.38694444",Q111219456,,,,,,,1956337.0
Unter den Linden,s-bahn,KBS 106,19561657_unified,"52.51638889,13.38083333",Q477185,,,,,,,19561147.0
Potsdamerplatz,s-bahn,KBS 106,19561658_unified,"52.50940000,13.37660000",Q106086519,,,,,,,1956810.0
Anhalter Bahnhof,s-bahn,KBS 106,19561659_unified,"52.50305556,13.38194444",Q111324573,,,,,,,195644.0
Yorckstr.,s-bahn,KBS 106,19561660_unified,"52.49177778,13.37214167",Q21776729,,,,,,,19561233.0
Papestr.,s-bahn,KBS 106,19561661_unified,"52.47560000,13.36440000",Q111323139,,,,,,,1956792.0
Priesterweg,s-bahn,KBS 106,19561662_unified,"52.46010000,13.35630000",Q800508,,,,,,,1956827.0
Südende,s-bahn,KBS 106,19561663_unified,"52.44810000,13.35360000",Q800511,,,,,,,19561054.0
Lankwitz,s-bahn,KBS 106,19561664_unified,"52.43860000,13.34170000",Q800481,,,,,,,1956609.0
Lichterfelde Ost,s-bahn,KBS 106,19561665_unified,"52.43000000,13.32890000",Q111311299,,,,,,,1956635.0
Lichterfelde Süd,s-bahn,KBS 106,19561666_unified,"52.41000000,13.30860000",Q800482,,,,,,,1956636.0
Teltow,s-bahn,KBS 106,19561667_unified,"52.38805600,13.29944400",Q7697868,,,,,,,19561061.0
Klosterstr.,omnibus,O30,19561668_unified,"52.51798604,13.41212675",,,,,,,,1956552.0
Andreasstr.,omnibus,O30,19561669_unified,"52.51797307,13.43289548",,,,,,,,195643.0
Küstrinerplatz,omnibus,O30,19561670_unified,"52.51324778,13.43933319",,,,,,,,1956606.0
Warschauerstr.,omnibus,O30,19561671_unified,"52.51243227,13.45259884",,,,,,,,19561170.0
Neue Bahnhofstr.,omnibus,O30,19561672_unified,"52.50643160,13.46977046",,,,,,,,1956719.0
S-Bhf. Rummelsburg,omnibus,O30,19561673_unified,"52.50179539,13.47802858",,,,,,,,1956927.0
Münsterlandstr.,omnibus,O30,19561674_unified,"52.50386179,13.49463099",,,,,,,,1956715.0
Bhf. Lichtenberg,omnibus,O30,19561675_unified,"52.51128756,13.49959112",,,,,,,,1956126.0
Stalinallee,omnibus,O30,19561676_unified,"52.51715129,13.44064077",,,,,,,,19561024.0
Roederplatz,omnibus,O30,19561678_unified,"52.52671389,13.47966235",,,,,,,,1956882.0
Proskauer Ecke Dolzigerstr.,omnibus,O30,19561679_unified,"52.51987408,13.46328923",,,,,,,,1956832.0
Leninallee Ecke Dimitroffstr.,omnibus,O30,19561680_unified,"52.52640062,13.44756753",,,,,,,,1956622.0
Dimitroffstr. Ecke Greifswalderstr.,omnibus,O30,19561681_unified,"52.53619274,13.43306638",,,,,,,,1956259.0
Königstor,omnibus,O30,19561682_unified,"52.52520269,13.41983499",,,,,,,,1956592.0
U-Bhf. Alexanderplatz,omnibus,O30,19561683_unified,"52.52158788,13.41382192",,,,,,,,19561092.0
Bürknersfelde,omnibus,O37,19561684_unified,"52.53888981,13.53415938",,,,,,,,1956230.0
"Alt-Marzahn, Kirche",omnibus,O37,19561685_unified,"52.54242345,13.56406175",,,,,,,,195618.0
Elisabethstr.,omnibus,O37,19561686_unified,"52.53409534,13.55949916",,,,,,,,1956287.0
Cecilienstr.,omnibus,O37,19561687_unified,"52.52908780,13.56585035",,,,,,,,1956234.0
S-Bhf. Biesdorf,omnibus,O37,19561688_unified,"52.51343259,13.55538728",,,,,,,,1956909.0
Schlossstr. Ecke Alt-Friedrichsfelde,omnibus,O37,19561689_unified,"52.50943477,13.51881394",,,,,,,,1956949.0
Bhf. Lichtenberg,omnibus,O37,19561690_unified,"52.51128756,13.49959112",,,,,,,,1956126.0
Ostbahnhof,omnibus,O40,19561691_unified,"52.50976671,13.43372198",,,,,,,,1956770.0
Küstrinerplatz,omnibus,O40,19561692_unified,"52.51324778,13.43933319",,,,,,,,1956606.0
Stalinallee,omnibus,O40,19561693_unified,"52.51715129,13.44064077",,,,,,,,19561024.0
Leninplatz,omnibus,O40,19561694_unified,"52.52323900,13.43359458",,,,,,,,1956626.0
Königstor,omnibus,O40,19561695_unified,"52.52520269,13.41983499",,,,,,,,1956592.0
Prenzlauer Tor,omnibus,O40,19561696_unified,"52.52709114,13.41580937",,,,,,,,1956825.0
Rosenthalerplatz,omnibus,O40,19561697_unified,"52.52967295,13.40142893",,,,,,,,1956890.0
Oranienburger Tor,omnibus,O40,19561698_unified,"52.52716314,13.38710905",,,,,,,,1956753.0
Robert-Koch-Platz,omnibus,O40,19561699_unified,"52.52757051,13.37877230",,,,,,,,1956880.0
Bürknersfelde,omnibus,O41,19561700_unified,"52.53888981,13.53415938",,,,,,,,1956230.0
Dingelstädterstr.,omnibus,O41,19561701_unified,"52.53587676,13.52205863",,,,,,,,1961287.0
Weißenseerweg,omnibus,O41,19561703_unified,"52.53305920,13.47625284",,,,,,,,19611290.0
Kladow,ferry,Wannsee<>Kladow (Betrieb durch Stern und Kreisschiffahrt),19561706_unified,"52.45151499,13.14796194",,,,,,,,1956541.0
Wannsee,ferry,Wannsee<>Kladow (Betrieb durch Stern und Kreisschiffahrt),19561707_unified,"52.42192802,13.17581596",,,,,,,,19561166.0
Wendenschloß,ferry,Wendenschloß<>Grünau,19561708_unified,"52.41849554,13.58711706",,,,,,,,19561189.0
Grünau,ferry,Wendenschloß<>Grünau,19561709_unified,"52.41748995,13.58245363",,,,,,,,1956398.0
Hohenzollernring Ecke Streitstr.,tram,75,1956530_unified,"52.55569293,13.20744492",,,,,,,,
"Bahnhofstr., Bhf. Wannsee",autobus,A18,1956928_unified,"52.42169058,13.17890239",,,,,,,,
Zepernick (Kr. Niederbarnim),s-bahn,KBS 106,19561644_unified,"52.65980000,13.53420000",Q801657,,,,,,,
"BVG-Bf. Lichtenberg, Siegfriedstr.",omnibus,O30,19561677_unified,"52.52064110,13.49944540",Q66014798,,,,,,,
Siegfriedstr.,omnibus,O41,19561703_unified,"52.53435088,13.49969780",,,,,,,,
Oderbruchstr.,omnibus,O41,19561705_unified,"52.52965617,13.46102289",,,,,,,,
Dimitroffstr.,omnibus,O41,19561706_unified,"52.52644945,13.44757477",,,,,,,,
