stop_name,type,line_name,stop_id,location,identifier
"Marienfelde, Daimlerstr.",tram,15,19650_west,"52.42393712,13.38022295",
Großbeerenstr. Ecke Daimlerstr.,tram,15,19651_west,"52.42636276,13.37438168",
Körtingstr. Ecke Großbeerenstr.,tram,15,19652_west,"52.43481353,13.37831564",
Mariendorferdamm Ecke Alt-Mariendorf,tram,15,19653_west,"52.44016815,13.38730997",
Imbrosweg Ecke Rixdorferstr.,tram,15,19654_west,"52.44352627,13.39862544",
Mariendamm Friedhof,tram,15,19655_west,"52.44953069,13.40475593",
Industriestr. Ecke Gottlieb-Dunkel-Str.,tram,15,19656_west,"52.45533607,13.40989571",
Germaniastr. Ecke Gottlieb-Dunkel-Str.,tram,15,19657_west,"52.46053987,13.41805889",
"Frauenklinik, Mariendorferweg",tram,15,19658_west,"52.46394991,13.42750955",
Hermannstr./Britzerdamm,tram,15,19659_west,"52.46276073,13.43439092",
U-Bhf. Neukölln,tram,15,196510_west,"52.46965568,13.44161494",
Richardstr. Ecke Braunschweigerstr.,tram,15,196511_west,"52.47098038,13.44634551",
Saalestr. Ecke Sonnenallee,tram,15,196512_west,"52.47384843,13.45589857",
Dammweg Ecke Sonnenallee,tram,15,196513_west,"52.47028918,13.46461967",
Schulenburgpark,tram,15,196514_west,"52.46666061,13.47029259",
Gradestr. Ecke Tempelhoferweg,tram,47,196515_west,"52.45253932,13.43305683",
U-Bhf. Blaschkoallee,tram,47,196516_west,"52.45247429,13.44902591",
Buschkrugallee Ecke Blaschkoallee,tram,47,196517_west,"52.45253092,13.45217109",
Onkel-Herse-Str. Ecke Buschkrugallee,tram,47,196518_west,"52.44824572,13.45392578",
Parchimerallee Ecke Buschkrugallee,tram,47,196519_west,"52.44543069,13.45497615",
Grünerweg Ecke Buschkrugallee,tram,47,196520_west,"52.44256249,13.45634565",
Krankenhaus Neukölln,tram,47,196521_west,"52.43977054,13.45935906",
Johannisthalerchaussee Ecke Rudowerstr.,tram,47,196522_west,"52.43431775,13.46904333",
Wildmeisterdamm Ecke Neuköllnerstr.,tram,47,196523_west,"52.42577675,13.48323925",
Stubenrauchstr. Ecke Neuköllnerstr.,tram,47,196524_west,"52.42416862,13.48544348",
Köpenickerstr. Ecke Neuköllnerstr.,tram,47,196525_west,"52.41693184,13.49408867",
Groß-Ziethener-Chaussee Ecke Waltersdorferchaussee,tram,47,196526_west,"52.41611361,13.49741897",
Groß-Ziethener-Chaussee Ecke Waltersdorferchaussee,tram,47P,196527_west,"52.41611361,13.49741897",
"Rudow, Stadtgrenze",tram,47P,196528_west,"52.40149832,13.51359770",
Richard-Wagner-Platz,tram,53,196529_west,"52.51757062,13.30624812",
Luisenplatz,tram,53,196530_west,"52.52039497,13.29942701",
Klausenerplatz,tram,53,196531_west,"52.51920201,13.29186737",
Kirschenallee Ecke Spandauerdamm,tram,53,196532_west,"52.52038534,13.26714901",
Schloß Ruhwald,tram,53,196533_west,"52.52160458,13.26039687",
U-Bhf. Ruhleben,tram,53,196534_west,"52.52595777,13.24137187",
Teltowerstr. Ecke Ruhlebenerstr.,tram,53,196535_west,"52.52649488,13.21644671",
Freiheit,tram,53,196536_west,"52.53269779,13.20751844",
Spandauer Markt,tram,53,196537_west,"52.53687071,13.20531554",
Hafenplatz,tram,53,196538_west,"52.54229255,13.20620113",
Lynarstr. Ecke Neuendorferstr.,tram,53,196539_west,"52.54898037,13.21025253",
Hohenzollernring Ecke Streitstr.,tram,53,196540_west,"52.55572554,13.20753076",
"Hakenfelde, Niederneuendorferallee",tram,53,196541_west,"52.57049943,13.21252012",
Richard-Wagner-Platz,tram,54,196542_west,"52.51757062,13.30624812",
Luisenplatz,tram,54,196543_west,"52.52039497,13.29942701",
Klausenerplatz,tram,54,196544_west,"52.51920201,13.29186737",
Kirschenallee Ecke Spandauerdamm,tram,54,196545_west,"52.52038534,13.26714901",
Schloß Ruhwald,tram,54,196546_west,"52.52160458,13.26039687",
U-Bhf. Ruhleben,tram,54,196547_west,"52.52595777,13.24137187",
Teltowerstr. Ecke Ruhlebenerstr.,tram,54,196548_west,"52.52649488,13.21644671",
Freiheit,tram,54,196549_west,"52.53269779,13.20751844",
Spandauer Markt,tram,54,196550_west,"52.53687071,13.20531554",
Hafenplatz,tram,54,196551_west,"52.54229255,13.20620113",
Lynarstr. Ecke Schönwalderstr.,tram,54,196552_west,"52.54844825,13.20081057",
Hohenzollernring Ecke Schönwalderstr.,tram,54,196553_west,"52.55536761,13.19859324",
"Spandau, Johannesstift",tram,54,196554_west,"52.56762417,13.19178261",
Bhf. Zoo,tram,55,196555_west,"52.50719346,13.33262988",
Ernst-Reuter-Platz,tram,55,196556_west,"52.51159182,13.32257153",
Otto-Suhr-Allee Ecke Leibnizstr.,tram,55,196557_west,"52.51465062,13.31519191",
Richard-Wagner-Platz,tram,55,196558_west,"52.51757062,13.30624812",
Luisenplatz,tram,55,196559_west,"52.52039497,13.29942701",
Osnabrückerstr. Ecke Tegelerweg,tram,55,196560_west,"52.52651985,13.29732033",
Jakob-Kaiser-Platz,tram,55,196561_west,"52.53674528,13.29357089",
Quellweg Ecke Nonnendammallee,tram,55,196562_west,"52.53662795,13.26837045",
Paulsternstr. Ecke Gartenfelderstr.,tram,55,196563_west,"52.54412196,13.24701046",
Zitadellenweg Ecke Am Juliusturm,tram,55,196564_west,"52.53777974,13.21728515",
Carl-Schurz-Str. Ecke Am Juliusturm,tram,55,196565_west,"52.53954502,13.20555083",
Hafenplatz,tram,55,196566_west,"52.54229255,13.20620113",
Hohenzollernring Ecke Neuendorferstr.,tram,55,196567_west,"52.55571250,13.20754149",
Hakenfelde,tram,55,196568_west,"52.57886010,13.21005780",
"Zoo, Kantstr.",tram,75,196569_west,"52.50528855,13.33160349",
Leibnizstr. Ecke Kantstr.,tram,75,196570_west,"52.50628812,13.31395372",
Wilmersdorferstr. Ecke Kantstr.,tram,75,196571_west,"52.50669450,13.30667544",
Amtsgericht,tram,75,196572_west,"52.50682618,13.29739145",
Messedamm,tram,75,196573_west,"52.50641939,13.28039244",
Theodor-Heuss-Platz,tram,75,196574_west,"52.50948066,13.27259770",
Preußenallee Ecke Heerstr.,tram,75,196575_west,"52.50859211,13.25931279",
Reichssportfeldstr. Ecke Heerstr.,tram,75,196576_west,"52.50751473,13.24208670",
Stößenseebrücke,tram,75,196577_west,"52.50889437,13.21747597",
Pichelsdorferstr. Ecke Heerstr.,tram,75,196578_west,"52.51311471,13.19691856",
Seeburgerstr. Ecke Klosterstr.,tram,75,196579_west,"52.52914199,13.19558478",
Rathaus Spandau,tram,75,196580_west,"52.53488082,13.19905885",
"Spandau, Markt",tram,75,196581_west,"52.53784350,13.20413543",
Hafenplatz,tram,75,196582_west,"52.54229255,13.20620113",
Hohenzollernring Ecke Neuendorferstr.,tram,75,196583_west,"52.55571250,13.20754149",
Hakenfelde,tram,75,196584_west,"52.57886010,13.21005780",
"Zoo, Kantstr.",tram,76,196585_west,"52.50528855,13.33160349",
Leibnizstr. Ecke Kantstr.,tram,76,196586_west,"52.50628812,13.31395372",
Wilmersdorferstr. Ecke Kantstr.,tram,76,196587_west,"52.50669450,13.30667544",
Amtsgericht,tram,76,196588_west,"52.50682618,13.29739145",
Messedamm,tram,76,196589_west,"52.50641939,13.28039244",
Theodor-Heuss-Platz,tram,76,196590_west,"52.50948066,13.27259770",
Preußenallee Ecke Heerstr.,tram,76,196591_west,"52.50859211,13.25931279",
Reichssportfeldstr. Ecke Heerstr.,tram,76,196592_west,"52.50751473,13.24208670",
Stößenseebrücke,tram,76,196593_west,"52.50889437,13.21747597",
Pichelsdorferstr. Ecke Heerstr.,tram,76,196594_west,"52.51311471,13.19691856",
Seeburgerstr. Ecke Klosterstr.,tram,76,196595_west,"52.52914199,13.19558478",
Rathaus Spandau,tram,76,196596_west,"52.53488082,13.19905885",
"Spandau, Markt",tram,76,196597_west,"52.53784350,13.20413543",
Hafenplatz,tram,76,196598_west,"52.54229255,13.20620113",
Hohenzollernring Ecke Schönwalderstr.,tram,76,196599_west,"52.55536761,13.19859324",
Johannesstift,tram,76,1965100_west,"52.56762417,13.19178261",
Lindenstr. Ecke Kochstr.,tram,96,1965101_west,"52.50708787,13.39827979",
Mehringplatz,tram,96,1965102_west,"52.49792491,13.39108107",
Yorckstr. Ecke Mehringdamm,tram,96,1965103_west,"52.49288890,13.38767014",
U-Bhf. Flughafen,tram,96,1965104_west,"52.48477998,13.38596223",
Adolf-Scheidt-Platz,tram,96,1965105_west,"52.47819486,13.37836902",
Berlinickeplatz,tram,96,1965106_west,"52.46632968,13.37814469",
Attilaplatz,tram,96,1965107_west,"52.45549834,13.37561964",
Ringstr. Ecke Attilastr.,tram,96,1965108_west,"52.44731185,13.36209225",
"Lankwitz, Kirche",tram,96,1965109_west,"52.43629411,13.34577794",
Seydlitzstr. Ecke Kaiser-Wilhelm-Str.,tram,96,1965110_west,"52.43194429,13.33814378",
Kranoldplatz,tram,96,1965111_west,"52.42782085,13.32657579",
Ostpreußendamm Ecke Morgensternstr.,tram,96,1965112_west,"52.42589579,13.31710731",
Giesensdorferstr. Ecke Ostpreußendamm,tram,96,1965113_west,"52.42400572,13.31441951",
"Lichterfelde, Goerzallee",tram,96,1965114_west,"52.41785382,13.28703404",
Waldstr. Ecke Turmstr.,autobus,A1,1965115_west,"52.52720084,13.33052493",
Gotzkowskybrücke,autobus,A1,1965116_west,"52.52381238,13.32972912",
Dovebrücke,autobus,A1,1965117_west,"52.51943492,13.31929294",
Otto-Suhr-Allee Ecke Cauerstr.,autobus,A1,1965118_west,"52.51467908,13.31513688",
Kurfürstendamm Ecke Leibnizstr.,autobus,A1,1965119_west,"52.50064083,13.31300996",
U-Bhf. Fehrbellinerplatz,autobus,A1,1965120_west,"52.49039093,13.31417746",
Berlinerstr. Ecke Brandenburgischestr.,autobus,A1,1965121_west,"52.48649124,13.32038510",
Hildegardstr. Ecke Blissestr.,autobus,A1,1965122_west,"52.48181400,13.32032961",
Detmolderstr. Ecke Blissestr.,autobus,A1,1965123_west,"52.47879433,13.32028118",
Breitenbachplatz,autobus,A1,1965124_west,"52.46721972,13.30947349",
Botanischer Garten,autobus,A1,1965125_west,"52.45859880,13.30343606",
Pacelliallee/Thielallee,autobus,A1,1965126_west,"52.45822390,13.28702576",
Clayallee Ecke Königin-Luise-Str.,autobus,A1,1965127_west,"52.46044681,13.27489827",
U-Bhf. Oskar-Helene-Heim,autobus,A1,1965128_west,"52.45027901,13.27036199",
Potsdamerstr. Ecke Clayallee,autobus,A1,1965129_west,"52.43505475,13.26040016",
Rathaus Zehlendorf,autobus,A1,1965130_west,"52.43320752,13.25953192",
Machnowerstr. Ecke Teltowerdamm,autobus,A1,1965131_west,"52.43081519,13.25928297",
Beeskowdamm Ecke Teltowerstr.,autobus,A1,1965132_west,"52.40897892,13.26734680",
Wismarerstr. Ecke Goerzallee,autobus,A1,1965133_west,"52.42196127,13.29845504",
Lindenstr. Ecke Ostpreußendamm,autobus,A1,1965134_west,"52.41788577,13.30524076",
"Bhf. Zoo, Hardenbergplatz",autobus,A2,1965135_west,"52.50696177,13.33308096",
Spichernstr. Ecke Bundesallee,autobus,A2,1965136_west,"52.49595111,13.33077976",
Berlinerstr. Ecke Bundesallee,autobus,A2,1965137_west,"52.48732427,13.33091399",
Bundesplatz,autobus,A2,1965138_west,"52.47867899,13.32860278",
Friedrich-Wilhelm-Platz,autobus,A2,1965139_west,"52.47128806,13.32836213",
Schloßstr. Ecke Bundesallee,autobus,A2,1965140_west,"52.46494077,13.32851361",
Feuerbachstr. Ecke Bismarckstr.,autobus,A2,1965141_west,"52.46451344,13.33892787",
Bergstr. Ecke Bismarckstr.,autobus,A2,1965142_west,"52.45863817,13.33931462",nan+ nan
Steglitzerdamm Ecke Halskestr.,autobus,A2,1965143_west,"52.45002165,13.34670705",
Leonorenstr. Ecke Siemensstr.,autobus,A2,1965144_west,"52.44438058,13.33887527",
"Lankwitz, Kirche",autobus,A2,1965145_west,"52.43629187,13.34574539",
Havensteinstr. Ecke Gallwitzallee,autobus,A2,1965146_west,"52.43194849,13.34634331",
Lerbacherweg,autobus,A2,1965147_west,"52.42568639,13.34759454",
Trippsteinstrase Ecke Frankenhauserstr.,autobus,A2,1965148_west,"52.41708279,13.34765431",
Rathaus Zehlendorf,autobus,A3,1965149_west,"52.43320752,13.25953192",
Winfriedstr. Ecke Clayallee,autobus,A3,1965150_west,"52.43922363,13.26287811",
Sundgauerstr. Ecke Clayallee,autobus,A3,1965151_west,"52.44557392,13.26767122",
U-Bhf. Oskar-Helene-Heim,autobus,A3,1965152_west,"52.45027901,13.27036199",
U-Bhf. Onkel-Toms-Hütte,autobus,A3,1965153_west,"52.45007713,13.25127259",
U-Bhf. Krumme Lanke,autobus,A3,1965154_west,"52.44361298,13.24100643",
Lindenthalerallee Ecke Argentischestr.,autobus,A3,1965155_west,"52.43767236,13.23234537",
Spanischeallee Ecke Potsdamerschaussee,autobus,A3,1965156_west,"52.42962237,13.22400734",
Schopenhauerstr. Ecke Spanischeallee,autobus,A3,1965157_west,"52.43394923,13.21204795",
Borussenstr. Ecke Spanischeallee,autobus,A3,1965158_west,"52.43382331,13.19324567",
Am Beelitzhof Ecke Kronprinzessinnenweg,autobus,A3,1965159_west,"52.43221622,13.18668380",
Bhf. Wannsee,autobus,A3,1965160_west,"52.42151302,13.17810257",
Am Großen Wannssee Ecke Königstr.,autobus,A3,1965161_west,"52.42050256,13.16717980",
Pfaueninselchaussee Ecke Königstr.,autobus,A3,1965162_west,"52.41883990,13.15300828",
Rathaus Wannsee,autobus,A3,1965163_west,"52.41844013,13.14887249",
"Stölpchensee, Wilhelmplatz",autobus,A3,1965164_west,"52.41240583,13.14164452",
"Neu-Westend, Brixplatz",autobus,A4,1965165_west,"52.51950863,13.25638651",
Theodor-Heuss-Platz,autobus,A4,1965166_west,"52.50937134,13.27256472",
Messedamm,autobus,A4,1965167_west,"52.50446815,13.27941210",
Henriettenplatz,autobus,A4,1965168_west,"52.49701780,13.29033951",
Hochmeisterplatz,autobus,A4,1965169_west,"52.49468638,13.30125468",
U-Bhf. Fehrbellinerplatz,autobus,A4,1965170_west,"52.49039093,13.31417746",
Berlinerstr. Ecke Uhlandstr.,autobus,A4,1965171_west,"52.48647343,13.32250152",
Bundesallee Ecke Badenschestr.,autobus,A4,1965172_west,"52.48612222,13.33105202",
Rathaus Schöneberg,autobus,A4,1965173_west,"52.48515474,13.34508660",
Innsbruckerplatz,autobus,A4,1965174_west,"52.47854551,13.34405869",
Hauptstr. Ecke Dominicusstr.,autobus,A4,1965175_west,"52.48178378,13.34841821",",+nan"
Kaiser-Wilhelm-Platz,autobus,A4,1965176_west,"52.48632925,13.35655627",
Dudenstr. Ecke Katzbachstr.,autobus,A4,1965177_west,"52.48503402,13.37659343",
U-Bhf. Flughafen,autobus,A4,1965178_west,"52.48488596,13.38599655",
Columbiadamm Ecke Friesenstr.,autobus,A4,1965179_west,"52.48396787,13.39436897",
Flughafenstr. Ecke Hermannstr.,autobus,A4,1965180_west,"52.48071391,13.42508430",
Kienitzerstr. Ecke Karl-Marx-Str.,autobus,A4,1965181_west,"52.47761763,13.43849396",
Sonnenallee Ecke Erkstr.,autobus,A4,1965182_west,"52.48167462,13.44010366",
Harzerstr. Ecke Elsenstr.,autobus,A4,1965183_west,"52.48508524,13.44890845",
Machandelweg,autobus,A5,1965184_west,"52.52483520,13.24567178",
U-Bhf. Ruhleben,autobus,A5,1965185_west,"52.52596833,13.24147858",
Teltowerstr. Ecke Ruhlebenerstr.,autobus,A5,1965186_west,"52.52649488,13.21644671",
Stresowplatz,autobus,A5,1965187_west,"52.53362878,13.20678183",
Breite Straße Ecke Charlottenstraße,autobus,A5,1965188_west,"52.53614601,13.20442667",
Rathaus Spandau,autobus,A5,1965189_west,"52.53457836,13.19949094",
Zeppelinstr. Ecke Seegefelderstr.,autobus,A5,1965190_west,"52.53843134,13.18241060",
Falkenseerchaussee Ecke Zeppelinstr.,autobus,A5,1965191_west,"52.54753513,13.18466337",
Waldkrankenhaus,autobus,A5,1965192_west,"52.56214543,13.15834009",
"Spandau, Landesnervenklinik",autobus,A5,1965193_west,"52.56341330,13.15430729",
S-Bhf. Wannsee,autobus,A6,1965194_west,"52.42146076,13.17811897",
Königstr. Ecke Kronprinzessinnenweg,autobus,A6,1965195_west,"52.41993325,13.17531239",
Pfaueninselschaussee Ecke Königstr.,autobus,A6,1965196_west,"52.41884731,13.15300813",
Rathaus Wannsee,autobus,A6,1965197_west,"52.41844013,13.14887249",
Friedenstr. Ecke Königstr.,autobus,A6,1965198_west,"52.41722225,13.13897505",
Schäferberg,autobus,A6,1965199_west,"52.41562662,13.12630868",
Nikolskoerweg Ecke Königstr.,autobus,A6,1965200_west,"52.41402767,13.10923663",
Glienicker Brücke,autobus,A6,1965201_west,"52.41347409,13.09123588",
"Haselhorst, Kirche",autobus,A10,1965202_west,"52.54682818,13.23706589",
Paulsternstr. Ecke Nonnendamm,autobus,A10,1965203_west,"52.53816278,13.24773062",
Verwaltungs-Gebaüde,autobus,A10,1965204_west,"52.53706333,13.26228517",
Spandauerdamm Ecke Fürstenbrunnerweg,autobus,A10,1965205_west,"52.51839041,13.28021290",
U-Bhf. Kaiserdamm,autobus,A10,1965206_west,"52.50999451,13.28180313",
Masurenallee Ecke Messedamm,autobus,A10,1965207_west,"52.50646272,13.28040040",
Amtsgericht,autobus,A10,1965208_west,"52.50682618,13.29739145",
Kurfürstendamm Ecke Joachim-Friedrichstr.,autobus,A10,1965209_west,"52.49800512,13.29619975",
Henriettenplatz,autobus,A10,1965210_west,"52.49701780,13.29033951",
Rathenauplatz,autobus,A10,1965211_west,"52.49561135,13.28657375",
Elsterplatz,autobus,A10,1965212_west,"52.47977983,13.28550761",
Hundekehlestr. Ecke Warnemünderstr.,autobus,A10,1965213_west,"52.47539508,13.29037561",
Königin-Luise-Str. Ecke Pacelliallee,autobus,A10,1965214_west,"52.45831131,13.28712680",
U-Bhf. Thielplatz,autobus,A10,1965215_west,"52.45104521,13.28173642",
Berlinerstr. Ecke Thielallee,autobus,A10,1965216_west,"52.44181287,13.28274544",
Berlinerstr. Ecke Sundgauerstr.,autobus,A10,1965217_west,"52.43833478,13.27141130",
Teltowerdamm Ecke Clayallee,autobus,A10,1965218_west,"52.43506014,13.26041541",
Teltowerdamm Ecke Machnowerstr.,autobus,A10,1965219_west,"52.43081551,13.25929641",
Behring-Krankenhaus,autobus,A10,1965220_west,"52.42410895,13.25176454",
Lupsteinerweg Ecke Sachtlebenstr.,autobus,A10,1965221_west,"52.40951067,13.25160884",
Saargemünderstr. Ecke Clayallee,autobus,A11,1965222_west,"52.45093246,13.27071876",
U-Bhf. Oskar-Helene-Heim,autobus,A11,1965223_west,"52.45027901,13.27036199",
Ihnestr. Ecke Garystr.,autobus,A11,1965224_west,"52.44831170,13.27633996",
Corrensplatz,autobus,A11,1965225_west,"52.44601401,13.28426468",
Unter den Eichen Ecke Habelschwendterallee,autobus,A11,1965226_west,"52.44574706,13.29356835",
Gardeschützerweg Ecke Drakestr.,autobus,A11,1965227_west,"52.44267225,13.29700971",
Ringstr. Ecke Drakestr.,autobus,A11,1965228_west,"52.43979507,13.30016971",
Wiesenbaude,autobus,A11,1965229_west,"52.43049524,13.31180861",
Ostrpreußendamm Ecke Königsbergerstr.,autobus,A11,1965230_west,"52.43078834,13.31750145",
Marienstr. Ecke Königsbergerstr.,autobus,A11,1965231_west,"52.42946322,13.32166308",
Morgensternstr. Ecke Königsbergerstr.,autobus,A11,1965232_west,"52.42807231,13.32551407",
Kranoldplatz,autobus,A11,1965233_west,"52.42777476,13.32647358",
Langestr. Ecke Lorenzstr.,autobus,A11,1965234_west,"52.42401446,13.33313155",
Hildburghauserstr. Ecke Mariannenstr.,autobus,A11,1965235_west,"52.41661432,13.33818246",
Stadtilmerweg,autobus,A11,1965236_west,"52.41507278,13.34597485",
"Marienelde, Alt-Marienfelde",autobus,A11,1965237_west,"52.41210781,13.36273360",
Gartenstr. Ecke Bernauerstr.,autobus,A12,1965238_west,"52.53343698,13.38751889",
Grenzstr. Ecke Ackerstr.,autobus,A12,1965239_west,"52.54070452,13.37926714",
U-Bhf. Leopold-Platz,autobus,A12,1965240_west,"52.54640033,13.35909680",
U-Bhf. Seestr.,autobus,A12,1965241_west,"52.55031541,13.35229850",
Bristolstr. Ecke Barfusstr.,autobus,A12,1965242_west,"52.55830889,13.35117448",
Emmentalerstr. Ecke Aroserallee,autobus,A12,1965243_west,"52.56751553,13.35120118",
Lindauerallee Ecke Roedernallee,autobus,A12,1965244_west,"52.57437590,13.34773196",
Tessenowstr. Ecke Roedernallee,autobus,A12,1965245_west,"52.58314996,13.34369472",
Rathaus Reinickendorf,autobus,A12,1965246_west,"52.59165784,13.32633528",
Cyclopstr. Ecke Hermsdorferstr.,autobus,A12,1965247_west,"52.60209837,13.32482303",
Zabel-Krüger-Damm Ecke Oraniendamm,autobus,A12,1965248_west,"52.60785215,13.32378976",
Almutstr. Ecke Berlinerstr.,autobus,A12,1965249_west,"52.61486970,13.31706314",
Hermsdorferdamm Ecke Berlinerstr.,autobus,A12,1965250_west,"52.62241093,13.31288776",
Zeitingerplatz,autobus,A12,1965251_west,"52.63352257,13.29039813",
Donnersmarkplatz,autobus,A12,1965252_west,"52.63014387,13.28046436",
Hainbuchenstr. Ecke Stolzingstr.,autobus,A12,1965253_west,"52.63436579,13.27495612",
"Heiligensee, Alt-Heiligensee",autobus,A13,1965254_west,"52.60174637,13.21022269",
Am Dachsbau Ecke Heiligenseestr.,autobus,A13,1965255_west,"52.60656467,13.22982450",
Gabelung,autobus,A13,1965256_west,"52.59988613,13.25204129",
Ruppinerchaussee Ecke Heiligenseestr.,autobus,A13,1965257_west,"52.59792775,13.27502724",
U-Bhf. Tegel,autobus,A13,1965258_west,"52.58950313,13.28363072",
Bernauerstr. Ecke Berlinerstr.,autobus,A13,1965259_west,"52.57632475,13.29471004",
Krankenhaus Tegel-Süd,autobus,A13,1965260_west,"52.57573398,13.27874933",
Strasse nach Saatwinkel Ecke Bernauerstr.,autobus,A13,1965261_west,"52.56775987,13.25791205",
Paulsternstr. Ecke Gartenfelderstr.,autobus,A13,1965262_west,"52.54412196,13.24701046",
Daumstr. Ecke Am Juliusturm,autobus,A13,1965263_west,"52.53927882,13.23206301",
Carl-Schurzstr. Ecke Am Juliusturm,autobus,A13,1965264_west,"52.53954249,13.20559420",
Rathaus Spandau,autobus,A13,1965265_west,"52.53457836,13.19949094",
Seeburgerstr. Ecke Klosterstr.,autobus,A13,1965266_west,"52.52914199,13.19558478",
Päwesinerweg Ecke Seeburgerstr.,autobus,A13,1965267_west,"52.52631959,13.18186001",
Heerstr. Ecke Wilhelmstr.,autobus,A13,1965268_west,"52.51662458,13.17902230",
Weinmeisterhornweg Ecke Wilhelmstr.,autobus,A13,1965269_west,"52.51102790,13.17160161",
"Heiligensee, Alt-Heiligensee",autobus,A14,1965270_west,"52.60174637,13.21022269",
Mattenbuder Pfad Ecke Henningsdorferstr.,autobus,A14,1965271_west,"52.61696711,13.22053385",
Ruppinerchaussee Ecke Henningsdorferstr.,autobus,A14,1965272_west,"52.62646800,13.22755031",
Schulzendorferstr. Ecke Ruppinerchaussee,autobus,A14,1965273_west,"52.61441645,13.24489068",
Heiligenseestr. Ecke Karolinenstr.,autobus,A14,1965274_west,"52.59793113,13.27502610",
U-Bhf. Tegel,autobus,A14,1965275_west,"52.58950313,13.28363072",
Ziekowstr. Ecke Gorkistr.,autobus,A14,1965276_west,"52.59058636,13.29210637",
"Alt-Wittenau, Rathaus Reinickendorf",autobus,A14,1965277_west,"52.59196651,13.32644524",
Tessenowstr. Ecke Roedernallee,autobus,A14,1965278_west,"52.58314996,13.34369472",
Aroserallee Ecke Lindauerallee,autobus,A14,1965279_west,"52.57378753,13.35197104",
Kopenhagenerstr. Ecke Klemkestr.,autobus,A14,1965280_west,"52.57426441,13.35917869",
Klemkestr. Ecke Sommerstr.,autobus,A14,1965281_west,"52.57477832,13.37353041",
Pankowerallee Ecke Provinzstr.,autobus,A14,1965282_west,"52.56468480,13.37806280",
Osloerstr. Ecke Drontheimerstr.,autobus,A14,1965283_west,"52.55645127,13.37705419",
Pankstr. Ecke Badstr.,autobus,A14,1965284_west,"52.55227404,13.38138720",
U-Bhf. Gesundbrunnen,autobus,A14,1965285_west,"52.54947942,13.38652401",
Rügenerstr. Ecke Brunnenstr.,autobus,A14,1965286_west,"52.54472500,13.39102468",
Lübarserstr. Ecke Eichorsterweg,autobus,A15,1965287_west,"52.60279735,13.33575475",
Cyclopstr. Ecke Oranienburgerstr.,autobus,A15,1965288_west,"52.59750985,13.33255807",
Alt-Wittenau Ecke Oranienburgerstr.,autobus,A15,1965289_west,"52.58969313,13.33418093",
Breitenbachstr. Ecke Eichborndamm,autobus,A15,1965290_west,"52.57783790,13.31483743",
Holzhauserstr. Ecke Breitenbachstr.,autobus,A15,1965291_west,"52.58199553,13.30545455",
Borsigwalderweg Ecke Ecke Conradstr.,autobus,A15,1965292_west,"52.58481078,13.29793830",
Gorkistr. Ecke Ziekowstr.,autobus,A15,1965293_west,"52.59056318,13.29198781",
U-Bhf. Tegel,autobus,A15,1965294_west,"52.58950313,13.28363072",
Hermsdorferdamm Ecke Karolinenstr.,autobus,A15,1965295_west,"52.59996370,13.28132933",
Schulzendorferstr. Ecke Hermsdorferdamm,autobus,A15,1965296_west,"52.61058699,13.29550843",
Dominikus Krankenhaus,autobus,A15,1965297_west,"52.62619652,13.29449567",
Donnersmarckplatz,autobus,A15,1965298_west,"52.63015050,13.28045133",
Zeitlingerplatz,autobus,A15,1965299_west,"52.63352257,13.29039813",
Am Pilz,autobus,A15,1965300_west,"52.64251497,13.30090805",
Invalidensiedlung,autobus,A15,1965301_west,"52.65584642,13.29035793",
Osloerstr. Ecke Koloniestr.,autobus,A16,1965302_west,"52.55643380,13.37744264",
Luise-Schroeder-Platz,autobus,A16,1965303_west,"52.55703815,13.36628643",
U-Bhf. Seestr.,autobus,A16,1965304_west,"52.55031541,13.35229850",
Virchow-Krankenhaus,autobus,A16,1965305_west,"52.54371513,13.33931792",
Fennstr. Ecke Tegelerstr.,autobus,A16,1965306_west,"52.53794452,13.36161806",
Wilsnackerstr. Ecke Perlebergerstr.,autobus,A16,1965307_west,"52.53188508,13.34929041",
Hansaplatz,autobus,A16,1965308_west,"52.51793433,13.34203819",
Großer Stern,autobus,A16,1965309_west,"52.51452472,13.34993319",
Lützowplatz,autobus,A16,1965310_west,"52.50502902,13.35182287",
Nollendorfplatz,autobus,A16,1965311_west,"52.49968844,13.35308644",
Rathaus Schöneberg,autobus,A16,1965312_west,"52.48515474,13.34508660",
Innsbruckerplatz,autobus,A16,1965313_west,"52.47854551,13.34405869",
Bundesplatz,autobus,A16,1965314_west,"52.47867899,13.32860278",
Wiesbadenerstr. Ecke Südwestkorso,autobus,A16,1965315_west,"52.47164317,13.31958712",
Breitenbachplatz,autobus,A16,1965316_west,"52.46721972,13.30947349",
Englerallee,autobus,A16,1965317_west,"52.46361923,13.30489502",
"Grunewald, Fontanestr.",autobus,A17,1965318_west,"52.48728923,13.26380017",
Hagenplatz,autobus,A17,1965319_west,"52.48338297,13.26581870",
Roseneck,autobus,A17,1965320_west,"52.47580090,13.28241127",
Warnemünderstr. Ecke Breitestr.,autobus,A17,1965321_west,"52.47539579,13.29037056",
U-Bhf. Rüdesheimerplatz,autobus,A17,1965322_west,"52.47292404,13.31439017",
Friedrich-Wilhelm-Platz,autobus,A17,1965323_west,"52.47128806,13.32836213",
Schloßstr. Ecke Rheinstr.,autobus,A17,1965324_west,"52.46496454,13.32848791",
Rathaus Steglitz,autobus,A17,1965325_west,"52.45563378,13.32105078",
Stadtpark,autobus,A17,1965326_west,"52.44890556,13.33882767",
Leonorenstr. Ecke Siemensstr.,autobus,A17,1965327_west,"52.44438058,13.33887527",
Stadion Lichterfelde,autobus,A17,1965328_west,"52.43867923,13.32505044",
Königsbergerstr. Ecke Ostpreußendamm,autobus,A17,1965329_west,"52.43078107,13.31748966",
Morgensternstr. Ecke Königsbergerstr.,autobus,A17,1965330_west,"52.42807231,13.32551407",
Oberhoferplatz,autobus,A17,1965331_west,"52.42432102,13.32837352",
Saaleckplatz,autobus,A17,1965332_west,"52.41629158,13.32394196",
Saargemünderstr. Ecke Clayallee,autobus,A18,1965333_west,"52.45093246,13.27071876",
U-Bhf. Oskar-Helene-Heim,autobus,A18,1965334_west,"52.45027901,13.27036199",
Sophie-Charlotte-Str. Ecke Clayallee,autobus,A18,1965335_west,"52.44594168,13.26781841",
Scharfestr. Ecke Clayallee,autobus,A18,1965336_west,"52.43826689,13.26228604",
Potsdamerstr. Ecke Clayallee,autobus,A18,1965337_west,"52.43505475,13.26040016",
Mittelstr. Ecke Potsdamerstr.,autobus,A18,1965338_west,"52.43473692,13.24926053",
Wolzogenstr. Ecke Potsdamerchaussee,autobus,A18,1965339_west,"52.43228424,13.23570972",
Spanischeallee Ecke Potsdamerchaussee,autobus,A18,1965340_west,"52.42958745,13.22402595",
Waldfriedhof,autobus,A18,1965341_west,"52.42599573,13.20924605",
Quantzstr. Ecke Potsdamerchaussee,autobus,A18,1965342_west,"52.42315874,13.20222949",
Kronprinzessinnenweg Ecke Königsstr.,autobus,A18,1965343_west,"52.41992383,13.17532264",
Am Großen Wannsee Ecke Königsstr.,autobus,A18,1965344_west,"52.42050256,13.16717980",
Pfaueninselchaussee Ecke Königsstr.,autobus,A18,1965345_west,"52.41883032,13.15301989",
Rathaus Wannsee,autobus,A18,1965346_west,"52.41844013,13.14887249",
Stölpchensee,autobus,A18,1965347_west,"52.40943024,13.14381795",
Machnowerstr. Ecke Königsweg,autobus,A18,1965348_west,"52.39761381,13.14365940",
Roseneck,autobus,A19,1965349_west,"52.47580090,13.28241127",
Hagenplatz,autobus,A19,1965350_west,"52.48338297,13.26581870",
Erdenerstr. Ecke Königsallee,autobus,A19,1965351_west,"52.49053761,13.27635675",
Henriettenplatz,autobus,A19,1965352_west,"52.49701780,13.29033951",
Wilmersdorferstr. Ecke Kurfürstendamm,autobus,A19,1965353_west,"52.50011662,13.30701429",
Olivaerplatz,autobus,A19,1965354_west,"52.49997141,13.31297061",
Joachim-Friedrich-Str. Ecke Kurfürstendamm,autobus,A19,1965355_west,"52.49797323,13.29620598",
Breitscheidplatz,autobus,A19,1965356_west,"52.50443806,13.33564616",
Wittenbergplatz,autobus,A19,1965357_west,"52.50188939,13.34269788",
Nollendorfplatz,autobus,A19,1965358_west,"52.49968844,13.35308644",
Potsdamerstr. Ecke Bülowstr.,autobus,A19,1965359_west,"52.49781684,13.36203432",
Bautzenerstr. Ecke Yorckstr.,autobus,A19,1965360_west,"52.49266114,13.37093569",
Katzbachstr. Ecke Yorckstr.,autobus,A19,1965361_west,"52.49156095,13.37674534",
Mehringdamm,autobus,A19,1965362_west,"52.49293918,13.38772030",
Flughafen Tempelhof,autobus,A19,1965363_west,"52.48430845,13.38587202",
"Tegelort, Almazeile",autobus,A20,1965364_west,"52.57056042,13.23019256",
Gerlindeweg Ecke Friederikestr.,autobus,A20,1965365_west,"52.57564386,13.22896485",
Falkenplatz,autobus,A20,1965366_west,"52.58490938,13.22761993",
Freiheitsweg,autobus,A20,1965367_west,"52.58923448,13.24114056",
Heiligenseestr. Ecke Karolinenstr.,autobus,A20,1965368_west,"52.59793113,13.27502610",
Karolinenstr. Ecke Hermsdorferdamm,autobus,A20,1965369_west,"52.59678679,13.27666137",
U-Bhf. Tegel,autobus,A20,1965370_west,"52.58950313,13.28363072",
Hatzfeldtallee Ecke Buddestr.,autobus,A20,1965371_west,"52.59193118,13.28613645",
Martin-Luther-Friedhaus,autobus,A20,1965372_west,"52.59837048,13.29834314",
Freie Scholle,autobus,A20,1965373_west,"52.59985154,13.30173616",
Waldhornstr. Ecke Waidmannslusterdamm,autobus,A20,1965374_west,"52.60286060,13.30810524",
Cyclopstr. Ecke Waidmannslusterdamm,autobus,A20,1965375_west,"52.60700630,13.31976899",
Oraniendamm Ecke Waidmannslusterdamm,autobus,A20,1965376_west,"52.60785131,13.32378768",
Am Vierrutenberg Ecke Zabel-Krüger-Damm,autobus,A20,1965377_west,"52.61351518,13.34383031",
Lübars Dorfaue,autobus,A20,1965378_west,"52.62036688,13.35560142",
Wilhelmsruherdamm/Wentowsteig,autobus,A21,1965379_west,"52.59669616,13.35675334",
Oranienburgerstr. Ecke Wilhelmsruherdamm,autobus,A21,1965380_west,"52.59547232,13.33299542",
Alt-Wittenau Ecke Eichborndamm,autobus,A21,1965381_west,"52.59187978,13.32645958",
Breitenbachstr. Ecke Eichborndamm,autobus,A21,1965382_west,"52.57783790,13.31483743",
Scharnweberstr. Ecke Eichborndamm,autobus,A21,1965383_west,"52.56791784,13.31192345",
Kurt-Schumacher-Platz,autobus,A21,1965384_west,"52.56343825,13.32713029",
Kaserne Südtor,autobus,A21,1965385_west,"52.55685970,13.30843424",
Heckerdamm Ecke Kurt-Schumacherdamm,autobus,A21,1965386_west,"52.53961523,13.29537519",
Olbersstr. Ecke Tegelerweg,autobus,A21,1965387_west,"52.52931086,13.29629795",
Luisenplatz,autobus,A21,1965388_west,"52.52005409,13.29951339",
Kantstr.,autobus,A21,1965389_west,"52.50678795,13.30232027",
Stuttgarterplatz,autobus,A21,1965390_west,"52.50551611,13.30292330",
Amtsgericht,autobus,A21,1965391_west,"52.50682618,13.29739145",
Kurfürstendamm Ecke Joachim-Friedrichstr.,autobus,A21,1965392_west,"52.49800512,13.29619975",
Hohenzollerndamm Ecke Seesenerstr.,autobus,A21,1965393_west,"52.48839537,13.30213634",
U-Bhf. Fehrbellinerplatz,autobus,A21,1965394_west,"52.49039093,13.31417746",
"Moabit, Wiebestr.",autobus,A24,1965395_west,"52.53119513,13.31906377",
Gotzkowskystr. Ecke Turmstr.,autobus,A24,1965396_west,"52.52718286,13.33057117",
Stromstr. Ecke Turmstr.,autobus,A24,1965397_west,"52.52634184,13.34312496",
Rathenowerstr. Ecke Turmstr.,autobus,A24,1965398_west,"52.52676345,13.35531893",
Alt-Moabit Ecke Rathenowerstr.,autobus,A24,1965399_west,"52.52365631,13.35697889",
John-Foster-Dulles Ecke Spreeweg,autobus,A24,1965400_west,"52.51708970,13.35460979",
Tiergartenstr. Ecke Großer Stern,autobus,A24,1965401_west,"52.50959121,13.35134335",
Lützowplatz,autobus,A24,1965402_west,"52.50502902,13.35182287",
Potsdamerstr. Ecke Schöneberger Ufer,autobus,A24,1965403_west,"52.50581887,13.36824810",
Hafenplatz,autobus,A24,1965404_west,"52.50392084,13.37547988",
Askanischerplatz,autobus,A24,1965405_west,"52.50447897,13.38229547",
U-Bhf. Hallesches Tor,autobus,A24,1965406_west,"52.49791002,13.39130767",
Alexandrinenstr. Ecke Neuenburgerstr.,autobus,A24,1965407_west,"52.49946450,13.40038294",
Gneisenaustr. Ecke Zossenerstr.,autobus,A24,1965408_west,"52.49156620,13.39439538",
Columbiadamm Ecke Friesenstr.,autobus,A24,1965409_west,"52.48396787,13.39436897",
Flughafen Tempelhof,autobus,A24,1965410_west,"52.48430845,13.38587202",
Unionplatz,autobus,A25,1965411_west,"52.53305940,13.33727881",
Gotzkowskystr.,autobus,A25,1965412_west,"52.52718721,13.33055093",
Hansaplatz,autobus,A25,1965413_west,"52.51793433,13.34203819",
Ernst-Reuter-Platz,autobus,A25,1965414_west,"52.51159182,13.32257153",
Bhf. Zoo,autobus,A25,1965415_west,"52.50702953,13.33322012",
Kurfürstendamm Ecke Joachimstalerstr.,autobus,A25,1965416_west,"52.50382176,13.33132406",
Lietzenburgerstr. Ecke Joachimstalerstr.,autobus,A25,1965417_west,"52.50048518,13.33084620",
Pariserstr. Ecke Bundesallee,autobus,A25,1965418_west,"52.49590004,13.33042968",
Berlinerstr. Ecke Bundesallee,autobus,A25,1965419_west,"52.48732427,13.33091399",
Bundesplatz,autobus,A25,1965420_west,"52.47867899,13.32860278",
Kaisereiche,autobus,A25,1965421_west,"52.46896806,13.33261489",
Grazerplatz,autobus,A25,1965422_west,"52.46731774,13.34764981",
Attilaplatz,autobus,A25,1965423_west,"52.45590180,13.37651250",
Tempelhoferdamm Ecke Ordensmeisterstr.,autobus,A25,1965424_west,"52.45579861,13.38396352",
Gottlieb-Dunkelstr. Ecke Tempelhoferweg,autobus,A25,1965425_west,"52.46050759,13.41797587",
Britzerdamm Ecke Tempelhoferweg,autobus,A25,1965426_west,"52.44889761,13.43620385",
U-Bhf. Parchimerallee,autobus,A25,1965427_west,"52.44570961,13.44989755",
Grünerweg Ecke Parchimerallee,autobus,A25,1965428_west,"52.44478076,13.45890602",
Loewenhardtdamm,autobus,A28,1965429_west,"52.48165790,13.37445329",
Dudenstr. Ecke Katzbachstr.,autobus,A28,1965430_west,"52.48503402,13.37659343",
Kreuzbergstr. Ecke Katzbachstr.,autobus,A28,1965431_west,"52.48940625,13.37669525",
Yorckstr. Ecke Großbeerenstr.,autobus,A28,1965432_west,"52.49371348,13.38350221",
Mehringdamm Ecke Yorckstr.,autobus,A28,1965433_west,"52.49291007,13.38769433",
Zossenerstr. Ecke Gneisenaustr.,autobus,A28,1965434_west,"52.49158552,13.39440500",
Südstern,autobus,A28,1965435_west,"52.48895865,13.40781380",
Urban-Krankenhaus,autobus,A28,1965436_west,"52.49346936,13.40624512",
U-Bhf. Prinzenstr.,autobus,A28,1965437_west,"52.49844154,13.40664384",
U-Bhf. Kottbuser Tor,autobus,A28,1965438_west,"52.49909420,13.41826700",
Oranienstr. Ecke Adalbertstr.,autobus,A28,1965439_west,"52.50129319,13.41925515",
Mariannenplatz,autobus,A28,1965440_west,"52.50228674,13.42408623",
Köpenickerstr. Ecke Manteufelstr.,autobus,A28,1965441_west,"52.50575155,13.43197089",
U-Bhf. Schlesisches Tor,autobus,A28,1965442_west,"52.50108420,13.44197126",
Heckmannufer Ecke Schlesischestr.,autobus,A28,1965443_west,"52.49753811,13.44837791",
Roseneck,autobus,A29,1965444_west,"52.47580090,13.28241127",
Berkaerstr. Ecke Teplitzerstr.,autobus,A29,1965445_west,"52.48211530,13.28118174",
Franzensbaderstr. Ecke Hubertusallee,autobus,A29,1965446_west,"52.48543154,13.28417080",
Bismarckplatz,autobus,A29,1965447_west,"52.49206454,13.28493897",
Rathenauplatz,autobus,A29,1965448_west,"52.49561135,13.28657375",
Henriettenplatz,autobus,A29,1965449_west,"52.49701780,13.29033951",
Joachim-Friedrichstr. Ecke Kurfürstendamm,autobus,A29,1965450_west,"52.49797302,13.29623577",
Wilmersdorferstr. Ecke Kurfürstendamm,autobus,A29,1965451_west,"52.50011662,13.30701429",
Olivaerplatz,autobus,A29,1965452_west,"52.49997141,13.31297061",
Uhlandstr. Ecke Kurfürstendamm,autobus,A29,1965453_west,"52.50253243,13.32528045",
Joachimstalerstr. Ecke Kurfürstendamm,autobus,A29,1965454_west,"52.50383438,13.33138069",
Breitscheidplatz,autobus,A29,1965455_west,"52.50443806,13.33564616",
Wittenbergplatz,autobus,A29,1965456_west,"52.50188939,13.34269788",
Lützowplatz,autobus,A29,1965457_west,"52.50502902,13.35182287",
Lützowstr. Ecke Potsdamerstr.,autobus,A29,1965458_west,"52.50309427,13.36566995",
Schönebergerstr. Ecke Hallesches Ufer,autobus,A29,1965459_west,"52.50192110,13.37690647",
Askanischerplatz,autobus,A29,1965460_west,"52.50447538,13.38235997",
U-Bhf. Kochstr.,autobus,A29,1965461_west,"52.50669824,13.39050322",
Lindenstr. Ecke Oranienstr.,autobus,A29,1965462_west,"52.50708473,13.39830086",
U-Bhf. Moritzplatz,autobus,A29,1965463_west,"52.50366900,13.41055755",
Oranienplatz,autobus,A29,1965464_west,"52.50232371,13.41551013",
Machandelweg,autobus,A31,1965465_west,"52.52483520,13.24567178",
U-Bhf. Ruhleben,autobus,A31,1965466_west,"52.52596833,13.24147858",
Teltowerstr. Ecke Ruhlebenerstr.,autobus,A31,1965467_west,"52.52649488,13.21644671",
Stresowplatz,autobus,A31,1965468_west,"52.53362878,13.20678183",
Breite Straße Ecke Charlottenstraße,autobus,A31,1965469_west,"52.53614601,13.20442667",
Rathaus Spandau,autobus,A31,1965470_west,"52.53457836,13.19949094",
Nauenerstr. Ecke Brunsbüttlerdamm,autobus,A31,1965471_west,"52.53405375,13.18168918",
Magistratsweg Ecke Brunsbüttelerdamm,autobus,A31,1965472_west,"52.53310161,13.15797587",
Hackbuschstr. Ecke Torweg,autobus,A31,1965473_west,"52.53959925,13.15022902",
Heidebergplan,autobus,A31,1965474_west,"52.54107413,13.14733873",
Breitenbachplatz,autobus,A32,1965475_west,"52.46721972,13.30947349",
Gritznerstr. Ecke Schildhornstr.,autobus,A32,1965476_west,"52.46432401,13.31648845",
Schloßstr. Ecke Schildhornstr.,autobus,A32,1965477_west,"52.46148865,13.32515018",
"Rathaus Steglitz, Schloßstr.",autobus,A32,1965478_west,"52.45638642,13.32015874",
Kuhligkshofstr. Ecke Albrechtstr.,autobus,A32,1965479_west,"52.45647464,13.32266025",
Sedanstr. Ecke Albrechtstr.,autobus,A32,1965480_west,"52.45143415,13.33535514",
Stindestr. Ecke Albrechtstr.,autobus,A32,1965481_west,"52.44812942,13.34011389",
Leonorenstr. Ecke Siemensstr.,autobus,A32,1965482_west,"52.44438058,13.33887527",
Bhf. Lankwitz,autobus,A32,1965483_west,"52.43916666,13.34356778",
"Lankwitz, Kirche",autobus,A32,1965484_west,"52.43629187,13.34574539",
Malteserstr. Ecke Paul-Schneider-Str.,autobus,A32,1965485_west,"52.43332587,13.35301874",
Marchandstraasse Ecke Malteserstr.,autobus,A32,1965486_west,"52.42301789,13.35749781",
Marienfelderallee Ecke Malteserstr.,autobus,A32,1965487_west,"52.41372773,13.36191679",
Stegerwaldstr. Ecke Marienfelderallee,autobus,A32,1965488_west,"52.42072124,13.36926660",
Bahnstr. Ecke Marienfelderallee,autobus,A32,1965489_west,"52.42488059,13.37307043",
Berlinickestr. Ecke Albrechtstr.,autobus,A33,1965490_west,"52.45613384,13.32388935",
Handjeryplatz,autobus,A33,1965491_west,"52.45147899,13.33531014",
Heinrich-Seidelstr. Ecke Steglitzerdamm,autobus,A33,1965492_west,"52.45020464,13.34509572",
S-Bhf. Südende,autobus,A33,1965493_west,"52.44902461,13.35443762",
Steglitzerdamm Ecke Attilastr.,autobus,A33,1965494_west,"52.44676905,13.36072241",
Kaiser-/Ringstr.,autobus,A33,1965495_west,"52.44448052,13.37222908",
Rathausstr. Ecke Kaiserstr.,autobus,A33,1965496_west,"52.44526215,13.37948232",
Kaiserstr. Ecke Mariendorferdamm,autobus,A33,1965497_west,"52.44556286,13.38580057",
"Spandau, Friedhof",autobus,A34,1965498_west,"52.55313629,13.17967445",
Pionierstr. Ecke Zeppelinstr.,autobus,A34,1965499_west,"52.55150025,13.18552122",
Askanierring Ecke Falkenhagenerstr.,autobus,A34,1965500_west,"52.54892650,13.19348270",
"Spandau, Hafenplatz",autobus,A34,1965501_west,"52.54215888,13.20604486",
Rathaus Spandau,autobus,A34,1965502_west,"52.53457836,13.19949094",
Wilhelmstr. Ecke Klosterstr.,autobus,A34,1965503_west,"52.52916945,13.19565266",
Adamstr. Ecke Pichelsdorferstr.,autobus,A34,1965504_west,"52.52107038,13.19779651",
Heerstr. Ecke Pichelsdorferstr.,autobus,A34,1965505_west,"52.51306304,13.19689712",
Weinmeisterhornweg Ecke Gatowerstr.,autobus,A34,1965506_west,"52.50926294,13.18033740",
Ortsgrenze Gatow,autobus,A34,1965507_west,"52.49816017,13.18001442",
"Gatow, Kirche",autobus,A34,1965508_west,"52.48684681,13.18215148",
Großglienickerweg Ecke Kladowerdamm,autobus,A34,1965509_west,"52.48313296,13.18267729",
Krankenhaus Hohengatow,autobus,A34,1965510_west,"52.47044988,13.16939160",
Krankenhaus Havelhöhe,autobus,A34,1965511_west,"52.46291933,13.15899083",
Alt-Kladow Ecke Kladowerdamm,autobus,A34,1965512_west,"52.45345793,13.14387535",
Schweizerhaus,autobus,A34,1965513_west,"52.46175022,13.13357880",
Gutshof,autobus,A34,1965514_west,"52.47510904,13.12071054",
Alt-Gatow,autobus,A34 E,1965515_west,"52.48331436,13.18269333",
Großglienickerweg,autobus,A34 E,1965516_west,"52.48155728,13.17437384",
Siedlung Habichtswald,autobus,A34 E,1965517_west,"52.47953016,13.14206961",
"Spandau, Friedhof",autobus,A35,1965518_west,"52.55313629,13.17967445",
Pionierstr. Ecke Zeppelinstr.,autobus,A35,1965519_west,"52.55150025,13.18552122",
Askanierring Ecke Falkenhagenerstr.,autobus,A35,1965520_west,"52.54892650,13.19348270",
"Spandau, Hafenplatz",autobus,A35,1965521_west,"52.54215888,13.20604486",
Rathaus Spandau,autobus,A35,1965522_west,"52.53457836,13.19949094",
Wilhelmstr. Ecke Klosterstr.,autobus,A35,1965523_west,"52.52916945,13.19565266",
Adamstr. Ecke Pichelsdorferstr.,autobus,A35,1965524_west,"52.52107038,13.19779651",
Heerstr. Ecke Pichelsdorferstr.,autobus,A35,1965525_west,"52.51306304,13.19689712",
Weinmeisterhornweg Ecke Gatowerstr.,autobus,A35,1965526_west,"52.50926294,13.18033740",
Ortsgrenze Gatow,autobus,A35,1965527_west,"52.49816017,13.18001442",
"Gatow, Kirche",autobus,A35,1965528_west,"52.48684681,13.18215148",
Großglienickerweg Ecke Kladowerdamm,autobus,A35,1965529_west,"52.48313296,13.18267729",
Krankenhaus Hohengatow,autobus,A35,1965530_west,"52.47044988,13.16939160",
Krankenhaus Havelhöhe,autobus,A35,1965531_west,"52.46291933,13.15899083",
Alt-Kladow Ecke Kladowerdamm,autobus,A35,1965532_west,"52.45345793,13.14387535",
Krampnitzerweg Ecke Sakrower Landstr.,autobus,A35,1965533_west,"52.45224947,13.13839944",
"Kladow, Hottengrund",autobus,A35,1965534_west,"52.44608218,13.12631025",
"Kladow, Dorfplatz",autobus,A35 E,1965535_west,"52.45233907,13.13858722",
Sarkower Landstr. Ecke Kladowerdamm,autobus,A35 E,1965536_west,"52.45336191,13.14374514",
Krampnitzerweg Ecke Sarkower Landstr.,autobus,A35 E,1965537_west,"52.45227850,13.13840632",
Pottensteinerweg Ecke Selbitzerstr.,autobus,A35 E,1965538_west,"52.45051486,13.12165202",
Lanzendorferweg Ecke Pottensteinerweg,autobus,A35 E,1965539_west,"52.45047761,13.11861910",
Altenheim Hottengrund,autobus,A35 E,1965540_west,"52.44892367,13.11423775",
"Zehlendorf, Potsdamerstr. Ecke Fischerhüttenstr.",autobus,A48,1965541_west,"52.43574406,13.25604513",
Teltowerdamm Ecke Potsdamerstr.,autobus,A48,1965542_west,"52.43506854,13.26043342",
Sundgauerstr. Ecke Potsdamerstr.,autobus,A48,1965543_west,"52.43835132,13.27139377",
Dahlemerweg Ecke Berlinerstr.,autobus,A48,1965544_west,"52.44188094,13.28273380",
Drakestr. Ecke Unter den Eichen,autobus,A48,1965545_west,"52.44573233,13.29369722",
Hindenburgdamm Ecke Schloßstr.,autobus,A48,1965546_west,"52.45348338,13.31557093",
Rathaus Steglitz,autobus,A48,1965547_west,"52.45563378,13.32105078",
Bundesallee Ecke Schloßstr.,autobus,A48,1965548_west,"52.46491935,13.32846219",
Kaisereiche,autobus,A48,1965549_west,"52.46896806,13.33261489",
Innsbruckerplatz,autobus,A48,1965550_west,"52.47847894,13.34403026",
Kaiser-Wilhelm-Platz,autobus,A48,1965551_west,"52.48632925,13.35655627",
Pallasstr. Ecke Potsdamerstr.,autobus,A48,1965552_west,"52.49433810,13.36106238",
U-Bhf. Bülowstr.,autobus,A48,1965553_west,"52.49787470,13.36212460",
Tiergartenstr./Philharmonie,autobus,A48,1965554_west,"52.51075589,13.36887626",
"Roseneck, Rheinbabenallee",autobus,A50,1965555_west,"52.47593478,13.28212574",
Forckenbeckstr. Ecke Hohenzollerndamm,autobus,A50,1965556_west,"52.48221132,13.29002747",
Rudolstädterstr.,autobus,A50,1965557_west,"52.48842112,13.30215328",
U-Bhf. Fehrbellinerplatz,autobus,A50,1965558_west,"52.49038178,13.31421227",
Uhlandstr. Ecke Güntzelstr.,autobus,A50,1965559_west,"52.49152711,13.32321130",
Pragerplatz,autobus,A50,1965560_west,"52.49295457,13.33315040",
Bhf. Wannsee,autobus,A51,1965561_west,"52.42151302,13.17810257",
Königstr. Ecke Kronprinzessinnenweg,autobus,A51,1965562_west,"52.41993325,13.17531239",
Königstr. Ecke Am Großen Wannsee,autobus,A51,1965563_west,"52.42049713,13.16716791",
Krankenhaus Heckeshorn,autobus,A51,1965564_west,"52.43498873,13.16171669",
"Marienfelde, Stadtrandsiedlung",autobus,A52,1965565_west,"52.40262128,13.35330799",
Alt-Marienfelde Ecke Merienfelderallee,autobus,A52,1965566_west,"52.41341610,13.36332925",
Kettingerstr. Ecke Buckowerchaussee,autobus,A52,1965567_west,"52.41324337,13.39549820",
Lichtenraderdamm Ecke Buckowerchaussee,autobus,A52,1965568_west,"52.41453449,13.40113965",
Bühlerweg,autobus,A52,1965569_west,"52.41733641,13.41295295",
Buckower Friedhaus,autobus,A52,1965570_west,"52.42153161,13.43021506",
Buckowerdamm Ecke Alt-Buckow,autobus,A52,1965571_west,"52.42364174,13.43667664",
Grünerweg Ecke Johannisthalerchaussee,autobus,A52,1965572_west,"52.42961354,13.45376113",
Triftweg Ecke Johannisthalerchaussee,autobus,A52,1965573_west,"52.43169737,13.45951197",
Rudowerstr. Ecke Johannisthalerchaussee,autobus,A52,1965574_west,"52.43433594,13.46904495",
Efeuweg Ecke Rudowerstr.,autobus,A52,1965575_west,"52.42964562,13.47798792",
Wildmeisterdamm Ecke Neuköllnerstr.,autobus,A52,1965576_west,"52.42576178,13.48322598",
Köpenickerstr. Ecke Neuköllnerstr.,autobus,A52,1965577_west,"52.41678547,13.49425005",
Friedhof Rudow,autobus,A52,1965578_west,"52.42113122,13.50319915",
Mimosenweg Ecke Köpenickerstr.,autobus,A52,1965579_west,"52.42288858,13.50912841",
Stubenraustr. Ecke Kanalstr.,autobus,A52,1965580_west,"52.43167573,13.49524803",
"Nikolassee, Alemannenstr.",autobus,A53,1965581_west,"52.42669871,13.19137081",
Krottnauererstr. Ecke Spanischeallee,autobus,A53,1965582_west,"52.43404562,13.20665810",
Waldemarplatz,autobus,A53,1965583_west,"52.43775537,13.22018978",
Argentinischeallee Ecke Matterhornstr.,autobus,A53,1965584_west,"52.43689574,13.23140795",
U-Bhf. Krumme Lanke,autobus,A53,1965585_west,"52.44361298,13.24100643",
Teltowerdamm Ecke Potsdamerstr.,autobus,A53,1965586_west,"52.43506854,13.26043342",
Rathaus Zehlendorf,autobus,A53,1965587_west,"52.43320752,13.25953192",
Knesebeckstr. Ecke Seehofstr.,autobus,A53,1965588_west,"52.42892135,13.26769723",
Dahlemerweg,autobus,A53,1965589_west,"52.42634636,13.27683264",
4. Ring,autobus,A53,1965590_west,"52.42250631,13.28694906",
Luzernerstr.,autobus,A53,1965591_west,"52.42403869,13.29291061",
Thunerplatz,autobus,A53,1965592_west,"52.42373316,13.29626016",
Wiesenbaude,autobus,A53,1965593_west,"52.43049524,13.31180861",
Ostpreußendamm Ecke Königsbergerstr.,autobus,A53,1965594_west,"52.43081146,13.31748700",
Lankwitzerstr. Ecke Königsbergerstr.,autobus,A53,1965595_west,"52.42780591,13.32637508",
Oberhoferplatz,autobus,A53,1965596_west,"52.42432102,13.32837352",
"Grunewald, Roseneck",autobus,A60,1965597_west,"52.47593599,13.28214054",
Warnemünderstr. Ecke Hundekehlestr.,autobus,A60,1965598_west,"52.47539579,13.29037056",
Aoppoterstr. Ecke Breitestr.,autobus,A60,1965599_west,"52.47327825,13.29894085",
Hamburgerstr. Ecke Mecklenburgischestr.,autobus,A60,1965600_west,"52.47537517,13.30356645",
U-Bhf. Heidelbergerplatz,autobus,A60,1965601_west,"52.48045045,13.31283560",
Brabanterplatz,autobus,A60,1965602_west,"52.48197504,13.31612866",
Am Volkspark,autobus,A60,1965603_west,"52.48322207,13.32036834",
Berlinerstr. Ecke Blissestr.,autobus,A60,1965604_west,"52.48650431,13.32037437",
Postamt,autobus,A60,1965605_west,"52.48905066,13.32277037",
Güntzelstr. Ecke Uhlandstr.,autobus,A60,1965606_west,"52.49152414,13.32320274",
Ludwigkirchstr. Ecke Uhlandstr.,autobus,A60,1965607_west,"52.49794390,13.32441187",
Kurfürstendamm Ecke Uhlandstr.,autobus,A60,1965608_west,"52.50251711,13.32521539",
Joachimstalerstr. Ecke Kurfürstendamm,autobus,A60,1965609_west,"52.50383438,13.33138069",
Breitscheidplatz,autobus,A60,1965610_west,"52.50443806,13.33564616",
Wittenbergplatz,autobus,A60,1965611_west,"52.50188939,13.34269788",
Zobeltitzstr. Ecke Eichborndamm,autobus,A61,1965612_west,"52.56961198,13.31256257",
"Reinickendorf, Sportplatz",autobus,A61,1965613_west,"52.57376583,13.35206207",
Schillingstr. Ecke Scharnweberstr.,autobus,A61,1965614_west,"52.56595210,13.32024014",
Kurt-Schumacher-Platz,autobus,A61,1965615_west,"52.56343825,13.32713029",
Humboldtstr. Ecke Ollenhauerstr.,autobus,A61,1965616_west,"52.56924651,13.32987792",
Sebastianfriedhof,autobus,A61,1965617_west,"52.57100250,13.33636094",
Teichstr. Ecke Lindauerallee,autobus,A61,1965618_west,"52.57438307,13.34770098",
Aroserallee Ecke Lindauerallee,autobus,A61,1965619_west,"52.57378753,13.35197104",
Pankowerallee Ecke Residenzstr.,autobus,A61,1965620_west,"52.56384896,13.36424475",
Osloerstr. Ecke Schwedenstr.,autobus,A61,1965621_west,"52.55665602,13.37386300",
Exerzierstr. Ecke Badstr.,autobus,A61,1965622_west,"52.55379747,13.37714659",
Pankstr. Ecke Badstr.,autobus,A61,1965623_west,"52.55227404,13.38138720",
U-Bhf. Gesundbrunnen,autobus,A61,1965624_west,"52.54947942,13.38652401",
Usedomerstr. Ecke Brunnenstr.,autobus,A61,1965625_west,"52.54112092,13.39378151",
Bernauerstr. Ecke Brunnenstr.,autobus,A61,1965626_west,"52.53825329,13.39598562",
Gartenplatz,autobus,A61,1965627_west,"52.53856590,13.38400528",
"Wittenau, Cyclopstr.",autobus,A62,1965628_west,"52.59725578,13.33260500",
Alt-Wittenau Ecke Oranienburgerstr.,autobus,A62,1965629_west,"52.58969313,13.33418093",
Bonhoeffer-Heim,autobus,A62,1965630_west,"52.57940413,13.33327468",
August-Viktoria-Allee Ecke Ollenhauerstr.,autobus,A62,1965631_west,"52.56925361,13.32991992",
Kurt-Schumacher-Platz,autobus,A62,1965632_west,"52.56343825,13.32713029",
Saatwinklerdamm Ecke Kurt-Schumacherdamm,autobus,A62,1965633_west,"52.54801382,13.30054760",
Heckerdamm Ecke Kurt-Schumacherdamm,autobus,A62,1965634_west,"52.53961523,13.29537519",
Olbersstr. Ecke Tegelerweg,autobus,A62,1965635_west,"52.52929187,13.29626447",
Luisenplatz,autobus,A62,1965636_west,"52.52005409,13.29951339",
Richard-Wagner-Platz,autobus,A62,1965637_west,"52.51749099,13.30639710",
Leibnizstr. Ecke Otto-Suhr-Allee,autobus,A62,1965638_west,"52.51466736,13.31516095",
Ernst-Reuter-Platz,autobus,A62,1965639_west,"52.51159182,13.32257153",
Bhf. Zoo,autobus,A62,1965640_west,"52.50702953,13.33322012",
Marburgerstr. Ecke Tauentzstr.,autobus,A62,1965641_west,"52.50374577,13.33767470",
Wittenbergplatz,autobus,A62,1965642_west,"52.50188939,13.34269788",
Radelandstr. Ecke Niederheideweg,autobus,A63,1965643_west,"52.56621908,13.15706778",
Pionierstr. Ecke Zeppelinstr.,autobus,A63,1965644_west,"52.55150025,13.18552122",
Falkenseerchausee Ecke Zweibrückerstr.,autobus,A63,1965645_west,"52.54677033,13.18877220",
Falkenseerplatz,autobus,A63,1965646_west,"52.54036212,13.20329943",
Am Juliusturm Ecke Breitestr.,autobus,A63,1965647_west,"52.53883445,13.20752168",
Rathaus Spandau,autobus,A63,1965648_west,"52.53457836,13.19949094",
Hochgerichtstr. Ecke Seegefelderstr.,autobus,A63,1965649_west,"52.53843535,13.18239370",
Seegefelderweg (Stadtgrenze),autobus,A63,1965650_west,"52.54974478,13.12896856",
Vinetaplatz,autobus,A64,1965651_west,"52.54113780,13.39842130",
Demminerstr. Ecke Brunnenstr.,autobus,A64,1965652_west,"52.54111761,13.39374567",
Rügenerstr. Ecke Brunnenstr.,autobus,A64,1965653_west,"52.54472500,13.39102468",
U-Bhf. Gesundbrunnen,autobus,A64,1965654_west,"52.54947942,13.38652401",
Prinzenallee Ecke Badstr.,autobus,A64,1965655_west,"52.55228673,13.38144563",
Exerzierstr. Ecke Badstr.,autobus,A64,1965656_west,"52.55379747,13.37714659",
Schulstr. Ecke Exerzierstr.,autobus,A64,1965657_west,"52.55396009,13.37150078",
Reinickendorferstr. Ecke Schulstr.,autobus,A64,1965658_west,"52.55156918,13.36734986",
Leopoldplatz,autobus,A64,1965659_west,"52.54647397,13.35923348",
Antwerpenerstr. Ecke Luxemburgerstr.,autobus,A64,1965660_west,"52.54411217,13.35493853",
Virchow-Krankenhaus,autobus,A64,1965661_west,"52.54371513,13.33931792",
Seestr. Ecke Amrumerstr.,autobus,A64,1965662_west,"52.54624999,13.34402033",
Otawistr. Ecke Afrikanischestr.,autobus,A64,1965663_west,"52.55252523,13.33695423",
Müllerstr. Ecke Afrikanischestr.,autobus,A64,1965664_west,"52.56099646,13.33337509",
Holländerstr. Ecke Septimerstr.,autobus,A64,1965665_west,"52.56428064,13.33860259",
Goebelplatz,autobus,A65,1965666_west,"52.53812718,13.27991415",
Kurt-Schumacherdamm Ecke Heckerdamm,autobus,A65,1965667_west,"52.53963822,13.29511816",
Jakob-Kaiser-Platz,autobus,A65,1965668_west,"52.53673970,13.29360488",
Spandauerdamm Ecke Stadtautobahn,autobus,A65,1965669_west,"52.51857668,13.28324220",
Messedamm/Kaiserdamm,autobus,A65,1965670_west,"52.50999174,13.28179716",
Rathenauplatz,autobus,A65,1965671_west,"52.49561135,13.28657375",
Hohenzollerndamm Ecke Stadtautobahn,autobus,A65,1965672_west,"52.48792296,13.30056111",
Heidelbergerplatz,autobus,A65,1965673_west,"52.48025668,13.31250043",
Blissestr. Ecke Detmolderstr.,autobus,A65,1965674_west,"52.47880087,13.32030264",
Bundesplatz,autobus,A65,1965675_west,"52.47867899,13.32860278",
Innsbruckerplatz,autobus,A65,1965676_west,"52.47847894,13.34403026",
Sachsendamm Ecke Eberstr.,autobus,A65,1965677_west,"52.48014721,13.35216118",
Alboinstr. Ecke Schönebergerstr.,autobus,A65,1965678_west,"52.46976839,13.37206381",
Manteuffelstr. Ecke Alt-Tempelhof,autobus,A65,1965679_west,"52.46635995,13.37809676",
Tempelhoferdamm Ecke Alt-Tempelhof,autobus,A65,1965680_west,"52.46591642,13.38560642",
Oberlandstr. Ecke Germaniastr.,autobus,A65,1965681_west,"52.46346249,13.40208263",
Hermannstr. Ecke Silberstreinstr.,autobus,A65,1965682_west,"52.46642674,13.43196471",
Karl-Marx-Str. Ecke Saalestr.,autobus,A65,1965683_west,"52.46972817,13.44159100",
Schulenburgpark,autobus,A65,1965684_west,"52.46654457,13.47034123",
Düppel-Süd,autobus,A66,1965685_west,"52.42123797,13.22684635",
Fercherstr. Ecke Berlepschstr.,autobus,A66,1965686_west,"52.42335989,13.23473134",
Andreezeile Ecke Teltowerdamm,autobus,A66,1965687_west,"52.41045731,13.26713203",
Machnowerstr. Ecke Teltowerdamm,autobus,A66,1965688_west,"52.43081519,13.25928297",
Clayallee Ecke Teltowerdamm,autobus,A66,1965689_west,"52.43506597,13.26042887",
Schützallee Ecke Onkel-Tom-Str.,autobus,A66,1965690_west,"52.44062659,13.25520351",
U-Bhf. Onkel-Toms-Hütte,autobus,A66,1965691_west,"52.45007713,13.25127259",
Oranienstr. Ecke Lindenstr.,autobus,A67,1965692_west,"52.50709187,13.39827273",
Moritzplatz,autobus,A67,1965693_west,"52.50382794,13.41018325",
Oranienplatz,autobus,A67,1965694_west,"52.50232371,13.41551013",
U-Bhf. Kottbusser Tor,autobus,A67,1965695_west,"52.49912276,13.41824117",
Kottbusser Brücke,autobus,A67,1965696_west,"52.49603084,13.42007040",
Hermannplatz,autobus,A67,1965697_west,"52.48778873,13.42539348",
Erkstr. Ecke Sonnenallee,autobus,A67,1965698_west,"52.48167374,13.44011151",
Hertzbergplatz,autobus,A67,1965699_west,"52.47754135,13.44849300",
Dammweg Ecke Sonnenallee,autobus,A67,1965700_west,"52.47025948,13.46464808",
Neuköllnerallee Ecke Grenzallee,autobus,A67,1965701_west,"52.46813425,13.46058472",
Am Oberhafen,autobus,A67,1965702_west,"52.46501730,13.45059418",
U-Bhf. Grenzallee,autobus,A67,1965703_west,"52.46369510,13.44423173",
Buschkrug,autobus,A67,1965704_west,"52.45247090,13.45074820",
Onkel-Herse-Str. Eke Buschkrugallee,autobus,A67,1965705_west,"52.44826580,13.45393194",
Parchimerallee Ecke Buschkrugallee,autobus,A67,1965706_west,"52.44508591,13.45520007",
Otto-Wels-Ring Ecke Str. 454,autobus,A67,1965707_west,"52.43499737,13.45373288",
Clayallee Ecke Königin-Luise-Str.,autobus,A68,1965708_west,"52.46044681,13.27489827",
Thielallee Ecke Königin-Luise-Str.,autobus,A68,1965709_west,"52.45813421,13.28704347",
U-Bhf. Dahlem-Dorf,autobus,A68,1965710_west,"52.45807070,13.28970695",
Arnimallee Ecke Königin-Luise-Str.,autobus,A68,1965711_west,"52.45776572,13.29858724",
Botanischer Garten,autobus,A68,1965712_west,"52.45859880,13.30343606",
Lepsiusstr. Ecke Grunewaldstr.,autobus,A68,1965713_west,"52.45878275,13.31560706",
Rathaus Steglitz,autobus,A68,1965714_west,"52.45563378,13.32105078",
Breitestr. Ecke Albrechtstr.,autobus,A68,1965715_west,"52.45436072,13.32829610",
Bismarckstr. Ecke Bergstr.,autobus,A68,1965716_west,"52.45863794,13.33929802",
Munsterdamm Ecke Bergstr.,autobus,A68,1965717_west,"52.45910801,13.34873117",
Alboinstr. Ecke Arnulfstr.,autobus,A68,1965718_west,"52.45573855,13.36988790",
Attilaplatz,autobus,A68,1965719_west,"52.45590180,13.37651250",
Tempelhoferdamm Ecke Friedrich-Karl-Str.,autobus,A68,1965720_west,"52.45579853,13.38396054",
Kaiserin-Augusta-Str.,autobus,A68,1965721_west,"52.45936602,13.38446422",
Alt-Tempelhof Ecke Tempelhoferdamm,autobus,A68,1965722_west,"52.46601300,13.38558828",
U-Bhf. Tempelhof,autobus,A68,1965723_west,"52.46987510,13.38558706",
Eichkamp,autobus,A69,1965724_west,"52.48991827,13.25954128",
Trabenerstr. Ecke Halenseestr.,autobus,A69,1965725_west,"52.49735494,13.28272174",
Henriettenplatz,autobus,A69,1965726_west,"52.49701780,13.29033951",
Joachim-Friedrichstr. Ecke Kurfürstendamm,autobus,A69,1965727_west,"52.49797302,13.29623577",
Wilmersdorferstr. Ecke Kurfürstendamm,autobus,A69,1965728_west,"52.50011662,13.30701429",
Olivaerplatz,autobus,A69,1965729_west,"52.49997141,13.31297061",
Bleibtreustr. Ecke Kurfürstendamm,autobus,A69,1965730_west,"52.50160348,13.31946411",
Uhlandstr. Ecke Kurfürstendamm,autobus,A69,1965731_west,"52.50253243,13.32528045",
Joachimstalerstr. Ecke Kurfürstendamm,autobus,A69,1965732_west,"52.50383438,13.33138069",
Nürnbergerstr. Ecke Kurfürstenstr.,autobus,A69,1965733_west,"52.50512043,13.34120096",
An der Urania,autobus,A69,1965734_west,"52.50313264,13.34990933",
Lützowplatz,autobus,A69,1965735_west,"52.50502902,13.35182287",
Tiergartenstr. Ecke Klingelhöferstr.,autobus,A69,1965736_west,"52.50956693,13.35136665",
Großer Stern,autobus,A69,1965737_west,"52.51452472,13.34993319",
Kongreßhalle,autobus,A69,1965738_west,"52.51763253,13.36319698",
John-Foster-Dulles-Allee Ecke Neue Verbindungsstr.,autobus,A69,1965739_west,"52.51741103,13.37050573",
Moltkebrücke,autobus,A69,1965740_west,"52.52163755,13.36922927",
"Wollankstr., Sektorengrenze",autobus,A70,1965741_west,"52.56559871,13.39083019",
Soldinerstr. Ecke Prinzenallee,autobus,A70,1965742_west,"52.55868402,13.38625492",
Osloerstr. Ecke Prinzenallee,autobus,A70,1965743_west,"52.55531797,13.38384006",
Badstr. Ecke Pankstr.,autobus,A70,1965744_west,"52.55228518,13.38146632",
Wiesenstr. Ecke Pankstr.,autobus,A70,1965745_west,"52.54760177,13.37388377",
Ravenéstr. Ecke Reinickendorferstr.,autobus,A70,1965746_west,"52.54285307,13.36977037",
Weddingplatz,autobus,A70,1965747_west,"52.54113612,13.36850103",
Tegelerstr. Ecke Fennstr.,autobus,A70,1965748_west,"52.53790109,13.36161851",
Rathenowerstr. Ecke Perlebergerstr.,autobus,A70,1965749_west,"52.53247559,13.35058625",
Turmstr. Ecke Rathenowerstr.,autobus,A70,1965750_west,"52.52677327,13.35526322",
Krankenhaus Moabit,autobus,A70,1965751_west,"52.52631364,13.34776241",
Stromstr. Ecke Turmstr.,autobus,A70,1965752_west,"52.52634184,13.34312496",
Rathaus Tiergarten,autobus,A70,1965753_west,"52.52649086,13.33835898",
Waldstr. Ecke Turmstr.,autobus,A70,1965754_west,"52.52720084,13.33052493",
Berlichingenstr. Ecke Huttenstrassse,autobus,A70,1965755_west,"52.52782924,13.32479771",
Wiebestr. Ecke Turmstr.,autobus,A70,1965756_west,"52.52836900,13.31942444",
"Wilhelmsruh, Kopenhagenerstr.",autobus,A71,1965757_west,"52.58389051,13.36547285",
Lindauerallee Ecke Residenzstr.,autobus,A71,1965758_west,"52.57335465,13.35896485",
Emmentalerstr. Ecke Residenzstr.,autobus,A71,1965759_west,"52.57036326,13.36089423",
Schäfersee,autobus,A71,1965760_west,"52.56412403,13.36412797",
Reginhardstr. Ecke Pankowerallee,autobus,A71,1965761_west,"52.56431243,13.37349062",
Provinzstr. Ecke Pankowerallee,autobus,A71,1965762_west,"52.56468577,13.37805639",
Ritterlandweg Ecke Soldinerstr.,autobus,A71,1965763_west,"52.56075604,13.37703412",
Prinzenallee Ecke Soldinerstr.,autobus,A71,1965764_west,"52.55868935,13.38625549",
Osloerstr. Ecke Prinzenallee,autobus,A71,1965765_west,"52.55531797,13.38384006",
Badstr. Ecke Pankstr.,autobus,A71,1965766_west,"52.55228518,13.38146632",
U-Bhf. Gesundbrunnen,autobus,A71,1965767_west,"52.54947942,13.38652401",
Ramlerstr. Ecke Brunnenstr.,autobus,A71,1965768_west,"52.54710870,13.38914654",
Gustav-Meyer-Allee Ecke Brunnenstr.,autobus,A71,1965769_west,"52.54467816,13.39104867",
Usedomerstr. Ecke Brunnenstr.,autobus,A71,1965770_west,"52.54112092,13.39378151",
Bernauerstr. Ecke Brunnenstr.,autobus,A71,1965771_west,"52.53825329,13.39598562",
Vinetaplatz,autobus,A71,1965772_west,"52.54113780,13.39842130",
Residenzstr. Ecke Klemkestr.,autobus,A72,1965773_west,"52.57424589,13.35915138",
Residenzstr. Ecke Lindauerallee,autobus,A72,1965774_west,"52.57335472,13.35894171",
Pankowerallee Ecke Residenzstr.,autobus,A72,1965775_west,"52.56384896,13.36424475",
Louise-Schroeder-Platz,autobus,A72,1965776_west,"52.55713317,13.36551369",
Nauenerplatz,autobus,A72,1965777_west,"52.55155262,13.36737073",
Pankstr. Ecke Reinickendorferstr.,autobus,A72,1965778_west,"52.54523194,13.37050345",
Weddingplatz,autobus,A72,1965779_west,"52.54113612,13.36850103",
Heidestr. Ecke Perlebergerstr.,autobus,A72,1965780_west,"52.53729390,13.36028117",
Rathenowerstr. Ecke Perlebergerstr.,autobus,A72,1965781_west,"52.53247559,13.35058625",
Wilsnackerstr. Ecke Perlebergerstr.,autobus,A72,1965782_west,"52.53188508,13.34929041",
Turmstr. Ecke Stromstr.,autobus,A72,1965783_west,"52.52631574,13.34320006",
Waldstr. Ecke Turmstr.,autobus,A72,1965784_west,"52.52720084,13.33052493",
Wiebestr. Ecke Huttenstr.,autobus,A72,1965785_west,"52.52836900,13.31942444",
Tauroggenerstr. Ecke Osnabrückerstr.,autobus,A72,1965786_west,"52.52585108,13.30194744",
Landgericht,autobus,A72,1965787_west,"52.52698926,13.29716765",
Jakob-Kaiser-Platz,autobus,A72,1965788_west,"52.53673970,13.29360488",
Quellweg Ecke Nonnendammallee,autobus,A72,1965789_west,"52.53667861,13.26845965",
Paulsternstr. Ecke Nonnendammallee,autobus,A72,1965790_west,"52.53816405,13.24773771",
Gartenfeld,autobus,A72,1965791_west,"52.54719055,13.24779333",
"Bhf. Zoo, Hardenbergplatz",autobus,A73,1965792_west,"52.50696177,13.33308096",
Kurfürstendamm Ecke Tauentzienstr.,autobus,A73,1965793_west,"52.50442326,13.33565780",
Wittenbergplatz,autobus,A73,1965794_west,"52.50188939,13.34269788",
Motzstr. Ecke Kleiststr.,autobus,A73,1965795_west,"52.49965229,13.35335875",
Grunewaldstr. Ecke Martin-Luther-Str.,autobus,A73,1965796_west,"52.48905218,13.34501538",
Rathaus Schöneberg,autobus,A73,1965797_west,"52.48515474,13.34508660",
Hauptstr. Ecke Dominicusstr.,autobus,A73,1965798_west,"52.48178378,13.34841821",",+nan"
Ebersstr. Ecke Dominicusstr.,autobus,A73,1965799_west,"52.48014768,13.35214638",
Reichartstr. Ecke Sachsendamm,autobus,A73,1965800_west,"52.47272490,13.36648096",
Berlinickeplatz,autobus,A73,1965801_west,"52.46607292,13.37851641",
Tempelhoferdamm Ecke Alt-Tempelhof,autobus,A73,1965802_west,"52.46591642,13.38560642",
Rohdestr. Ecke Germaniastr.,autobus,A73,1965803_west,"52.46205027,13.40440412",
Gottlieb-Dunkel-Str. Ecke Germaniastr.,autobus,A73,1965804_west,"52.46056888,13.41797540",
Britzerdamm Ecke Gradestr.,autobus,A73,1965805_west,"52.45263536,13.43855969",
U-Bhf. Blaschko-Allee,autobus,A73,1965806_west,"52.45247827,13.44899996",
"Britz, Buschkrug",autobus,A73,1965807_west,"52.45251852,13.45212388",
Königin-Elisabeth-Str./Messedamm,autobus,A74,1965808_west,"52.51000392,13.28183577",
Spandauerdamm Ecke Königin-Elisabeth-Str.,autobus,A74,1965809_west,"52.51839539,13.28021270",
Klausenerplatz,autobus,A74,1965810_west,"52.51924427,13.29194874",
Schloßstr. Ecke Seelingstr.,autobus,A74,1965811_west,"52.51566300,13.29654868",
Sophie-Charlotte-Platz,autobus,A74,1965812_west,"52.51083333,13.29666667",Q657879
Kaiser-Friedrich-Str. Ecke Kantstr.,autobus,A74,1965813_west,"52.50678591,13.30232482",
Stuttgarterplatz,autobus,A74,1965814_west,"52.50551611,13.30292330",
Kurfürstendamm Ecke Wilmersdorferstr.,autobus,A74,1965815_west,"52.50001126,13.30714351",
Fehrbellinerplatz,autobus,A74,1965816_west,"52.49040639,13.31420422",
Bundesallee Ecke Berlinerstr.,autobus,A74,1965817_west,"52.48732558,13.33098413",
Martin-Luther-Str. Ecke Grunewaldstr.,autobus,A74,1965818_west,"52.48910174,13.34492201",
Rathaus Schöneberg,autobus,A74,1965819_west,"52.48515474,13.34508660",
Hauptstr. Ecke Dominicusstr.,autobus,A74,1965820_west,"52.48178378,13.34841821",",+nan"
Reichartstr. Ecke Sachsendamm,autobus,A74,1965821_west,"52.47272490,13.36648096",
Egelingzeile,autobus,A74,1965822_west,"52.46359357,13.37006890",
"Lindenhof, Eythstr.",autobus,A74,1965823_west,"52.45972284,13.36642830",
Munsterdamm Ecke Steglitzerdamm,autobus,A75,1965824_west,"52.45000526,13.34672202",
Bismarckstr. Ecke Steglitzerdamm,autobus,A75,1965825_west,"52.45107274,13.33791199",
Lauenburgerplatz,autobus,A75,1965826_west,"52.46159988,13.33932524",
Kaisereiche,autobus,A75,1965827_west,"52.46896806,13.33261489",
Innsbruckerplatz,autobus,A75,1965828_west,"52.47847894,13.34403026",
Dominicusstr. Ecke Hauptstr.,autobus,A75,1965829_west,"52.48180072,13.34837800",
Kaiser-Wilhelm-Platz,autobus,A75,1965830_west,"52.48632925,13.35655627",
U-Bhf. Bülowstr.,autobus,A75,1965831_west,"52.49787470,13.36212460",
Am Karlsbad,autobus,A75,1965832_west,"52.50551053,13.36801582",
Askanischerplatz,autobus,A75,1965833_west,"52.50447897,13.38229547",
U-Bhf. Kochstr.,autobus,A75,1965834_west,"52.50669824,13.39050322",
Oranienstr. Ecke Kochstr.,autobus,A75,1965835_west,"52.50709133,13.39827714",
U-Bhf. Moritzplatz,autobus,A75,1965836_west,"52.50366900,13.41055755",
Spreewaldplatz,autobus,A75,1965837_west,"52.49746663,13.43173833",
Sonnenallee Ecke Pannierstr.,autobus,A75,1965838_west,"52.48609620,13.43021786",
Hermannplatz,autobus,A75,1965839_west,"52.48778873,13.42539348",
Blohmstr. Ecke Wünsdorferstr.,autobus,A76,1965840_west,"52.38867997,13.39435043",
Bahnhofstr. Ecke Prinzesssinnenstr.,autobus,A76,1965841_west,"52.38668922,13.39674308",
Marienfelderstr. Ecke Lichtenraderdamm,autobus,A76,1965842_west,"52.39246195,13.40672267",
Tauernallee Ecke Mariendorferdamm,autobus,A76,1965843_west,"52.42332668,13.39618311",
"Rennbahn, Mariendorferdamm",autobus,A76,1965844_west,"52.43151989,13.39150823",
Alt-Mariendorf Ecke Mariendorferdamm,autobus,A76,1965845_west,"52.44016815,13.38721341",
Kaiserstr. Ecke Mariendorferdamm,autobus,A76,1965846_west,"52.44556286,13.38580057",
Burgemeisterstr. Ecke Tempelhoferdamm,autobus,A76,1965847_west,"52.45702094,13.38394001",
Alt-Tempelhof Ecke Tempelhoferdamm,autobus,A76,1965848_west,"52.46601300,13.38558828",
U-Bhf. Tempelhof,autobus,A76,1965849_west,"52.46987510,13.38558706",
Thuyring Ecke Tempelhoferdamm,autobus,A76,1965850_west,"52.47485480,13.38574214",
Bayernring Ecke Tempelhoferdamm,autobus,A76,1965851_west,"52.48160551,13.38587377",
Platz der Luftbrücke,autobus,A76,1965852_west,"52.48500811,13.38598451",
"Marienfelde, Daimlerstr.",autobus,A77,1965853_west,"52.42310029,13.38271915",
Großbeerenstr. Ecke Daimlerstr.,autobus,A77,1965854_west,"52.42632723,13.37438167",
Körtingstr. Ecke Großbeerenstr.,autobus,A77,1965855_west,"52.43481353,13.37831564",
Mariendorferdamm Ecke Alt-Mariendorf,autobus,A77,1965856_west,"52.44016441,13.38732183",
Kaiserstr. Ecke Mariendorferdamm,autobus,A77,1965857_west,"52.44556286,13.38580057",
Markgrafenstr. Ecke Mariendorferdamm,autobus,A77,1965858_west,"52.45018182,13.38492769",
Burgemeisterstr. Ecke Tempelhoferdamm,autobus,A77,1965859_west,"52.45702094,13.38394001",
Rathaus Tempelhof,autobus,A77,1965860_west,"52.46300094,13.38534224",
Alt-Tempelhof Ecke Tempelhoferdamm,autobus,A77,1965861_west,"52.46601300,13.38558828",
U-Bhf. Tempelhof,autobus,A77,1965862_west,"52.46987510,13.38558706",
Thuyring Ecke Tempelhoferdamm,autobus,A77,1965863_west,"52.47485480,13.38574214",
Paradestr. Ecke Tempelhoferdamm,autobus,A77,1965864_west,"52.47819508,13.38582477",
Bayernring Ecke Tempelhoferdamm,autobus,A77,1965865_west,"52.48160551,13.38587377",
Platz der Luftbrücke,autobus,A77,1965866_west,"52.48500811,13.38598451",
Tropfsteinweg Ecke Quarzweg,autobus,A78,1965867_west,"52.42357623,13.41467087",
Tauernallee Ecke Quarzweg,autobus,A78,1965868_west,"52.42788188,13.40510195",
Mariendorferdamm Ecke Tauernallee,autobus,A78,1965869_west,"52.42330592,13.39614258",
Rennbahn,autobus,A78,1965870_west,"52.43151989,13.39150823",
Alt-Mariendorf Ecke Mariendorferdamm,autobus,A78,1965871_west,"52.44016815,13.38721341",
Kaiserstr. Ecke Mariendorferdamm,autobus,A78,1965872_west,"52.44556286,13.38580057",
Burgemeisterstr. Ecke Tempelhoferdamm,autobus,A78,1965873_west,"52.45702094,13.38394001",
Alt-Tempelhof Ecke Tempelhoferdamm,autobus,A78,1965874_west,"52.46601300,13.38558828",
U-Bhf. Tempelhof,autobus,A78,1965875_west,"52.46987510,13.38558706",
Thuyring Ecke Tempelhoferdamm,autobus,A78,1965876_west,"52.47485480,13.38574214",
Bayernring Ecke Tempelhoferdamm,autobus,A78,1965877_west,"52.48160551,13.38587377",
Platz der Luftbrücke,autobus,A78,1965878_west,"52.48500811,13.38598451",
U-Bhf. Leopoldplatz,autobus,A79,1965879_west,"52.54639075,13.35913321",
Reinickendorferstr. Ecke Schulstr.,autobus,A79,1965880_west,"52.55156918,13.36734986",
Osloerstr. Ecke Schwedenstr.,autobus,A79,1965881_west,"52.55665602,13.37386300",
Pankowerallee Ecke Residenzstr.,autobus,A79,1965882_west,"52.56384896,13.36424475",
Pankowerallee Ecke Reginhardstr.,autobus,A79,1965883_west,"52.56432609,13.37350010",
Hausotterstr. Ecke Reginhardstr.,autobus,A79,1965884_west,"52.56824258,13.37256899",
Büdnerring Ecke Emmentalerstr.,autobus,A79,1965885_west,"52.57363649,13.36780545",
Somerstr. Ecke Klemkestr.,autobus,A79,1965886_west,"52.57476725,13.37353054",
Breitestr. Ecke Marktstr.,autobus,A80,1965887_west,"52.53688328,13.20531643",
Rathaus Spandau,autobus,A80,1965888_west,"52.53457836,13.19949094",
Nauenerstr. Ecke Brunsbüttelerdamm,autobus,A80,1965889_west,"52.53406507,13.18169672",
Egelpfuhlstr. Ecke Brunsbüttelerdamm,autobus,A80,1965890_west,"52.53353493,13.16940853",
Magistratsweg Ecke Brunsbüttelerdamm,autobus,A80,1965891_west,"52.53310161,13.15797587",
Nennhauserdamm Ecke Brunsbüttelerdamm,autobus,A80,1965892_west,"52.53251629,13.14156536",
Bhf. Zoo,autobus,A81,1965893_west,"52.50702953,13.33322012",
U-Bhf. Spichernstr.,autobus,A81,1965894_west,"52.49666209,13.33063500","nan, nan"
Berlinerstr. Ecke Bundesallee,autobus,A81,1965895_west,"52.48732427,13.33091399",
Bundesplatz,autobus,A81,1965896_west,"52.47867899,13.32860278",
Friedrich-Wilhelm-Platz,autobus,A81,1965897_west,"52.47128806,13.32836213",
Schloßstr. Ecke Feuerbachstr.,autobus,A81,1965898_west,"52.46311733,13.32672483",
Feuerbachstr. Ecke Bismarckstr.,autobus,A81,1965899_west,"52.46451344,13.33892787",
Steglitzerdamm Ecke Bismarckstr.,autobus,A81,1965900_west,"52.45108585,13.33790127",
Leonorenstr. Ecke Siemensstr.,autobus,A81,1965901_west,"52.44438058,13.33887527",
"Lankwitz, Kirche",autobus,A81,1965902_west,"52.43629187,13.34574539",
Alt-Lankwitz Dorfaue,autobus,A81,1965903_west,"52.43908383,13.35441775",
Mariendorferdamm Ecke Alt-Mariendorf,autobus,A81,1965904_west,"52.44016441,13.38732183",
Imbrosweg Ecke Rixdorferstr.,autobus,A81,1965905_west,"52.44350787,13.39864167",
Dardanellenweg Ecke Rixdorferstr.,autobus,A81,1965906_west,"52.44495402,13.40008867",
Nettelbeckplatz,autobus,A83,1965907_west,"52.54464512,13.37015454",
Weddingplatz,autobus,A83,1965908_west,"52.54113612,13.36850103",
Heidestr. Ecke Fennstr.,autobus,A83,1965909_west,"52.53731772,13.36029323",
Washingtonplatz,autobus,A83,1965910_west,"52.52421576,13.37059958",
Potsdamerstr. Ecke Neue Verbindungsstr.,autobus,A83,1965911_west,"52.50917801,13.37176335",
Reichpietsch Ufer Ecke Potsdamerstr.,autobus,A83,1965912_west,"52.50626666,13.36847203",
Schöneberger Ufer Ecke Potsdamerstr.,autobus,A83,1965913_west,"52.50582420,13.36822756",
Lützowstr. Ecke Potsdamerstr.,autobus,A83,1965914_west,"52.50309427,13.36566995",
Bülowstr. Ecke Potsdamerstr.,autobus,A83,1965915_west,"52.49780937,13.36202312",
Pallasstr. Ecke Potsdamerstr.,autobus,A83,1965916_west,"52.49433810,13.36106238",
Kaiser-Wilhelm-Platz,autobus,A83,1965917_west,"52.48632925,13.35655627",
Dominicusstr. Ecke Hauptstr.,autobus,A83,1965918_west,"52.48180072,13.34837800",
Martin-Luther-Str. Ecke Hauptstr.,autobus,A83,1965919_west,"52.47919735,13.34495863",
Innsbruckerplatz,autobus,A83,1965920_west,"52.47854551,13.34405869",
"Grazerplatz, Rubensstr.",autobus,A83,1965921_west,"52.46714419,13.34418649",
Bergstr. Ecke Thorwaldsenstr.,autobus,A83,1965922_west,"52.45916615,13.34768499",
Steglitzerdamm Ecke Munsterdamm,autobus,A83,1965923_west,"52.45000608,13.34672706",
Albrechtstr. Ecke Siemensstr.,autobus,A83,1965924_west,"52.44697413,13.34238318",
Leonorenstr. Ecke Siemensstr.,autobus,A83,1965925_west,"52.44438058,13.33887527",
"Lankwitz, Kirche",autobus,A83,1965926_west,"52.43629187,13.34574539",
Malteserstr. Ecke Paul-Schneiderstr.,autobus,A83,1965927_west,"52.43337314,13.35303713",
Preysingstresse Ecke Malteserstr.,autobus,A83,1965928_west,"52.42459385,13.35671085",
Belßstr. Ecke Wichurastr.,autobus,A83,1965929_west,"52.42825963,13.36268315",
Ringstr. Ecke Pestalozzistr.,autobus,A84,1965930_west,"52.43272276,13.28707174",
Kadettenweg Ecke Finckensteinallee,autobus,A84,1965931_west,"52.43244907,13.29922143",
Wiesenbaude,autobus,A84,1965932_west,"52.43049524,13.31180861",
Krahmerstr. Ecke Hindenburgdamm,autobus,A84,1965933_west,"52.43785561,13.31567297",
Klingsorstr. Ecke Hindenburgerdamm,autobus,A84,1965934_west,"52.44312155,13.31569756",
Händelplatz,autobus,A84,1965935_west,"52.45066566,13.31587443",
Unter den Eichen Ecke Hindenburgdamm,autobus,A84,1965936_west,"52.45347005,13.31556961",
Schloßstr. Ecke Hindenburgerdamm,autobus,A84,1965937_west,"52.45350913,13.31567768",
"Rathaus Steglitz, Schloßstr.",autobus,A84,1965938_west,"52.45638642,13.32015874",
Florastr. Ecke Schloßstr.,autobus,A84,1965939_west,"52.46144282,13.32517793",
Bundesallee Ecke Rheinstr.,autobus,A84,1965940_west,"52.46493424,13.32843851",
Kaisereiche,autobus,A84,1965941_west,"52.46896806,13.33261489",
Innsbruckerplatz,autobus,A84,1965942_west,"52.47854551,13.34405869",
Martin-Luther-Str. Ecke Hauptstr.,autobus,A84,1965943_west,"52.47919735,13.34495863",
Dominicusstr. Ecke Hauptstr.,autobus,A84,1965944_west,"52.48180072,13.34837800",
Kaiser-Wilhelm-Platz,autobus,A84,1965945_west,"52.48632925,13.35655627",
Gotenstr. Ecke Torgauerstr.,autobus,A84,1965946_west,"52.47978047,13.36019236",
"Bhf. Zoo, Hardenbergplatz",autobus,A85,1965947_west,"52.50696177,13.33308096",
Wittenbergplatz,autobus,A85,1965948_west,"52.50188939,13.34269788",
Motzstr. Ecke Martin-Luther-Str.,autobus,A85,1965949_west,"52.49712618,13.34610186",
Grunewaldstr. Ecke Martin-Luther-Str.,autobus,A85,1965950_west,"52.48905218,13.34501538",
Bayerischerplatz,autobus,A85,1965951_west,"52.48833333,13.34027778",Q668574
Bundesallee Ecke Berlinerstr.,autobus,A85,1965952_west,"52.48732558,13.33098413",
Hildegardstr. Ecke Bundesallee,autobus,A85,1965953_west,"52.48165724,13.32942778",
Bundesplatz,autobus,A85,1965954_west,"52.47867899,13.32860278",
Friedrich-Wilhelm-Platz,autobus,A85,1965955_west,"52.47128806,13.32836213",
Schloßstr. Ecke Bundesallee,autobus,A85,1965956_west,"52.46494077,13.32851361",
Schildhornstr. Ecke Schoßstr.,autobus,A85,1965957_west,"52.46148081,13.32506744",
Rathaus Steglitz,autobus,A85,1965958_west,"52.45563378,13.32105078",
Hindenburgdamm Ecke Schloßstr.,autobus,A85,1965959_west,"52.45348338,13.31557093",
Händelplatz,autobus,A85,1965960_west,"52.45066566,13.31587443",
Moltkestr. Ecke Gardeschützenweg,autobus,A85,1965961_west,"52.44677332,13.30673860",
Drakestr. Ecke Gardeschützenweg,autobus,A85,1965962_west,"52.44269018,13.29700526",
Rittberg-Krankenhaus,autobus,A85,1965963_west,"52.42987952,13.28896146",
Thunerplatz,autobus,A85,1965964_west,"52.42375897,13.29618487",
Goerzallee Ecke Wismarerstr.,autobus,A85,1965965_west,"52.42197343,13.29844428",
Ostpreußendamm Ecke Wismarerstr.,autobus,A85,1965966_west,"52.41787023,13.30519617",
Holtheimerweg Ecke Wormbacherweg,autobus,A85,1965967_west,"52.40993905,13.30336414",
Invalidenstr. (Sektorengrenze),autobus,A86,1965968_west,"52.52731343,13.37206043",
Rathenowerstr. Ecke Alt-Moabit,autobus,A86,1965969_west,"52.52363005,13.35684871",
Stromstr. Ecke Alt-Moabit,autobus,A86,1965970_west,"52.52539702,13.34278622",
Gotzkowskystr. Ecke Alt-Moabit,autobus,A86,1965971_west,"52.52381416,13.32973099",
Helmholtzstr. Ecke Franklinstr.,autobus,A86,1965972_west,"52.52234318,13.32844863",
Ernst-Reuter-Platz,autobus,A86,1965973_west,"52.51159182,13.32257153",
Cauerstr. Ecke Otto-Suhr-Allee,autobus,A86,1965974_west,"52.51469847,13.31523032",
Richard-Wagner-Platz,autobus,A86,1965975_west,"52.51749099,13.30639710",
Kantstr. Ecke Wilmersdorferstr.,autobus,A86,1965976_west,"52.50670639,13.30668035",
Kurfürstendamm Ecke Brandenburgischestr.,autobus,A86,1965977_west,"52.50002234,13.30701910",
Konstanzerstr. Ecke Brandenburgischestr.,autobus,A86,1965978_west,"52.49354591,13.31007243",
Fehrbellinerplatz,autobus,A86,1965979_west,"52.49040639,13.31420422",
Berlinerstr. Ecke Blissestr.,autobus,A86,1965980_west,"52.48650431,13.32037437",
Blissestr. Ecke Mecklenburgischestr.,autobus,A86,1965981_west,"52.48368070,13.32024441",
Hildegardstr. Ecke Bundesallee,autobus,A86,1965982_west,"52.48165724,13.32942778",
Bundesplatz,autobus,A86,1965983_west,"52.47867899,13.32860278",
Friedrich-Wilhelm-Platz,autobus,A86,1965984_west,"52.47128806,13.32836213",
Schloßstr. Ecke Bundesallee,autobus,A86,1965985_west,"52.46494077,13.32851361",
Schildhornstr. Ecke Schloßstr.,autobus,A86,1965986_west,"52.46147802,13.32512191",
"Rathaus Steglitz, Schloßstr.",autobus,A86,1965987_west,"52.45638642,13.32015874",
Hindenburgdamm Ecke Schloßstr.,autobus,A86,1965988_west,"52.45348338,13.31557093",
Gardeschützenweg Ecke Hindenburgdamm,autobus,A86,1965989_west,"52.44961307,13.31533099",
Klingsorstr. Ecke Birkbuschstr.,autobus,A86,1965990_west,"52.44752909,13.32632316",
Birkbuschstr. Ecke Siemensstr.,autobus,A86,1965991_west,"52.44243904,13.33208217",
Richard-Wagner-Platz,autobus,A87,1965992_west,"52.51749099,13.30639710",
Wilmersdorferstr. Ecke Otto-Suhr-Allee,autobus,A87,1965993_west,"52.51811241,13.30443482",
"Luisenplatz, Spandauerdamm",autobus,A87,1965994_west,"52.51959199,13.29891202",
Schloßstr. Ecke Spandauerdamm,autobus,A87,1965995_west,"52.51945635,13.29594131",
Sophie-Charlotten-Str. Ecke Spandauerdamm,autobus,A87,1965996_west,"52.51877597,13.28665640",
Pulsstr. Ecke Sophie-Charlotten-Str.,autobus,A87,1965997_west,"52.52421632,13.28505878",
U-Bhf. Kaiserdamm,autobus,A88,1965998_west,"52.50999451,13.28180313",
Neue-Kantstr. Ecke Messedamm,autobus,A88,1965999_west,"52.50645040,13.28034752",
Halenseestr. Ecke Messedamm,autobus,A88,19651000_west,"52.50358004,13.27899377",
Deutschland-Halle,autobus,A88,19651001_west,"52.49876605,13.27206768",
Eichkamp (Alteallee),autobus,A88,19651002_west,"52.49184466,13.26343585",
Bornholmer Brücke (Sektorengrenze),autobus,A89,19651003_west,"52.55474925,13.39756390",
Prinzenallee Ecke Osloerstr.,autobus,A89,19651004_west,"52.55595531,13.38435069",
Koloniestr. Ecke Osloerstr.,autobus,A89,19651005_west,"52.55645881,13.37766712",
Schwedenstr. Ecke Osloerstr.,autobus,A89,19651006_west,"52.55674734,13.37371279",
Reinickendorferstr. Ecke Osloerstr.,autobus,A89,19651007_west,"52.55695941,13.36559908",
U-Bhf. Seestr.,autobus,A89,19651008_west,"52.55031541,13.35229850",
Afrikanischestr. Ecke Seestr.,autobus,A89,19651009_west,"52.54623694,13.34393083",
Saatwinklerdamm/Beusselstr.,autobus,A89,19651010_west,"52.53817455,13.32617083",
Beusselstr. Ecke Sickingenstr.,autobus,A89,19651011_west,"52.53296894,13.32844750",
Huttenstr. Ecke Beusselstr.,autobus,A89,19651012_west,"52.52740013,13.32867332",
Huttenstr. Ecke Wiebestr.,autobus,A89,19651013_west,"52.52837370,13.31943360",
Wiebestr. Ecke Kaiserin-Augusta-Allee,autobus,A89,19651014_west,"52.52580214,13.31797917",
Tauroggenerstr. Ecke Osnabrückerstr.,autobus,A89,19651015_west,"52.52585108,13.30194744",
Luisenplatz,autobus,A89,19651016_west,"52.52005409,13.29951339",
Otto-Suhr-Allee Ecke Wilmersdorferstr.,autobus,A89,19651017_west,"52.51807977,13.30444555",
Kantstr. Ecke Wilmersdorferstr.,autobus,A89,19651018_west,"52.50670639,13.30668035",
Kurfürstendamm Ecke Wilmersdorferstr.,autobus,A89,19651019_west,"52.50001126,13.30714351",
Konstanzerstr. Ecke Brandenburgischestr.,autobus,A89,19651020_west,"52.49354591,13.31007243",
U-Bhf. Fehrbellinerplatz,autobus,A89,19651021_west,"52.49039093,13.31417746",
Blissestr. Ecke Brandenburgischestr.,autobus,A89,19651022_west,"52.48651073,13.32032803",
Uhlandstr. Ecke Berlinerstr.,autobus,A89,19651023_west,"52.48648130,13.32250148",
Bundesallee Ecke Berlinerstr.,autobus,A89,19651024_west,"52.48732558,13.33098413",
Bayerischerplatz,autobus,A89,19651025_west,"52.48833333,13.34027778",Q668574
Martin-Luther-Str. Ecke Grunewaldstr.,autobus,A89,19651026_west,"52.48910174,13.34492201",
Potsdamerstr. Ecke Pallasstr.,autobus,A89,19651027_west,"52.49431875,13.36100643",
Kulmerstr. Ecke Goebenstr.,autobus,A89,19651028_west,"52.49358859,13.36586990",
Großbeerenstr. Ecke Yorckstr.,autobus,A89,19651029_west,"52.49368808,13.38355154",
Mehringdamm Ecke Yorckstr.,autobus,A89,19651030_west,"52.49291007,13.38769433",
U-Bhf. Gneisenaustr.,autobus,A89,19651031_west,"52.49122659,13.39632791",
Zossenerstr. Ecke Blücherstr.,autobus,A89,19651032_west,"52.49623241,13.39508019",
Mehringplatz,autobus,A89,19651033_west,"52.49827538,13.39190927",
"Bhf. Zoo, Hardenbergplatz",autobus,A90,19651034_west,"52.50696177,13.33308096",
Ernst-Reuter-Platz,autobus,A90,19651035_west,"52.51159182,13.32257153",
Helmholtzstr. Ecke Franklinstr.,autobus,A90,19651036_west,"52.52234318,13.32844863",
Alt-Moabit Ecke Gotzkowskystr.,autobus,A90,19651037_west,"52.52377876,13.32973510","nan, nan"
"U-Bhf. Turmstr., Alt-Moabit",autobus,A90,19651038_west,"52.52562203,13.34119684",
Kirchstr. Ecke Alt-Moabit,autobus,A90,19651039_west,"52.52454036,13.34955441",
Rathenowerstr. Ecke Alt-Moabit,autobus,A90,19651040_west,"52.52363005,13.35684871",
Turmstr. Ecke Rathenowerstr.,autobus,A90,19651041_west,"52.52677327,13.35526322",
Perlebergerstr. Ecke Rathenowerstr.,autobus,A90,19651042_west,"52.53251179,13.35056076",
Am Nordhafen,autobus,A90,19651043_west,"52.53868316,13.36324841",
Weddingplatz,autobus,A90,19651044_west,"52.54113612,13.36850103",
Gartenstr. & Grenzstr.,autobus,A90,19651045_west,"52.54181102,13.37807511",
Wattstr. Ecke Usedomerstr.,autobus,A90,19651046_west,"52.54025184,13.39064471",
Vinetaplatz,autobus,A90,19651047_west,"52.54113780,13.39842130",
U-Bhf. Leinestr.,autobus,A91,19651048_west,"52.47263483,13.42855206",
Siegfriedstr. Ecke Hermannstr.,autobus,A91,19651049_west,"52.46787567,13.43109511",
Mariendorferweg Ecke Hermannstr.,autobus,A91,19651050_west,"52.46469159,13.43289078",
Germaniapromenade Ecke Britzerdamm,autobus,A91,19651051_west,"52.46087492,13.43504314",
Franz-Körnerstr. Ecke Britzerdamm,autobus,A91,19651052_west,"52.45591015,13.43724797",
Gradestr. Ecke Britzerdamm,autobus,A91,19651053_west,"52.45265737,13.43851513",
Tempelhoferweg Ecke Britzerdamm,autobus,A91,19651054_west,"52.44894820,13.43619608",
Mohrinerallee Ecke Buckowerdamm,autobus,A91,19651055_west,"52.44415812,13.43354138",
Gutschmidtstr. Ecke Buckowerdamm,autobus,A91,19651056_west,"52.44037172,13.43478719",
Schlosserweg Ecke Buckowerdamm,autobus,A91,19651057_west,"52.43931812,13.43486911",
Zimmererweg Ecke Buckowerdamm,autobus,A91,19651058_west,"52.43530943,13.43512496",
Dachdeckerweg Ecke Buckowerdamm,autobus,A91,19651059_west,"52.43209036,13.43515188",
Parkfriedhof Neukölln,autobus,A91,19651060_west,"52.42837472,13.43500150",
Alt-Buckow Ecke Buckowerdamm,autobus,A91,19651061_west,"52.42365120,13.43663595",
Machandelweg,autobus,A92,19651062_west,"52.52483520,13.24567178",
U-Bhf. Ruhleben,autobus,A92,19651063_west,"52.52596833,13.24147858",
Grunewaldstr. Ecke Ruhlebenerstr.,autobus,A92,19651064_west,"52.53017273,13.20468457",
Klosterstr. Ecke Ruhlebenerstr.,autobus,A92,19651065_west,"52.53291424,13.19844858",
Seeburgerstr. Ecke Klosterstr.,autobus,A92,19651066_west,"52.52914199,13.19558478",
Schmidt-Knobelsdorf-Str. Ecke Wilhelmstr.,autobus,A92,19651067_west,"52.52167175,13.18891981",
Wilhelmstr./Heerstr.,autobus,A92,19651068_west,"52.51662276,13.17904272",
Reimerweg Ecke Heerstr.,autobus,A92,19651069_west,"52.52184204,13.15430702",
"Rudow, Waßmannsdorferchaussee Ecke Groß Ziethenerchaussee",autobus,A93,19651070_west,"52.41526753,13.49553224",
Eichenauerweg Ecke Waßmannsdorferchaussee,autobus,A93,19651071_west,"52.41260921,13.49510452",
Lockenhuhnweg Ecke Waßmannsdorferchaussee,autobus,A93,19651072_west,"52.40834716,13.49244876",
Geflügelsteig Ecke Waßmannsdorferchaussee,autobus,A93,19651073_west,"52.40508366,13.49066251",
Klein-Ziethenerweg Ecke Geflügelsteig,autobus,A93,19651074_west,"52.40710730,13.48484559",
Lakenfelderweg Ecke Geflügelsteig,autobus,A93,19651075_west,"52.40828415,13.48211785",
Groß Ziethenerchaussee Ecke Geflügelsteig,autobus,A93,19651076_west,"52.41047365,13.47942642",
Pirnaerstr. Ecke Groß Ziethenerchaussee,autobus,A93,19651077_west,"52.41190291,13.48372425",
Kolonie Ewige Heimat,autobus,A93,19651078_west,"52.41342548,13.48968439",
Waßmannsdorferchaussee Ecke Groß Ziethenerchaussee,autobus,A93,19651079_west,"52.41525444,13.49553224",
Mehringplatz,autobus,A95,19651080_west,"52.49827538,13.39190927",
Zossenerstr. Ecke Blücherstr.,autobus,A95,19651081_west,"52.49623241,13.39508019",
Baerwaldstr. Ecke Urbanstr.,autobus,A95,19651082_west,"52.49389984,13.40346009",
Urban-Krankenhaus,autobus,A95,19651083_west,"52.49346936,13.40624512",
"Hermannplatz, Sonnenallee",autobus,A95,19651084_west,"52.48787819,13.42530729",
Pannierstr. Ecke Sonnenallee,autobus,A95,19651085_west,"52.48611601,13.43027163",
Erkstr. Ecke Sonnenallee,autobus,A95,19651086_west,"52.48167374,13.44011151",
Hertzbergplatz,autobus,A95,19651087_west,"52.47754135,13.44849300",
Saalestr. Ecke Sonnenallee,autobus,A95,19651088_west,"52.47386410,13.45587793",
Dammweg Ecke Sonnenallee,autobus,A95,19651089_west,"52.47025948,13.46464808",
Schulenburgpark,autobus,A95,19651090_west,"52.46654457,13.47034123",
Schwarzerweg Ecke Sonnenallee,autobus,A95,19651091_west,"52.46241684,13.47666100",
Brunnenstr. Ecke Lortzingstr.,autobus,A99,19651092_west,"52.54254624,13.39272812",
U-Bhf. Gesundbrunnen,autobus,A99,19651093_west,"52.54947942,13.38652401",
Badstr. Ecke Pankstr.,autobus,A99,19651094_west,"52.55228518,13.38146632",
"Brunnenplatz, Pankstr.",autobus,A99,19651095_west,"52.54974599,13.37737049",
Nettelbeckplatz,autobus,A99,19651096_west,"52.54464512,13.37015454",
Tegelerstr. Ecke Fennstr.,autobus,A99,19651097_west,"52.53790109,13.36161851",
Rathenowerstr. Ecke Quitzowstr.,autobus,A99,19651098_west,"52.53509388,13.34967453",
Unionplatz,autobus,A99,19651099_west,"52.53305940,13.33727881",
Saatwinklerdamm/Beusselstr.,autobus,A99,19651100_west,"52.53817455,13.32617083",
Jakob-Kaiser-Platz,autobus,A99,19651101_west,"52.53673970,13.29360488",
Wernerwerk,autobus,A99,19651102_west,"52.53562700,13.27537088",
Quellweg Ecke Nonnendammallee,autobus,A99,19651103_west,"52.53666858,13.26843643",
Paulsternstr. Ecke Nonnendammallee,autobus,A99,19651104_west,"52.53814656,13.24775542",
Gartenfelderstr. Ecke Nonnendammallee,autobus,A99,19651105_west,"52.53921965,13.23193032",
Carl-Schurz-Str. Ecke Am Juliusturm,autobus,A99,19651106_west,"52.53954502,13.20555083",
Breitestr. Ecke Charlottenstr.,autobus,A99,19651107_west,"52.53613955,13.20442990",
Rathaus Spandau,autobus,A99,19651108_west,"52.53457836,13.19949094",
Hochgerichtstr. Ecke Seegefelderstr.,autobus,A99,19651109_west,"52.53843535,13.18239370",
Germesheimerplatz,autobus,A99,19651110_west,"52.54456786,13.18701195",
Bhf. Zoo,autobus,AS1,19651111_west,"52.50702953,13.33322012",
Ernst-Reuter-Platz,autobus,AS1,19651112_west,"52.51159182,13.32257153",
Cauerstr. Ecke Otto-Suhr-Allee,autobus,AS1,19651113_west,"52.51469847,13.31523032",
Richard-Wagner-Platz,autobus,AS1,19651114_west,"52.51749099,13.30639710",
Luisenplatz,autobus,AS1,19651115_west,"52.52005409,13.29951339",
Fürstenbrunnerweg Ecke Spandauerdamm,autobus,AS1,19651116_west,"52.51842262,13.28011647",
Kirschenallee Ecke Spandauerdamm,autobus,AS1,19651117_west,"52.52037881,13.26719193",
Schloß Ruhwald,autobus,AS1,19651118_west,"52.52160458,13.26039687",
U-Bhf. Ruhleben,autobus,AS1,19651119_west,"52.52596833,13.24147858",
Teltowerstr. Ecke Ruhlebenerstr.,autobus,AS1,19651120_west,"52.52691598,13.21592513",
Rathaus Spandau,autobus,AS1,19651121_west,"52.53457836,13.19949094",
Hafenplatz,autobus,AS1,19651122_west,"52.50392084,13.37547988",
Lynarstr. Ecke Neuendorferstr.,autobus,AS1,19651123_west,"52.54898690,13.21020961",
Klinkeplatz,autobus,AS1,19651124_west,"52.55555146,13.19854978",
Hohenzollernring,autobus,AS1,19651125_west,"52.55534807,13.19865762",
Bhf. Zoo,autobus,AS2,19651126_west,"52.50702953,13.33322012",
Kurfürstendamm Ecke Joachimthalerstr.,autobus,AS2,19651127_west,"52.50381681,13.33133158",
Rankeplatz,autobus,AS2,19651128_west,"52.50042978,13.33086733",
Hohenzollerndamm Ecke Bundesallee,autobus,AS2,19651129_west,"52.49531823,13.33073029",
Trautenaustr. Ecke Bundesallee,autobus,AS2,19651130_west,"52.49316877,13.33084761",
Berlinerstr. Ecke Bundesallee,autobus,AS2,19651131_west,"52.48732427,13.33091399",
Hildegardstr. Ecke Bundesallee,autobus,AS2,19651132_west,"52.48165724,13.32942778",
Bundesplatz,autobus,AS2,19651133_west,"52.47867899,13.32860278",
Friedrich-Wilhelm-Platz,autobus,AS2,19651134_west,"52.47128806,13.32836213",
Schloßstr. Ecke Bundesallee,autobus,AS2,19651135_west,"52.46494077,13.32851361",
Canovastr. Ecke Thorwaldsenstr.,autobus,AS2,19651136_west,"52.46303228,13.34275862",
Attilaplatz,autobus,AS2,19651137_west,"52.45590180,13.37651250",
Mariendorferdamm Ecke Kaiserstr.,autobus,AS2,19651138_west,"52.44555364,13.38578300",
Alt-Mariendorf Ecke Mariendorferdamm,autobus,AS2,19651139_west,"52.44019477,13.38731753","nan, nan"
Tauernallee Ecke Mariendorferdamm,autobus,AS2,19651140_west,"52.42328224,13.39615754",
Buckowerchaussee Ecke Lichtenraderdamm,autobus,AS2,19651141_west,"52.41457113,13.40120395",
Goethestr. Ecke Lichtenraderdamm,autobus,AS2,19651142_west,"52.40441063,13.40618736",
Goltzstr. Ecke Lichtenraderdamm,autobus,AS2,19651143_west,"52.38741231,13.40969616",
Steinstr. Ecke Bahnhofstr.,autobus,AS2,19651144_west,"52.38670377,13.39856724",
Blohmstr. Ecke Wünsdorferstr.,autobus,AS2,19651145_west,"52.38867997,13.39435043",
Bhf. Zoo,autobus,AS3,19651146_west,"52.50702953,13.33322012",
Kurfürstendamm Ecke Joachimthalerstr.,autobus,AS3,19651147_west,"52.50381681,13.33133158",
Rankeplatz,autobus,AS3,19651148_west,"52.50042978,13.33086733",
U-Bhf. Spichernstr.,autobus,AS3,19651149_west,"52.49666209,13.33063500","nan, nan"
U-Bhf. Fehrbellinerplatz,autobus,AS3,19651150_west,"52.49039093,13.31417746",
Seesenerstr. Ecke Hohenzollerndamm,autobus,AS3,19651151_west,"52.48846116,13.30215002",
Elsterplatz,autobus,AS3,19651152_west,"52.47977983,13.28550761",
Roseneck,autobus,AS3,19651153_west,"52.47580090,13.28241127",
Pücklerstr. Ecke Clayallee,autobus,AS3,19651154_west,"52.46857085,13.27839710",
Königin-Luise-Str. Ecke Clayallee,autobus,AS3,19651155_west,"52.46048317,13.27487914",
U-Bhf. Oskar-Helene-Heim,autobus,AS3,19651156_west,"52.45027901,13.27036199",
Sundgauerstr. Ecke Clayallee,autobus,AS3,19651157_west,"52.44557392,13.26767122",
Winifriedstr. Ecke Clayallee,autobus,AS3,19651158_west,"52.43922923,13.26287138",
Clayallee Ecke Berlinerstr.,autobus,AS3,19651159_west,"52.43506128,13.26045832",
Rathaus Zehlendorf,autobus,AS3,19651160_west,"52.43320752,13.25953192",
Bhf. Zoo,autobus,AS4,19651161_west,"52.50702953,13.33322012",
Savignyplatz,autobus,AS4,19651162_west,"52.50585291,13.32187247",
Leibnizstr. Ecke Kantstr.,autobus,AS4,19651163_west,"52.50628812,13.31395372",
Wilmersdorferstr. Ecke Kantstr.,autobus,AS4,19651164_west,"52.50669450,13.30667544",
Amtsgericht,autobus,AS4,19651165_west,"52.50682618,13.29739145",
Wundtstr. Ecke Neue Kantstr.,autobus,AS4,19651166_west,"52.50644122,13.28374229",
Messedamm Ecke Neue Kantstr.,autobus,AS4,19651167_west,"52.50646481,13.28039967",
Spanischeallee Ecke Kronprinzessinnenweg,autobus,AS4,19651168_west,"52.43381203,13.18936731",
Bhf. Wannsee,autobus,AS4,19651169_west,"52.42151302,13.17810257",
Am Großen Wannsee Ecke Königstr.,autobus,AS4,19651170_west,"52.42050256,13.16717980",
Rathaus Wannsee,autobus,AS4,19651171_west,"52.41844013,13.14887249",
"Stölpchensee, Wilhelmplatz",autobus,AS4,19651172_west,"52.41240583,13.14164452",
Kladow,ferry,Kladow <> Wannsee,19651173_west,"52.45151499,13.14796194",
Wannsee,ferry,Kladow <> Wannsee,19651174_west,"52.42192802,13.17581596",
Gesundbrunnen,s-bahn,KBS 100,19651175_west,"52.54861111,13.38944444",Q111239092
Wedding,s-bahn,KBS 100,19651176_west,"52.54250000,13.36610000",Q638604
Putlitzstr.,s-bahn,KBS 100,19651177_west,"52.53600000,13.34400000",Q465972
Beusselstr.,s-bahn,KBS 100,19651178_west,"52.53444444,13.32916667",Q323219
Jungfernheide,s-bahn,KBS 100,19651179_west,"52.53035000,13.29943333",Q110977325
Westend,s-bahn,KBS 100,19651180_west,"52.51810000,13.28440000",Q323214
Witzleben,s-bahn,KBS 100,19651181_west,"52.50780000,13.28360000",Q321266
Westkreuz,s-bahn,KBS 100,19651182_west,"52.50110000,13.28390000",Q678125
Halensee,s-bahn,KBS 100,19651183_west,"52.49610000,13.29060000",Q800476
Hohenzollerndamm,s-bahn,KBS 100,19651184_west,"52.48850000,13.30040000",Q800503
Schmargendorf,s-bahn,KBS 100,19651185_west,"52.47967222,13.31244167",Q302810
Wilmersdorf,s-bahn,KBS 100,19651186_west,"52.47765833,13.32852500",Q464094
Innsbruckerplatz,s-bahn,KBS 100,19651187_west,"52.47860000,13.34390000",Q111263876
Schöneberg,s-bahn,KBS 100,19651188_west,"52.47940000,13.35170000",Q543855
Papestr.,s-bahn,KBS 100,19651189_west,"52.47560000,13.36440000",Q111323139
Tempelhof,s-bahn,KBS 100,19651190_west,"52.47080000,13.38540000",Q111264368
Hermannstr.,s-bahn,KBS 100,19651191_west,"52.46750000,13.43111111",Q111263802
Neukölln,s-bahn,KBS 100,19651192_west,"52.46916667,13.44166667",Q111325412
Sonnenallee,s-bahn,KBS 100,19651193_west,"52.47300000,13.45580000",Q481364
Gesundbrunnen,s-bahn,KBS 100a,19651194_west,"52.54861111,13.38944444",Q111239092
Wedding,s-bahn,KBS 100a,19651195_west,"52.54250000,13.36610000",Q638604
Putlitzstr.,s-bahn,KBS 100a,19651196_west,"52.53600000,13.34400000",Q465972
Beusselstr.,s-bahn,KBS 100a,19651197_west,"52.53444444,13.32916667",Q323219
Jungfernheide,s-bahn,KBS 100a,19651198_west,"52.53035000,13.29943333",Q110977325
Siemensstadt-Fürstenbrunn,s-bahn,KBS 100a,19651199_west,"52.52800000,13.26950000",Q18747940
Spandau,s-bahn,KBS 100a,19651200_west,"52.53200000,13.20890000",Q800491
Spandau West,s-bahn,KBS 100a,19651201_west,"52.53470000,13.19580000",Q111325678
Staaken,s-bahn,KBS 100a,19651202_west,"52.53780000,13.14140000",Q477545
Jungfernheide,s-bahn,KBS 100b,19651203_west,"52.53035000,13.29943333",Q110977325
Wernerwerk,s-bahn,KBS 100b,19651204_west,"52.53486300,13.27599000",Q96077001
Siemensstadt,s-bahn,KBS 100b,19651205_west,"52.53923000,13.26365000",Q96080453
Gartenfeld,s-bahn,KBS 100b,19651206_west,"52.54695000,13.24882000",Q96080469
Heiligensee,s-bahn,KBS 100c,19651207_west,"52.62470000,13.22920000",Q800475
Schulzendorf (b Tegel),s-bahn,KBS 100c,19651208_west,"52.61280000,13.24620000",Q800487
Tegel,s-bahn,KBS 100c,19651209_west,"52.58860000,13.28940000",Q800493
Eichbornstr.,s-bahn,KBS 100c,19651210_west,"52.57760000,13.31690000",Q800500
Wittenau (Kremmener Bahn),s-bahn,KBS 100c,19651211_west,"52.59701300,13.33432900",Q111264319
Reinickendorf,s-bahn,KBS 100c,19651212_west,"52.57790000,13.35060000",Q800496
Schönholz,s-bahn,KBS 100c,19651213_west,"52.57140000,13.38140000",Q800490
Wollankstr.,s-bahn,KBS 100c,19651214_west,"52.56515250,13.39236270",Q800515
Gesundbrunnen,s-bahn,KBS 100c,19651215_west,"52.54861111,13.38944444",Q111239092
Humboldthain,s-bahn,KBS 100c,19651216_west,"52.54510000,13.37960000",Q481276
Friedrichstr.,s-bahn,KBS 100c,19651217_west,"52.52027778,13.38694444",Q111219456
Anhalter Bahnhof,s-bahn,KBS 100c,19651218_west,"52.50305556,13.38194444",Q111324573
Yorckstr.,s-bahn,KBS 100c,19651219_west,"52.49177778,13.37214167",Q21776729
Papestr.,s-bahn,KBS 100c,19651220_west,"52.47560000,13.36440000",Q111323139
Priesterweg,s-bahn,KBS 100c,19651221_west,"52.46010000,13.35630000",Q800508
Mariendorf,s-bahn,KBS 100c,19651222_west,"52.44780000,13.36090000",Q800497
Marienfelde,s-bahn,KBS 100c,19651223_west,"52.42420000,13.37470000",Q800485
Buckower Ch.,s-bahn,KBS 100c,19651224_west,"52.41030000,13.38290000",Q800499
Lichtenrade,s-bahn,KBS 100c,19651225_west,"52.38760000,13.39630000",Q6543354
Gesundbrunnen,s-bahn,KBS 100d,19651226_west,"52.54861111,13.38944444",Q111239092
Humboldthain,s-bahn,KBS 100d,19651227_west,"52.54510000,13.37960000",Q481276
Friedrichstr.,s-bahn,KBS 100d,19651228_west,"52.52027778,13.38694444",Q111219456
Anhalter Bahnhof,s-bahn,KBS 100d,19651229_west,"52.50305556,13.38194444",Q111324573
Yorckstr.,s-bahn,KBS 100d,19651230_west,"52.49177778,13.37214167",Q21776729
Papestr.,s-bahn,KBS 100d,19651231_west,"52.47560000,13.36440000",Q111323139
Priesterweg,s-bahn,KBS 100d,19651232_west,"52.46010000,13.35630000",Q800508
Südende,s-bahn,KBS 100d,19651233_west,"52.44810000,13.35360000",Q800511
Lankwitz,s-bahn,KBS 100d,19651234_west,"52.43860000,13.34170000",Q800481
Lichterfelde Ost,s-bahn,KBS 100d,19651235_west,"52.43000000,13.32890000",Q111311299
Lichterfelde Süd,s-bahn,KBS 100d,19651236_west,"52.41000000,13.30860000",Q800482
Frohnau,s-bahn,KBS 100e,19651237_west,"52.63250000,13.29020000",Q800472
Hermsdorf,s-bahn,KBS 100e,19651238_west,"52.61780000,13.30690000",Q263189
Waidmannslust,s-bahn,KBS 100e,19651239_west,"52.60640000,13.32100000",Q800492
Wittenau (Nordbahn),s-bahn,KBS 100e,19651240_west,"52.59701300,13.33432900",Q111264319
Wilhelmsruh,s-bahn,KBS 100e,19651241_west,"52.58140000,13.36310000",Q800495
Schönholz,s-bahn,KBS 100e,19651242_west,"52.57140000,13.38140000",Q800490
Wollankstr.,s-bahn,KBS 100e,19651243_west,"52.56515250,13.39236270",Q800515
Gesundbrunnen,s-bahn,KBS 100e,19651244_west,"52.54861111,13.38944444",Q111239092
Humboldthain,s-bahn,KBS 100e,19651245_west,"52.54510000,13.37960000",Q481276
Friedrichstr.,s-bahn,KBS 100e,19651246_west,"52.52027778,13.38694444",Q111219456
Anhalter Bahnhof,s-bahn,KBS 100e,19651247_west,"52.50305556,13.38194444",Q111324573
Großgörschenstr.,s-bahn,KBS 100e,19651248_west,"52.49227450,13.36785880",Q21776726
Schöneberg,s-bahn,KBS 100e,19651249_west,"52.47940000,13.35170000",Q543855
Friedenau,s-bahn,KBS 100e,19651250_west,"52.47000000,13.34100000",Q800471
Feuerbachstr.,s-bahn,KBS 100e,19651251_west,"52.46361111,13.33277778",Q800501
Steglitz,s-bahn,KBS 100e,19651252_west,"52.45620000,13.32160000",Q111264179
Botanischer Garten,s-bahn,KBS 100e,19651253_west,"52.44806000,13.30722000",Q800498
Lichterfelde West,s-bahn,KBS 100e,19651254_west,"52.44330000,13.29470000",Q111327103
Sundgauer Str.,s-bahn,KBS 100e,19651255_west,"52.43629100,13.27377200",Q800513
Zehlendorf,s-bahn,KBS 100e,19651256_west,"52.43090000,13.25840000",Q737962
Lindenthalerallee,s-bahn,KBS 100e,19651257_west,"52.43750000,13.23250000",Q315891
Schlachtensee,s-bahn,KBS 100e,19651258_west,"52.44010000,13.21530000",Q800509
Nikolassee,s-bahn,KBS 100e,19651259_west,"52.43170000,13.19330000",Q637052
Wannsee,s-bahn,KBS 100e,19651260_west,"52.42140000,13.17920000",Q111325896
Zehlendorf,s-bahn,KBS 100f,19651261_west,"52.43090000,13.25840000",Q737962
Düppel-Kleinmachnow,s-bahn,KBS 100f,19651262_west,"52.42138889,13.22666667",Q44763529
Friedrichstr.,s-bahn,KBS 100g,19651263_west,"52.52027778,13.38694444",Q111219456
Lehrter Stadtbahnhof,s-bahn,KBS 100g,19651264_west,"52.52530000,13.36940000",Q821299
Bellevue,s-bahn,KBS 100g,19651265_west,"52.52000000,13.34805556",Q374018
Tiergarten,s-bahn,KBS 100g,19651266_west,"52.51440000,13.33650000",Q572112
Zoologischer Garten,s-bahn,KBS 100g,19651267_west,"52.50722222,13.33250000",Q111326238
Savignyplatz,s-bahn,KBS 100g,19651268_west,"52.50517460,13.31906590",Q554382
Charlottenburg,s-bahn,KBS 100g,19651269_west,"52.50472222,13.30333333",Q111326217
Westkreuz,s-bahn,KBS 100g,19651270_west,"52.50110000,13.28390000",Q678125
Eichkamp,s-bahn,KBS 100g,19651271_west,"52.49870000,13.27020000",Q800504
Heerstr.,s-bahn,KBS 100g,19651272_west,"52.50860000,13.25860000",Q800502
Olympiastadion,s-bahn,KBS 100g,19651273_west,"52.51100000,13.24160000",Q800506
Pichelsberg,s-bahn,KBS 100g,19651274_west,"52.51030000,13.22710000",Q800488
Spandau,s-bahn,KBS 100g,19651275_west,"52.53200000,13.20890000",Q800491
Spandau West,s-bahn,KBS 100g,19651276_west,"52.53470000,13.19580000",Q111325678
Friedrichstr.,s-bahn,KBS 100h,19651277_west,"52.52027778,13.38694444",Q111219456
Lehrter Stadtbahnhof,s-bahn,KBS 100h,19651278_west,"52.52530000,13.36940000",Q821299
Bellevue,s-bahn,KBS 100h,19651279_west,"52.52000000,13.34805556",Q374018
Tiergarten,s-bahn,KBS 100h,19651280_west,"52.51440000,13.33650000",Q572112
Zoologischer Garten,s-bahn,KBS 100h,19651281_west,"52.50722222,13.33250000",Q111326238
Savignyplatz,s-bahn,KBS 100h,19651282_west,"52.50517460,13.31906590",Q554382
Charlottenburg,s-bahn,KBS 100h,19651283_west,"52.50472222,13.30333333",Q111326217
Westkreuz,s-bahn,KBS 100h,19651284_west,"52.50110000,13.28390000",Q678125
Grunewald,s-bahn,KBS 100h,19651285_west,"52.48920000,13.26140000",Q457266
Nikolassee,s-bahn,KBS 100h,19651286_west,"52.43170000,13.19330000",Q637052
Wannsee,s-bahn,KBS 100h,19651287_west,"52.42140000,13.17920000",Q111325896
Zoologischer Garten,s-bahn,KBS 100k,19651288_west,"52.50722222,13.33250000",Q111326238
Savignyplatz,s-bahn,KBS 100k,19651289_west,"52.50517460,13.31906590",Q554382
Charlottenburg,s-bahn,KBS 100k,19651290_west,"52.50472222,13.30333333",Q111326217
Hohenzollerndamm,s-bahn,KBS 100k,19651291_west,"52.48850000,13.30040000",Q800503
Schmargendorf,s-bahn,KBS 100k,19651292_west,"52.47967222,13.31244167",Q302810
Wilmersdorf,s-bahn,KBS 100k,19651293_west,"52.47765833,13.32852500",Q464094
Innsbruckerplatz,s-bahn,KBS 100k,19651294_west,"52.47860000,13.34390000",Q111263876
Schöneberg,s-bahn,KBS 100k,19651295_west,"52.47940000,13.35170000",Q543855
Papestr.,s-bahn,KBS 100k,19651296_west,"52.47560000,13.36440000",Q111323139
Tempelhof,s-bahn,KBS 100k,19651297_west,"52.47080000,13.38540000",Q111264368
Hermannstr.,s-bahn,KBS 100k,19651298_west,"52.46750000,13.43111111",Q111263802
Neukölln,s-bahn,KBS 100k,19651299_west,"52.46916667,13.44166667",Q111325412
Köllnische Heide,s-bahn,KBS 100k,19651300_west,"52.46940000,13.46750000",Q800505
Schlesisches Tor,u-bahn,A I,19651301_west,"52.50083333,13.44166667",Q602282
Görlitzer Bahnhof (Oranienstr.),u-bahn,A I,19651302_west,"52.49920000,13.42800000",Q597759
Kottbusser Tor,u-bahn,A I,19651303_west,"52.49916667,13.41805556",Q819768
Prinzenstr.,u-bahn,A I,19651304_west,"52.49833333,13.40611111",Q689797
Hallesches Tor,u-bahn,A I,19651305_west,"52.49777778,13.39111111",Q658302
Gleisdreieck,u-bahn,A I,19651306_west,"52.49952000,13.37409000",Q678372
Kurfürstenstr.,u-bahn,A I,19651307_west,"52.50000000,13.36194444",Q690203
Nollendorfplatz,u-bahn,A I,19651308_west,"52.49916667,13.35388889",Q571039
Wittenbergplatz,u-bahn,A I,19651309_west,"52.50194444,13.34305556",Q692727
Zoologischer Garten,u-bahn,A I,19651310_west,"52.50586690,13.33302360",Q4024764
Ernst-Reuter-Platz,u-bahn,A I,19651311_west,"52.51194444,13.32222222",Q658361
Deutsche Oper (Bismarckstr.),u-bahn,A I,19651312_west,"52.51194444,13.31055556",Q869501
Sophie-Charlotte-Platz,u-bahn,A I,19651313_west,"52.51083333,13.29666667",Q657879
Kaiserdamm (Messedamm),u-bahn,A I,19651314_west,"52.51000000,13.28220000",Q656409
Theodor-Heuss-Platz,u-bahn,A I,19651315_west,"52.50972222,13.27305556",Q657857
Ruhleben,u-bahn,A I,19651316_west,"52.52555556,13.24138889",Q656401
Schlesisches Tor,u-bahn,A II,19651317_west,"52.50083333,13.44166667",Q602282
Görlitzer Bahnhof (Oranienstr.),u-bahn,A II,19651318_west,"52.49920000,13.42800000",Q597759
Kottbusser Tor,u-bahn,A II,19651319_west,"52.49916667,13.41805556",Q819768
Prinzenstr.,u-bahn,A II,19651320_west,"52.49833333,13.40611111",Q689797
Hallesches Tor,u-bahn,A II,19651321_west,"52.49777778,13.39111111",Q658302
Möckernbrücke,u-bahn,A II,19651322_west,"52.49916667,13.38277778",Q704716
Gleisdreieck,u-bahn,A II,19651323_west,"52.49952000,13.37409000",Q678372
Kurfürstenstr.,u-bahn,A II,19651324_west,"52.50000000,13.36194444",Q690203
Nollendorfplatz,u-bahn,A II,19651325_west,"52.49916667,13.35388889",Q571039
Wittenbergplatz,u-bahn,A II,19651326_west,"52.50194444,13.34305556",Q692727
Augsburger Str.,u-bahn,A II,19651327_west,"52.50055600,13.33638900",Q667035
Spichernstr.,u-bahn,A II,19651328_west,"52.49638889,13.33055556",Q667046
Hohenzollernplatz,u-bahn,A II,19651329_west,"52.49388889,13.32500000",Q571570
Fehrbellinerplatz,u-bahn,A II,19651330_west,"52.49027778,13.31444444",Q663245
Heidelbergerplatz,u-bahn,A II,19651331_west,"52.47980833,13.31323611",Q21777872
Rüdesheimerplatz,u-bahn,A II,19651332_west,"52.47333333,13.31444444",Q167147
Breitenbachplatz,u-bahn,A II,19651333_west,"52.46638889,13.30805556",Q571339
Podbielskiallee,u-bahn,A II,19651334_west,"52.46444444,13.29638889",Q571324
Dahlem-Dorf,u-bahn,A II,19651335_west,"52.45694444,13.28944444",Q668585
Thielplatz,u-bahn,A II,19651336_west,"52.45111111,13.28222222",Q571331
Oskar-Helene-Heim,u-bahn,A II,19651337_west,"52.45027778,13.26972222",Q681336
Onkel Toms Hütte,u-bahn,A II,19651338_west,"52.45027778,13.25333333",Q389214
Krumme Lanke,u-bahn,A II,19651339_west,"52.44333333,13.24138889",Q663945
Deutsche Oper (Bismarckstr.),u-bahn,A III,19651340_west,"52.51194444,13.31055556",Q869501
Richard-Wagner-Platz,u-bahn,A III,19651341_west,"52.51750000,13.30638889",Q662201
Nollendorfplatz,u-bahn,B I,19651342_west,"52.49916667,13.35388889",Q571039
Bayerischerplatz,u-bahn,B I,19651343_west,"52.48833333,13.34027778",Q668574
Innsbruckerplatz,u-bahn,B I,19651344_west,"52.47860000,13.34390000",Q10275871
Wittenbergplatz,u-bahn,B III,19651345_west,"52.50194444,13.34305556",Q692727
Kurfürstendamm,u-bahn,B III,19651346_west,"52.50416667,13.33277778",Q663933
Uhlandstr.,u-bahn,B III,19651347_west,"52.49368292,13.32361138",
Tegel,u-bahn,C I,19651348_west,"52.58944000,13.28389000",Q656090
Borsigwerke,u-bahn,C I,19651349_west,"52.58190000,13.29070000",Q525185
Holzhauser Str.,u-bahn,C I,19651350_west,"52.57583333,13.29611111",Q557566
Seidelstr. (Flughafen Tegel),u-bahn,C I,19651351_west,"52.57111100,13.30277800",Q557582
Scharnweberstr. (Eichborndamm),u-bahn,C I,19651352_west,"52.56694444,13.31277778",Q557586
Kurt-Schumacher-Platz,u-bahn,C I,19651353_west,"52.56355556,13.32657222",Q555916
Afrikanische Str.,u-bahn,C I,19651354_west,"52.56002778,13.33463333",Q559239
Rehberge,u-bahn,C I,19651355_west,"52.55670000,13.34120000",Q253850
Seestr.,u-bahn,C I,19651356_west,"52.55056000,13.35194000",Q554391
Leopoldplatz,u-bahn,C I,19651357_west,"52.54650000,13.35910000",Q1960809
Bahnhof Wedding,u-bahn,C I,19651358_west,"52.54250000,13.36611100",Q4018733
Reinickendorfer Str.,u-bahn,C I,19651359_west,"52.53991111,13.37037778",Q559249
Bahnhof Friedrichstr. (Stadtbahn),u-bahn,C I,19651360_west,"52.52011111,13.38830556",Q3753274
Kochstr.,u-bahn,C I,19651361_west,"52.50589722,13.39061111",Q201849
Hallesches Tor,u-bahn,C I,19651362_west,"52.49777778,13.39111111",Q658302
Mehringdamm,u-bahn,C I,19651363_west,"52.49388889,13.38833333",Q657905
Gneisenaustr.,u-bahn,C I,19651364_west,"52.49138889,13.39555556",Q668618
Südstern,u-bahn,C I,19651365_west,"52.48944444,13.40777778",Q656081
Hermannplatz,u-bahn,C I,19651366_west,"52.48629000,13.42455000",Q658929
Rathaus Neukölln,u-bahn,C I,19651367_west,"52.48166667,13.43416667",Q628770
Karl-Marx-Str.,u-bahn,C I,19651368_west,"52.47611111,13.43916667",Q519494
Neukölln (Südring),u-bahn,C I,19651369_west,"52.46944400,13.44222200",Q21272767
Grenzallee,u-bahn,C I,19651370_west,"52.46333333,13.44388889",Q571836
Blaschkoallee,u-bahn,C I,19651371_west,"52.45194444,13.44944444",Q666911
Parchimerallee,u-bahn,C I,19651372_west,"52.44472222,13.44944444",Q571855
Britz-Süd,u-bahn,C I,19651373_west,"52.43777778,13.44805556",Q571845
Mehringdamm,u-bahn,C II,19651374_west,"52.49388889,13.38833333",Q657905
Flughafen,u-bahn,C II,19651375_west,"52.48555600,13.38583300",Q557582
Paradestr.,u-bahn,C II,19651376_west,"52.47805556,13.38611111",Q557543
Tempelhof (Südring),u-bahn,C II,19651377_west,"52.47075000,13.38536111",Q3983109
Gesundbrunnen,u-bahn,D,19651378_west,"52.54861100,13.38944400",Q3761416
Voltastr.,u-bahn,D,19651379_west,"52.54209300,13.39302200",Q663308
Moritzplatz,u-bahn,D,19651380_west,"52.50361111,13.41083333",Q374225
Kottbusser Tor,u-bahn,D,19651381_west,"52.49916667,13.41805556",Q819768
Kottbusserdamm (Schönleinstr.),u-bahn,D,19651382_west,"52.49305556,13.42194444",Q666868
Hermannplatz,u-bahn,D,19651383_west,"52.48629000,13.42455000",Q658929
Boddinstr.,u-bahn,D,19651384_west,"52.48000000,13.42527778",Q819495
Leinestr.,u-bahn,D,19651385_west,"52.47277778,13.42833333",Q668563
Leopoldplatz,u-bahn,G,19651386_west,"52.54650000,13.35910000",Q1960809
Amrumerstr.,u-bahn,G,19651387_west,"52.54250000,13.35027778",Q557577
Pulitzstr.,u-bahn,G,19651388_west,"52.53679500,13.34272400",Q4019188
Birkenstr.,u-bahn,G,19651389_west,"52.53222222,13.34138889",Q555998
Turmstr.,u-bahn,G,19651390_west,"52.52585000,13.34135278",Q571400
Hansaplatz,u-bahn,G,19651391_west,"52.51777778,13.34222222",Q287552
Zoologischer Garten,u-bahn,G,19651392_west,"52.50586690,13.33302360",Q4024764
Kurfürstendamm,u-bahn,G,19651393_west,"52.50416667,13.33277778",Q663933
Spichernstr.,u-bahn,G,19651394_west,"52.49638889,13.33055556",Q667046
