stop_name,type,line_name,stop_id,location,identifier,latitude,longitude,match_score,matched_name,matched_stop_id,matched_historical_lines,location_from
Revalerstr.,tram,3,19670_east,"52.50855230,13.45099355",,,,,,,,1967931.0
Warschauerstr.,tram,3,19671_east,"52.50502000,13.44863000",Q63490275,,,,,,,19671278.0
Holteistr. Ecke Boxhagenerstr.,tram,3,19672_east,"52.50882350,13.46596900","Q65675805, Q65675805",,,,,,,1967494.0
Bhf. Frankfurterallee,tram,3,19673_east,"52.51380370,13.47737720",Q65948557,,,,,,,1967123.0
Roederplatz,tram,3,19674_east,"52.52660010,13.47906800",Q65685373,,,,,,,1967942.0
Hohenschönhauserstr.,tram,3,19675_east,"52.53593290,13.47294680",Q65553684,,,,,,,1967485.0
Lichtenbergerstr.,tram,3,19676_east,"52.55203261,13.46568992",,,,,,,,1967666.0
Antonplatz,tram,3,19677_east,"52.54848030,13.45174160",Q65548849,,,,,,,196766.0
Prenzlauer Promenade,tram,3,19678_east,"52.55155537,13.43032253",,,,,,,,1967876.0
Schönhauserallee,tram,3,19679_east,"52.55377050,13.41388980",Q65076842,,,,,,,19671056.0
Björnsonstr.,tram,3,196710_east,"52.55442320,13.40305850",Q65920495,,,,,,,1967152.0
Markusstr.,tram,4,196711_east,"52.51349889,13.42412751",,,,,,,,1967732.0
Ostbahnhof,tram,4,196712_east,"52.50910764,13.43550619",,,,,,,,1967823.0
Mühlenstr.,tram,4,196713_east,"52.50854394,13.43489758",,,,,,,,1967766.0
Revalerstr.,tram,4,196714_east,"52.50855230,13.45099355",,,,,,,,1967931.0
Grünbergerstr.,tram,4,196715_east,"52.51223590,13.45260900",Q65706239,,,,,,,1967406.0
Frankfurter Tor,tram,4,196716_east,"52.51539030,13.45401720",Q65706246+nan,,,,,,,1967318.0
Bersarinplatz,tram,4,196717_east,"52.51921500,13.45252570",Q65706258,,,,,,,1967118.0
Leninallee,tram,4,196718_east,"52.52593430,13.44623680",Q65553230,,,,,,,1967654.0
Kniprodestr.,tram,4,196719_east,"52.53252860,13.44068680",Q65707391,,,,,,,1967582.0
Greifswalderstr.,tram,4,196720_east,"52.53649750,13.43340450",Q65548960,,,,,,,1967390.0
Prenzlauerallee,tram,4,196721_east,"52.53965220,13.42447890",Q65222180,,,,,,,1967875.0
U-Bhf. Dimitroffstr.,tram,4,196722_east,"52.54019280,13.41139790",Q65088313,,,,,,,19671188.0
Eberswalderstr. Ecke Oderbergerstr.,tram,4,196723_east,"52.54061077,13.40455993",",+nan",,,,,,,1967269.0
Hönower Wiesenweg Ecke Blockdammweg,tram,13,196724_east,"52.48430451,13.50580476",,,,,,,,1967509.0
Kraftwerk Klingenberg,tram,13,196725_east,"52.48813740,13.49586850",Q66079524,,,,,,,1967594.0
S-Bhf. Rummelsburg,tram,13,196726_east,"52.50105580,13.47623920",Q66069079,,,,,,,19671000.0
Holteistr. Ecke Boxhagenerstr.,tram,13,196727_east,"52.50882350,13.46596900","Q65675805, Q65675805",,,,,,,1967494.0
Frankfurter Tor,tram,13,196728_east,"52.51539030,13.45401720",Q65706246+nan,,,,,,,1967318.0
Bersarinplatz,tram,13,196729_east,"52.51921500,13.45252570",Q65706258,,,,,,,1967118.0
Leninallee,tram,13,196730_east,"52.52593430,13.44623680",Q65553230,,,,,,,1967654.0
Kniprodestr.,tram,13,196731_east,"52.53252860,13.44068680",Q65707391,,,,,,,1967582.0
Greifswalderstr.,tram,13,196732_east,"52.53649750,13.43340450",Q65548960,,,,,,,1967390.0
Prenzlauerallee,tram,13,196733_east,"52.53965220,13.42447890",Q65222180,,,,,,,1967875.0
U-Bhf. Dimitroffstr.,tram,13,196734_east,"52.54019280,13.41139790",Q65088313,,,,,,,19671188.0
Oderbergerstr. Ecke Eberswalderstr.,tram,13,196735_east,"52.54061077,13.40455993",,,,,,,,1967797.0
"Rosenthal, Hauptstr.",tram,22,196736_east,"52.59700630,13.37639160",Q65364985,,,,,,,1967947.0
Nordendstr.,tram,22,196737_east,"52.58853400,13.38829520",Q65428345,,,,,,,1967789.0
Kurt-Fischer-Platz,tram,22,196738_east,"52.57866800,13.39830160",Q65032974,,,,,,,1967619.0
"Pankow, Rathaus",tram,22,196739_east,"52.56948160,13.40380450",Q65055060,,,,,,,1967838.0
"Pankow, Kirche",tram,22,196740_east,"52.57064520,13.41031150",Q65055066,,,,,,,1967836.0
U-Bhf. Vinetastr.,tram,22,196741_east,"52.55961680,13.41323200",Q65075426,,,,,,,19671233.0
Bornholmerstr. Ecke Schönhauserallee,tram,22,196742_east,"52.55377050,13.41388980",Q65076842,,,,,,,1967169.0
S-Bhf. Schönhauserallee,tram,22,196743_east,"52.54936190,13.41357340",Q65088013,,,,,,,19671001.0
U-Bhf. Dimitroffstr.,tram,22,196744_east,"52.54019280,13.41139790",Q65088313,,,,,,,19671188.0
Nordend,tram,46,196745_east,"52.59021040,13.40275240",Q65032696,,,,,,,1967788.0
Ossietzkyplatz,tram,46,196746_east,"52.58100580,13.40401481",,,,,,,,1967820.0
Kurt-Fischer-Platz,tram,46,196747_east,"52.57866800,13.39830160",Q65032974,,,,,,,1967619.0
"Pankow, Kirche",tram,46,196748_east,"52.57064520,13.41031150",Q65055066,,,,,,,1967836.0
U-Bhf. Vinetastr.,tram,46,196749_east,"52.55961680,13.41323200",Q65075426,,,,,,,19671233.0
Bornholmerstr. Ecke Schönhauserallee,tram,46,196750_east,"52.55377050,13.41388980",Q65076842,,,,,,,1967169.0
S-Bhf. Schönhauserallee,tram,46,196751_east,"52.54936190,13.41357340",Q65088013,,,,,,,19671001.0
U-Bhf. Dimitroffstr.,tram,46,196752_east,"52.54019280,13.41139790",Q65088313,,,,,,,19671188.0
Brunnenstr.,tram,46,196753_east,"52.53245420,13.39742360",Q65691740,,,,,,,1967190.0
Oranienburger Tor,tram,46,196754_east,"52.52560310,13.38727450",Q65095375,,,,,,,1967807.0
Bhf. Friedrichstr.,tram,46,196755_east,"52.51928050,13.38841070",Q65095382,,,,,,,1967125.0
Am Kupfergraben,tram,46,196756_east,"52.51942080,13.39538390",Q65055027,,,,,,,196754.0
"Buchholz, Hauptstr.",tram,49,196757_east,"52.61907206,13.39338336",,,,,,,,1967195.0
Industriebahn,tram,49,196758_east,"52.61860431,13.39039578",,,,,,,,1967517.0
Galenusstr.,tram,49,196759_east,"52.58181830,13.42876780",Q66195410,,,,,,,1967347.0
S-Bhf. Pankow-Heinersdorf,tram,49,196760_east,"52.57750782,13.42785306",,,,,,,,1967994.0
Klaustalerstr. Ecke Damerowstr.,tram,49,196761_east,"52.57341493,13.42210298",,,,,,,,1967574.0
"Pankow, Kirche",tram,49,196762_east,"52.57064520,13.41031150",Q65055066,,,,,,,1967836.0
S-Bhf. Vinetastr.,tram,49,196763_east,"52.55961680,13.41323200",Q65075426,,,,,,,19671004.0
Bornholmerstr.,tram,49,196764_east,"52.55377050,13.41388980",,,,,,,,1967168.0
S-Bhf. Schönhauserallee,tram,49,196765_east,"52.54936190,13.41357340",Q65088013,,,,,,,19671001.0
U-Bhf. Dimitroffstr.,tram,49,196766_east,"52.54019280,13.41139790",Q65088313,,,,,,,19671188.0
Rosenthalerplatz,tram,49,196767_east,"52.53017690,13.40161210",Q65093945,,,,,,,1967949.0
Hackescher Markt,tram,49,196768_east,"52.52270059,13.40160586",Q65094590+nan,,,,,,,1967415.0
"Hohenschönhausen, Gartenstadt",tram,63,196769_east,"52.55086720,13.50949940",Q65555882,,,,,,,1967484.0
Falkenbergerstr. Ecke Wartenbergerstr.,tram,63,196770_east,"52.55036672,13.50991503",,,,,,,,1967297.0
Degnerstr.,tram,63,196771_east,"52.54488037,13.49394995",,,,,,,,1967244.0
Weißenseerweg,tram,63,196772_east,"52.53225800,13.47670500",Q65942700,,,,,,,19671298.0
Steuerhaus,tram,63,196773_east,"52.53049300,13.46149890",Q65553632,,,,,,,19671113.0
S-Bhf. Leninallee,tram,63,196774_east,"52.52851097,13.45586231","nan, nan",,,,,,,1967987.0
Dimitroffstr. Ecke Landsbergerallee,tram,63,196775_east,"52.52643035,13.44759679",,,,,,,,1967251.0
Leninplatz,tram,63,196776_east,"52.52326580,13.43264570",Q65553105,,,,,,,1967656.0
Hans-Beimler-Str.,tram,63,196777_east,"52.52554730,13.42027550",Q65548984,,,,,,,1967425.0
U-Bhf. Luxemburgplatz,tram,63,196778_east,"52.52861050,13.41041230",Q65690179,,,,,,,19671207.0
Hackescher Markt,tram,63,196779_east,"52.52270059,13.40160586",Q65094590+nan,,,,,,,1967415.0
Friedrichstr. Ecke Oranienburgerstr.,tram,63,196780_east,"52.52631682,13.38723564",,,,,,,,1967337.0
"Walter-Ulbricht-Stadion, Pflugstr.",tram,63,196782_east,"52.53684981,13.37952868",,,,,,,,19671269.0
"Hohenschönhausen, Falkenbergerstr.",tram,64,196783_east,"52.55086720,13.50949940",Q65555882,,,,,,,1980602.0
Degnerstr.,tram,64,196784_east,"52.54488037,13.49394995",,,,,,,,1967244.0
Weißenseerweg,tram,64,196785_east,"52.53225800,13.47670500",Q65942700,,,,,,,19671298.0
Steuerhaus,tram,64,196786_east,"52.53049300,13.46149890",Q65553632,,,,,,,19671113.0
S-Bhf. Leninallee,tram,64,196787_east,"52.52851097,13.45586231","nan, nan",,,,,,,1967987.0
Dimitroffstr. Ecke Landsbergerallee,tram,64,196788_east,"52.52643035,13.44759679",,,,,,,,1967251.0
Leninplatz,tram,64,196789_east,"52.52326580,13.43264570",Q65553105,,,,,,,1967656.0
U-Bhf. Strausbergerplatz,tram,64,196790_east,"52.51808307,13.43293834",,,,,,,,19671225.0
Am Ostbahnhof,tram,64,196791_east,"52.50982239,13.43373167",,,,,,,,196756.0
S-Bhf. Jannowitzbrücke,tram,64,196792_east,"52.51478600,13.41805624",,,,,,,,1967981.0
U-Bhf. Märkisches Museum,tram,64,196793_east,"52.51272428,13.41129061",,,,,,,,19671210.0
Spittelmarkt,tram,64,196794_east,"52.51124332,13.40494540",,,,,,,,19671099.0
Dönhoffplatz,tram,64,196795_east,"52.50995057,13.39814408",,,,,,,,1967265.0
"Hohenschönhausen, Falkenbergerstr.",tram,70,196796_east,"52.55086720,13.50949940",Q65555882,,,,,,,1980602.0
Berlinerstr. Ecke Suermondtstr.,tram,70,196797_east,"52.54900402,13.50174036",,,,,,,,1967109.0
Stadion Buschallee,tram,70,196798_east,"52.55667180,13.48698340",Q65504715,,,,,,,19671103.0
Kniprodeallee,tram,70,196799_east,"52.55328910,13.47953543",,,,,,,,1967581.0
Buschallee Ecke Klement-Gottwald-Allee,tram,70,1967100_east,"52.55375980,13.46919660",Q65546661,,,,,,,1967210.0
Lichtenbergerstr.,tram,70,1967101_east,"52.55203261,13.46568992",,,,,,,,1967666.0
Antonplatz,tram,70,1967102_east,"52.54848030,13.45174160",Q65548849,,,,,,,196766.0
Prenzlauer Promenade,tram,70,1967103_east,"52.55155537,13.43032253",,,,,,,,1967876.0
Humannplatz,tram,70,1967104_east,"52.54936270,13.42136460",Q65962652,,,,,,,1967501.0
U-Bhf. Dimitroffstr.,tram,70,1967105_east,"52.54019280,13.41139790",Q65088313,,,,,,,19671188.0
Brunnenstr.,tram,70,1967106_east,"52.53245420,13.39742360",Q65691740,,,,,,,1967190.0
Chausseestr.,tram,70,1967107_east,"52.53061984,13.38304279",,,,,,,,1967226.0
Oranienburger Tor,tram,70,1967108_east,"52.52560310,13.38727450",Q65095375,,,,,,,1967807.0
Bhf. Friedrichstr.,tram,70,1967109_east,"52.51928050,13.38841070",Q65095382,,,,,,,1967125.0
Am Kupfergraben,tram,70,1967110_east,"52.51942080,13.39538390",Q65055027,,,,,,,196754.0
Romain-Rolland-Str.,tram,71,1967111_east,"52.57255110,13.43710630",Q65096052,,,,,,,1967944.0
"Heinersdorf, Kirche",tram,71,1967112_east,"52.56869080,13.43890530",Q65096107,,,,,,,1967452.0
Prenzlauer Promenade,tram,71,1967113_east,"52.55155537,13.43032253",,,,,,,,1967876.0
S-Bhf. Prenzlauerallee,tram,71,1967114_east,"52.54480750,13.42740800",Q65219791,,,,,,,1967996.0
Prenzlauerallee,tram,71,1967115_east,"52.53965220,13.42447890",Q65222180,,,,,,,1967875.0
Prenzlauer Tor,tram,71,1967116_east,"52.52709114,13.41580937",,,,,,,,1967879.0
U-Bhf. Luxemburgplatz,tram,71,1967117_east,"52.52861050,13.41041230",Q65690179,,,,,,,19671207.0
Hackescher Markt,tram,71,1967118_east,"52.52270059,13.40160586",Q65094590+nan,,,,,,,1967415.0
Oranienburger Tor,tram,71,1967119_east,"52.52560310,13.38727450",Q65095375,,,,,,,1967807.0
Bhf. Friedrichstr.,tram,71,1967120_east,"52.51928050,13.38841070",Q65095382,,,,,,,1967125.0
Am Kupfergraben,tram,71,1967121_east,"52.51942080,13.39538390",Q65055027,,,,,,,196754.0
"Weißensee, Pasedagplatz",tram,72,1967122_east,"52.55940270,13.46095940",Q65954665,,,,,,,19671295.0
Buschallee,tram,72,1967123_east,"52.55375980,13.46919660",Q65546661,,,,,,,1967208.0
Lichtenbergerstr.,tram,72,1967124_east,"52.55203261,13.46568992",,,,,,,,1967666.0
Antonplatz,tram,72,1967125_east,"52.54848030,13.45174160",Q65548849,,,,,,,196766.0
Prenzlauer Promenade,tram,72,1967126_east,"52.55155537,13.43032253",,,,,,,,1967876.0
S-Bhf. Prenzlauerallee,tram,72,1967127_east,"52.54480750,13.42740800",Q65219791,,,,,,,1967996.0
Prenzlauerallee,tram,72,1967128_east,"52.53965220,13.42447890",Q65222180,,,,,,,1967875.0
Prenzlauer Tor,tram,72,1967129_east,"52.52709114,13.41580937",,,,,,,,1967879.0
U-Bhf. Luxemburgplatz,tram,72,1967130_east,"52.52861050,13.41041230",Q65690179,,,,,,,19671207.0
Hackescher Markt,tram,72,1967131_east,"52.52270059,13.40160586",Q65094590+nan,,,,,,,1967415.0
"Weißensee, Bernkastelerstr.",tram,73,1967132_east,"52.55703368,13.46691548",,,,,,,,19671293.0
Buschallee,tram,73,1967133_east,"52.55375980,13.46919660",Q65546661,,,,,,,1967208.0
Antonplatz,tram,73,1967134_east,"52.54848030,13.45174160",Q65548849,,,,,,,196766.0
S-Bhf. Greifswalderstr.,tram,73,1967135_east,"52.54072340,13.43829040",Q65548932,,,,,,,1967975.0
Greifswalderstr. Ecke Dimitroffstr.,tram,73,1967136_east,"52.53621776,13.43301750",,,,,,,,1967392.0
Königstor,tram,73,1967137_east,"52.52821600,13.42386902",,,,,,,,1967631.0
Prenzlauer Tor,tram,73,1967138_east,"52.52709114,13.41580937",,,,,,,,1967879.0
U-Bhf. Luxemburgplatz,tram,73,1967139_east,"52.52861050,13.41041230",Q65690179,,,,,,,19671207.0
Hackescher Markt,tram,73,1967140_east,"52.52270059,13.40160586",Q65094590+nan,,,,,,,1967415.0
Friedrichstr.,tram,73,1967141_east,"52.52636081,13.38719556",,,,,,,,1967335.0
"Wießensee, Pasedagplatz",tram,74,1967144_east,"52.55940270,13.46095940",,,,,,,,19671314.0
Buschallee,tram,74,1967145_east,"52.55375980,13.46919660",Q65546661,,,,,,,1967208.0
Antonplatz,tram,74,1967146_east,"52.54848030,13.45174160",Q65548849,,,,,,,196766.0
S-Bhf. Greifswalderstr.,tram,74,1967147_east,"52.54072340,13.43829040",Q65548932,,,,,,,1967975.0
Greifswalderstr. Ecke Dimitroffstr.,tram,74,1967148_east,"52.53621776,13.43301750",,,,,,,,1967392.0
Königstor,tram,74,1967149_east,"52.52821600,13.42386902",,,,,,,,1967631.0
Mollstr. Ecke Hans-Beimler-Str.,tram,74,1967150_east,"52.52554730,13.42027550",Q65548984,,,,,,,1967751.0
Leninplatz,tram,74,1967151_east,"52.52326580,13.43264570",Q65553105,,,,,,,1967656.0
U-Bhf. Strausbergerplatz,tram,74,1967152_east,"52.51808307,13.43293834",,,,,,,,19671225.0
Am Ostbahnhof,tram,74,1967153_east,"52.50982239,13.43373167",,,,,,,,196756.0
S-Bhf. Jannowitzbrücke,tram,74,1967154_east,"52.51478600,13.41805624",,,,,,,,1967981.0
U-Bhf. Märkisches Museum,tram,74,1967155_east,"52.51272428,13.41129061",,,,,,,,19671210.0
Spittelmarkt,tram,74,1967156_east,"52.51124332,13.40494540",,,,,,,,19671099.0
Dönhoffplatz,tram,74,1967157_east,"52.50995057,13.39814408",,,,,,,,1967265.0
Friedrichstr. Ecke Leipzigerstr.,tram,74,1967158_east,"52.51036024,13.38989951",,,,,,,,1967336.0
Leipzigerstr. Ecke Otto-Grotewohl-Str.,tram,74,1967159_east,"52.51001825,13.38415994",,,,,,,,1967652.0
"Mahlsdorf-Süd, Hubertus",tram,82,1967160_east,"52.47416630,13.59914430",Q66368466,,,,,,,1967712.0
Uhlenhorst,tram,82,1967161_east,"52.46827685,13.58675426",,,,,,,,19671239.0
S-Bhf. Köpenick,tram,82,1967162_east,"52.45821530,13.57904350",Q66370784,,,,,,,1967985.0
Hegelschule,tram,82,1967163_east,"52.45050940,13.57268400",,,,,,,,1967444.0
Pionierpark,tram,82,1967164_east,"52.46662289,13.52125769",,,,,,,,1967860.0
Rathenaustr.,tram,82,1967165_east,"52.46177005,13.53242891",,,,,,,,1967913.0
Wilhelminenhofstr. Ecke Edisonstr.,tram,82,1967166_east,"52.46194960,13.51390490",Q65951882,,,,,,,19671318.0
Heinrich-Duncker-Str. Ecke Ehrlichstr.,tram,82,1967167_east,"52.47895660,13.52343160",Q65951921,,,,,,,1967453.0
Hönower Wiesenweg,tram,82,1967168_east,"52.48427629,13.50582097",,,,,,,,1967508.0
Kraftwerk Klingenberg,tram,82,1967169_east,"52.48813740,13.49586850",Q66079524,,,,,,,1967594.0
Karlshorsterstr.,tram,82,1967170_east,"52.50200675,13.47538239",,,,,,,,1967554.0
S-Bhf. Ostkreuz,tram,82,1967171_east,"52.50243022,13.46902005",,,,,,,,1967992.0
Stralauerallee Ecke Markgrafendamm,tram,82,1967172_east,"52.49740745,13.46463651",,,,,,,,19671117.0
Warschauerstr.,tram,82,1967173_east,"52.50502000,13.44863000",Q63490275,,,,,,,19671278.0
Ostbahnhof,tram,82,1967174_east,"52.50910764,13.43550619",,,,,,,,1967823.0
U-Bhf. Strausburgerplatz,tram,82,1967175_east,"52.51804588,13.43175979",,,,,,,,19671226.0
Leninplatz,tram,82,1967176_east,"52.52326580,13.43264570",Q65553105,,,,,,,1967656.0
Hans-Beimler-Str.,tram,82,1967177_east,"52.52554730,13.42027550",Q65548984,,,,,,,1967425.0
U-Bhf. Luxemburgplatz,tram,82,1967178_east,"52.52861050,13.41041230",Q65690179,,,,,,,19671207.0
Rosenthalerplatz,tram,82,1967179_east,"52.53017690,13.40161210",Q65093945,,,,,,,1967949.0
Veteranenstr. Ecke Invalidenstr.,tram,82,1967180_east,"52.53267133,13.39888650",,,,,,,,19671251.0
Chausseestr.,tram,82,1967181_east,"52.53061984,13.38304279",,,,,,,,1967226.0
Walter-Ulbricht-Stadion,tram,82,1967182_east,"52.53596333,13.37632165",,,,,,,,19671267.0
Kinderheim,autobus,82P,1967183_east,"52.48981531,13.48140423",,,,,,,,1967568.0
Friedrich-Junge-Str.,autobus,82P,1967184_east,"52.49382897,13.47157287",,,,,,,,1967327.0
Markgrafendamm,autobus,82P,1967185_east,"52.49919969,13.46574229",,,,,,,,1967731.0
VEB Schiffswerft,tram,83,1967187_east,"52.42547978,13.58622004",,,,,,,,19671247.0
RFT-Werk,tram,83,1967188_east,"52.43633349,13.58242861",,,,,,,,1967895.0
Strab. Bhf. Köpenick,tram,83,1967189_east,"52.43991340,13.58178240",Q66370900,,,,,,,19671115.0
Lindenstr. Ecke Bahnhofstr.,tram,83,1967190_east,"52.45050940,13.57268400",Q66095701,,,,,,,1967680.0
S-Bhf. Köpenick,tram,83,1967191_east,"52.45821530,13.57904350",Q66370784,,,,,,,1967985.0
Uhlenhorst,tram,83,1967192_east,"52.46827685,13.58675426",,,,,,,,19671239.0
Mahlsdorf-Süd,tram,83,1967193_east,"52.47416630,13.59914430",Q66368466,,,,,,,1967711.0
Bürgerwäldchen,tram,83,1967194_east,"52.48937410,13.60641390",Q66364551,,,,,,,1967216.0
Rahnsdorferstr.,tram,83,1967195_east,"52.49851730,13.61310100",Q66364532,,,,,,,1967899.0
S-Bhf. Mahlsdorf,tram,83,1967196_east,"52.51221827,13.61219075",,,,,,,,1967990.0
S-Bhf. Köpenick,tram,83E,1967197_east,"52.45821530,13.57904350",Q66370784,,,,,,,1967985.0
Lindenstr. Ecke Bahnhofstr.,tram,83E,1967198_east,"52.45050940,13.57268400",Q66095701,,,,,,,1967680.0
Strab. Bhf. Köpenick,tram,83E,1967199_east,"52.43991340,13.58178240",Q66370900,,,,,,,19671115.0
RFT-Werk,tram,83E,1967200_east,"52.43633349,13.58242861",,,,,,,,1967895.0
VEB Schiffswerft,tram,83E,1967201_east,"52.42547978,13.58622004",,,,,,,,19671247.0
Wendenschloß,tram,83E,1967202_east,"52.41696580,13.58859260",Q66363928,,,,,,,19671299.0
Am Falkenberg,tram,84,1967203_east,"52.41079970,13.57045293",,,,,,,,196750.0
"Altglienicke, Kirche",tram,84,1967204_east,"52.42184573,13.53940770",,,,,,,,196748.0
Benzolwerk,tram,84,1967205_east,"52.42641469,13.54644441",,,,,,,,1967101.0
S-Bhf. Adlershof,tram,84,1967206_east,"52.43525100,13.54084890",Q66363728,,,,,,,1967966.0
S-Bhf. Spindlersfeld,tram,84,1967207_east,"52.44573110,13.56242980",Q66363397,,,,,,,19671002.0
Schloßplatz Köpenick,tram,84,1967208_east,"52.44434090,13.57538370",Q66095688,,,,,,,19671027.0
Bahnhofstr. Ecke Lindenstr.,tram,84,1967209_east,"52.45050940,13.57268400",Q66095701,,,,,,,196788.0
Seelenbinderstr. Ecke Bahnhofstr.,tram,84,1967210_east,"52.45546320,13.57693030",Q66324934,,,,,,,19671062.0
Hirschgarten,tram,84,1967211_east,"52.45185330,13.60062450",Q66360740,,,,,,,1967476.0
S-Bhf. Friedrichshagen,tram,84,1967212_east,"52.45641260,13.62536560",Q66360784,,,,,,,1967973.0
"Bölschestr., Brauerei",tram,84,1967213_east,"52.44699266,13.62425200",,,,,,,,1967212.0
"Friedrichshagen, Wasserwerk",tram,84,1967214_east,"52.45605630,13.64199560",Q66362601,,,,,,,1967333.0
Wendenschloß,tram,85,1967215_east,"52.41696580,13.58859260",Q66363928,,,,,,,19671299.0
VEB Schiffswerft,tram,85,1967216_east,"52.42547978,13.58622004",,,,,,,,19671247.0
RFT-Werk,tram,85,1967217_east,"52.43633349,13.58242861",,,,,,,,1967895.0
Strab. Bhf. Köpenick,tram,85,1967218_east,"52.43991340,13.58178240",Q66370900,,,,,,,19671115.0
Lindenstr. Ecke Hegelschule,tram,85,1967219_east,"52.45050940,13.57268400",Q66095701,,,,,,,1967681.0
Pionierpark,tram,85,1967220_east,"52.46662289,13.52125769",,,,,,,,1967860.0
Edisonstr.,tram,85,1967221_east,"52.46194960,13.51390490",Q65951882,,,,,,,1967272.0
Brückenstr.,tram,85,1967222_east,"52.45865640,13.51211850",Q65951869,,,,,,,1967192.0
Bhf. Schöneweide,tram,85,1967223_east,"52.45640818,13.50991657",,,,,,,,1967135.0
"Johannisthal, Haeckelstr.",tram,85,1967224_east,"52.44029440,13.50526380",Q66225573,,,,,,,1967532.0
Alt-Schmöckwitz,tram,86,1967225_east,"52.37527670,13.64954900",Q66459540,,,,,,,196740.0
Waldidyll,tram,86,1967226_east,"52.38603408,13.63371164",,,,,,,,19671261.0
Karolinenhof Mitte,tram,86,1967227_east,"52.39176096,13.63465426",,,,,,,,1967555.0
Richtershorn,tram,86,1967228_east,"52.40105000,13.62484730",Q66481215,,,,,,,1967935.0
S-Bhf. Grünau,tram,86,1967229_east,"52.41349300,13.57468020",Q62470512,,,,,,,1967978.0
Chemische Fabrik,tram,86,1967230_east,"52.42696433,13.57354047",,,,,,,,1967227.0
Jachtwerft,tram,86,1967231_east,"52.43432940,13.57144396",,,,,,,,1967524.0
Schloßplatz Köpenick,tram,86,1967232_east,"52.44434090,13.57538370",Q66095688,,,,,,,19671027.0
Lindenstr. Ecke Bahnhofstr.,tram,86,1967233_east,"52.45050940,13.57268400",Q66095701,,,,,,,1967680.0
S-Bhf. Köpenick,tram,86,1967234_east,"52.45821530,13.57904350",Q66370784,,,,,,,1967985.0
Uhlenhorst,tram,86,1967235_east,"52.46827685,13.58675426",,,,,,,,19671239.0
"Mahlsdorf-Süd, Hubertus",tram,86,1967236_east,"52.47416630,13.59914430",Q66368466,,,,,,,1967712.0
Rahnsdorf,tram,87,1967237_east,"52.44353169,13.68503800",Q66361311,,,,,,,1967898.0
Wasserwerk,tram,87,1967238_east,"52.45605630,13.64199560",Q66362601,,,,,,,19671283.0
S-Bhf. Friedrichshagen,tram,87,1967239_east,"52.45641260,13.62536560",Q66360784,,,,,,,1967973.0
"Bölschestr., Brauerei",tram,87,1967240_east,"52.44699266,13.62425200",,,,,,,,1967212.0
Hirschgarten,tram,87,1967241_east,"52.45185330,13.60062450",Q66360740,,,,,,,1967476.0
Seelenbinderstr. Ecke Bahnhofstr.,tram,87,1967242_east,"52.45546320,13.57693030",Q66324934,,,,,,,19671062.0
Bahnhofstr. Ecke Lindenstr.,tram,87,1967243_east,"52.45050940,13.57268400",Q66095701,,,,,,,196788.0
Pionierpark,tram,87,1967244_east,"52.46662289,13.52125769",,,,,,,,1967860.0
Rathenaustr.,tram,87,1967245_east,"52.46177005,13.53242891",,,,,,,,1967913.0
Wilhelminenhofstr. Ecke Edisonstr.,tram,87,1967246_east,"52.46194960,13.51390490",Q65951882,,,,,,,19671318.0
Bhf. Schöneweide,tram,87,1967247_east,"52.45640818,13.50991657",,,,,,,,1967135.0
Köpenicker Landstr. Ecke Baumschulenstr.,tram,87,1967248_east,"52.46913201,13.49134005",,,,,,,,1967636.0
S-Bhf. Plänterwald,tram,87,1967249_east,"52.47964547,13.47567730",,,,,,,,1967995.0
Am Treptower Park Ecke Elsenstr.,tram,87,1967250_east,"52.49176487,13.45770388",,,,,,,,196760.0
Wiener Brücke,tram,87,1967251_east,"52.49588477,13.43650069",,,,,,,,19671311.0
"Oberspree, Bruno-Bürgel-Weg",tram,92,1967252_east,"52.45277701,13.53712484",,,,,,,,1967795.0
Britzerstr. Ecke Schnellerstr.,tram,92,1967253_east,"52.45407795,13.51933981",,,,,,,,1967187.0
Bhf. Schöneweide,tram,92,1967254_east,"52.45640818,13.50991657",,,,,,,,1967135.0
Baumschulenstr. Ecke Köpenicker Landstr.,tram,92,1967255_east,"52.46911905,13.49136497",,,,,,,,196789.0
S-Bhf. Baumschulenweg,tram,92,1967256_east,"52.46742532,13.48930334",,,,,,,,1967969.0
Sonnenallee Ecke Baumschulenstr.,tram,92,1967257_east,"52.46085257,13.48134008",,,,,,,,19671078.0
Krankenhaus Köpenick,tram,95,1967258_east,"52.43861201,13.59241126",,,,,,,,1967600.0
Lindenstr. Ecke Hegelschule,tram,95,1967260_east,"52.45050940,13.57268400",Q66095701,,,,,,,1967681.0
Pionierpark,tram,95,1967261_east,"52.46662289,13.52125769",,,,,,,,1967860.0
Rathenaustr.,tram,95,1967262_east,"52.46177005,13.53242891",,,,,,,,1967913.0
Edisonstr.,tram,95,1967263_east,"52.46194960,13.51390490",Q65951882,,,,,,,1967272.0
Bhf. Schöneweide,tram,95,1967264_east,"52.45640818,13.50991657",,,,,,,,1967135.0
Baumschulenstr. Ecke Köpenicker Landstr.,tram,95,1967265_east,"52.46911905,13.49136497",,,,,,,,196789.0
S-Bhf. Plänterwald,tram,95,1967266_east,"52.47964547,13.47567730",,,,,,,,1967995.0
Elsenstr. Ecke Am Treptower Park,tram,95,1967267_east,"52.49175632,13.45775787",,,,,,,,1967284.0
Wiener Brücke,tram,95,1967268_east,"52.49588477,13.43650069",,,,,,,,19671311.0
Arkonaplatz,autobus,A16,1967269_east,"52.53753415,13.40176762",,,,,,,,196768.0
Veteranenstr. Ecke Brunnenstr.,autobus,A16,1967270_east,"52.53262273,13.39887552",,,,,,,,19671250.0
Rosenthalerplatz,autobus,A16,1967271_east,"52.52967295,13.40142893",,,,,,,,1967948.0
Liebknechstr. vor Littenstr.,autobus,A16,1967272_east,"52.52397802,13.41213367",,,,,,,,1967673.0
Adalbertstr.,autobus,A18,1967273_east,"52.50548700,13.42221404",,,,,,,,19672.0
S-Bhf. Jannowitzbrücke,autobus,A18,1967274_east,"52.51486586,13.41796028",,,,,,,,1967980.0
Alexanderplatz,autobus,A18,1967275_east,"52.52194490,13.41438470",Q65548996,,,,,,,196712.0
Charlottenstr. Ecke Französischestr.,autobus,A18,1967276_east,"52.51487005,13.39112326",,,,,,,,1967224.0
Bhf. Friedrichstr.,autobus,A18,1967277_east,"52.52056066,13.38823192",,,,,,,,1967124.0
Schumannstr. Ecke Reinhardtstr.,autobus,A18,1967278_east,"52.52325899,13.38382070",,,,,,,,19671039.0
Robert-Koch-Platz,autobus,A18,1967279_east,"52.52757051,13.37877230",,,,,,,,1967940.0
"Hessenwinkel, Lutherstr.",autobus,A22,1967280_east,"52.43013677,13.73098778",,,,,,,,1967470.0
S-Bhf. Wilhelmshagen,autobus,A22,1967282_east,"52.43886122,13.72106025",,,,,,,,19671005.0
Zentralschule,autobus,A22,1967283_east,"52.43465069,13.70369221",,,,,,,,19671359.0
Waldschänke,autobus,A22,1967284_east,"52.44331814,13.68593963",,,,,,,,19671263.0
S-Bhf. Rahnsdorf,autobus,A22,1967285_east,"52.45162837,13.69157910",,,,,,,,1967997.0
"Fichtenau, Post",autobus,A22,1967286_east,"52.46613932,13.69970161",,,,,,,,1967308.0
Falkenhöhe,autobus,A23,1967287_east,"52.40050703,13.53822948",,,,,,,,1967298.0
S-Bhf. Grünbergallee,autobus,A23,1967288_east,"52.39982233,13.54017097",,,,,,,,1967979.0
S-Bhf. Altglienicke,autobus,A23,1967289_east,"52.40840520,13.55881617",,,,,,,,1967967.0
Wolfmarsteig,autobus,A23,1967290_east,"52.41268952,13.53660263",,,,,,,,19671343.0
"Altglienicke, Schönefelderchaussee",autobus,A23,1967291_east,"52.41855858,13.53727083",,,,,,,,196749.0
"Altglienicke, Kirche",autobus,A23,1967292_east,"52.42184573,13.53940770",,,,,,,,196747.0
VEB Bautransporte,autobus,A26,1967293_east,"52.44295542,13.51951909",,,,,,,,19671246.0
Bhf. Schöneweide,autobus,A26,1967294_east,"52.45374952,13.51020040",,,,,,,,1967134.0
"S-Bhf. Kaulsdorf, Planitzstr.",autobus,A27,1967295_east,"52.51113864,13.58755467",,,,,,,,1967983.0
Chemnitzerstr. Ecke Alt-Kaulsdorf,autobus,A27,1967296_east,"52.50515642,13.58155740",,,,,,,,1967228.0
Jägerstr.,autobus,A27,1967297_east,"52.48596831,13.57416719",,,,,,,,1967538.0
Bachwitzerstr.,autobus,A27,1967298_east,"52.46917849,13.57355629",,,,,,,,196781.0
S-Bhf. Köpenick,autobus,A27,1967299_east,"52.45882190,13.57956468",,,,,,,,1967984.0
Bahnhofstr. Ecke Lindenstr.,autobus,A27,1967300_east,"52.45096281,13.57214687",,,,,,,,196787.0
Schloßplatz,autobus,A27,1967301_east,"52.44444072,13.57513262",,,,,,,,19671026.0
Wendenschloßstr. Ecke Müggelheimerstr.,autobus,A27,1967302_east,"52.44260945,13.58225859",,,,,,,,19671301.0
"Köpenick, Krankenhaus",autobus,A27,1967303_east,"52.43861201,13.59241126",,,,,,,,1967635.0
Chausseehaus,autobus,A27,1967304_east,"52.43009087,13.61469429",,,,,,,,1967225.0
Müggelseeperle,autobus,A27,1967305_east,"52.42170169,13.64089308",,,,,,,,1967765.0
Müggelheim,autobus,A27,1967306_east,"52.41018331,13.66589753",,,,,,,,1967763.0
Zentralflughafen,autobus,A36,1967307_east,"52.39057738,13.51559457",,,,,,,,19671357.0
"Schönefeld, Kirche",autobus,A36,1967308_east,"52.38742508,13.50596412",,,,,,,,19671045.0
Bhf. Schönefeld,autobus,A36,1967309_east,"52.38192403,13.51154508",,,,,,,,1967133.0
Gartenstr.,autobus,A36,1967310_east,"52.39304608,13.52501992",,,,,,,,1967354.0
S-Bhf. Grünbergallee,autobus,A36,1967311_east,"52.39982233,13.54017097",,,,,,,,1967979.0
"Bohnsdorf, Kirche",autobus,A36,1967312_east,"52.39948771,13.55557443",,,,,,,,1967163.0
Gartenstadtweg,autobus,A36,1967313_east,"52.41231391,13.56660268",,,,,,,,1967353.0
S-Bhf. Grünau,autobus,A36,1967314_east,"52.41361516,13.57379629",,,,,,,,1967977.0
Diepensee,autobus,AD/38,1967315_east,"52.30056922,13.58892002",,,,,,,,1967249.0
Kienberg,autobus,AD/38,1967316_east,"52.35176615,13.54930701",,,,,,,,1967566.0
Waltersdorf,autobus,AD/38,1967317_east,"52.36492901,13.55571241",,,,,,,,19671270.0
"Bohnsdorf, Waldstr.",autobus,AD/38,1967318_east,"52.38939719,13.57066656",,,,,,,,1967164.0
Joachimstr.,autobus,AD/38,1967319_east,"52.40316590,13.57664159",,,,,,,,1967530.0
S-Bhf. Grünau,autobus,AD/38,1967320_east,"52.41361516,13.57379629",,,,,,,,1967977.0
"Wartenberg, Siedlung",autobus,A39,1967321_east,"52.58393196,13.53076034",,,,,,,,19671281.0
"Wartenberg, Schule",autobus,A39,1967322_east,"52.58288333,13.52853971",,,,,,,,19671280.0
"Wartenberg, Lindenbergerstr.",autobus,A39,1967323_east,"52.57485383,13.51801594",,,,,,,,19671279.0
Falkenbergerchaussee Ecke Wartenbergerstr.,autobus,A39,1967324_east,"52.56529727,13.51255507",,,,,,,,1967296.0
Arnimstr. Ecke Wartenbergerstr.,autobus,A39,1967325_east,"52.55810653,13.51586070",,,,,,,,196770.0
"Buch, Kiesgruben",autobus,A42,1967328_east,"52.64175805,13.51596463",,,,,,,,1967194.0
Ludwig-Hoffmann-Krankenhaus,autobus,A42,1967329_east,"52.63316197,13.51360238",,,,,,,,1967691.0
"Karowerstr., Alt-Buch",autobus,A42,1967330_east,"52.63531074,13.49911856",,,,,,,,1967559.0
Strasse 78,autobus,A42,1967331_east,"52.61464604,13.48487327",,,,,,,,19671120.0
Alt-Karow,autobus,A42,1967332_east,"52.60931229,13.48126585",,,,,,,,196727.0
Güteraußenring,autobus,A42,1967333_east,"52.59988724,13.46929713",,,,,,,,1967414.0
Georgenstr.,autobus,A42,1967334_east,"52.59393881,13.46161525",,,,,,,,1967363.0
"Blankenburg, Bahnhofstr.",autobus,A42,1967335_east,"52.59138047,13.45351227",,,,,,,,1967154.0
"Heinersdorf, Kirche",autobus,A42,1967336_east,"52.56826376,13.44060190",,,,,,,,1967451.0
Am Steinberg,autobus,A42,1967337_east,"52.55648145,13.42930676",,,,,,,,196759.0
Prenzlauer Promenade Ecke Ostseestr.,autobus,A42,1967338_east,"52.55135441,13.43020267",,,,,,,,1967878.0
Ostseestr.,autobus,A42,1967339_east,"52.54785806,13.43852996",,,,,,,,1967828.0
Bürknersfelde,autobus,A43,1967340_east,"52.53888981,13.53415938",,,,,,,,1967217.0
"Marzahn, Berlinerchaussee",autobus,A43,1967341_east,"52.54286481,13.55012491",,,,,,,,1967738.0
Kolonie Springpfuhl,autobus,A43,1967342_east,"52.52565225,13.53413783",,,,,,,,1967587.0
"Marzahnerchaussee, Schule",autobus,A43,1967343_east,"52.51726622,13.52832434",,,,,,,,1967740.0
S-Bhf. Friedrichsfelde-Ost,autobus,A43,1967344_east,"52.51324537,13.52403058",,,,,,,,1967972.0
"Alt-Friedrichsfelde, Am Tierpark",autobus,A43,1967345_east,"52.50970259,13.51883251",,,,,,,,196723.0
U-Bhf. Friedrichsfelde,autobus,A43,1967346_east,"52.50624112,13.51285306",,,,,,,,19671192.0
"Hans-Loch-Str., Schule",autobus,A43,1967347_east,"52.50035514,13.49573653",,,,,,,,1967426.0
S-Bhf. Nöldnerplatz,autobus,A43,1967348_east,"52.50326620,13.48429373",,,,,,,,1967991.0
"Friedrichsfelde, Kirche",autobus,A43/R,1967349_east,"52.50577534,13.51929257",,,,,,,,1967331.0
U-Bhf. Friedrichsfelde,autobus,A43/R,1967350_east,"52.50624112,13.51285306",,,,,,,,19671192.0
Lincolnstr. Ecke Rummelsburgerstr.,autobus,A43/R,1967351_east,"52.50194868,13.50200316",,,,,,,,1967674.0
Weitlingstr. Ecke Rummelsburgerstr.,autobus,A43/R,1967352_east,"52.50094511,13.49302293",,,,,,,,19671292.0
S-Bhf. Nöldnerplatz,autobus,A43/R,1967353_east,"52.50326620,13.48429373",,,,,,,,1967991.0
"Hönow, Nord",autobus,A44,1967354_east,"52.55708326,13.63325403",,,,,,,,1967507.0
"Hönow, Dorfstr.",autobus,A44,1967355_east,"52.54884928,13.63648688",,,,,,,,1967506.0
Greifswalderstr.,autobus,A44,1967356_east,"52.53002871,13.62681794",,,,,,,,1967389.0
Am Rosenhag,autobus,A44,1967357_east,"52.52474356,13.62177583",,,,,,,,196758.0
S-Bhf. Mahlsdorf,autobus,A44,1967358_east,"52.51234909,13.61221794",,,,,,,,1967989.0
S-Bhf. Mahlsdorf,autobus,A44E,1967359_east,"52.51234909,13.61221794",,,,,,,,1967989.0
Am Rosenhag,autobus,A44E,1967360_east,"52.52474356,13.62177583",,,,,,,,196758.0
Hönowerstr. Ecke Greifswalderstr.,autobus,A44E,1967361_east,"52.53002742,13.62682480",,,,,,,,1967510.0
"Wilhelmsruh, Schillerstr.",autobus,A45,1967362_east,"52.58796525,13.36878165",,,,,,,,19671322.0
Hauptstr. Ecke Edelweißstr.,autobus,A45,1967363_east,"52.58637926,13.36752939",,,,,,,,1967434.0
Heinrich-Mann-Platz,autobus,A45,1967364_east,"52.57297246,13.39214613",,,,,,,,1967454.0
"Pankow, Kirche",autobus,A45,1967365_east,"52.57124681,13.41067072",,,,,,,,1967835.0
Prenzlauer Promenade Ecke Kissingenstr.,autobus,A45,1967366_east,"52.56795805,13.42773437",,,,,,,,1967877.0
Am Steinberg,autobus,A45,1967367_east,"52.55648145,13.42930676",,,,,,,,196759.0
Hamburgerplatz,autobus,A45,1967368_east,"52.55539419,13.43897314",,,,,,,,1967423.0
Lichtenbergerstr. Ecke Klement-Gottwald-Allee,autobus,A45,1967369_east,"52.55200518,13.46547796",,,,,,,,1967667.0
Klement-Gottwald-Allee Ecke Rennbahnstr.,autobus,A45,1967370_east,"52.55694653,13.46696608",",+nan",,,,,,,1967575.0
"Weißensee, Schwarzelfenweg",autobus,A45,1967371_east,"52.56729838,13.46535453",,,,,,,,19671296.0
"Ahrensfeld, Kirche",autobus,A46,1967372_east,"52.57532170,13.57651561",,,,,,,,19679.0
Malchowerweg,autobus,A46,1967374_east,"52.56152031,13.50048590",,,,,,,,1967714.0
Buschallee Ecke Klement-Gottwald-Allee,autobus,A46,1967375_east,"52.55387174,13.46754341",,,,,,,,1967209.0
Feldtmannstr.,autobus,A46,1967376_east,"52.56401588,13.46980858",,,,,,,,1967305.0
"Malchow, Dorfstr.",autobus,A46,1967377_east,"52.58046227,13.48279758",,,,,,,,1967713.0
Bhf. Schöneweide,autobus,A47,1967378_east,"52.45374952,13.51020040",,,,,,,,1967134.0
Sterndamm,autobus,A47,1967379_east,"52.44658675,13.50653487",,,,,,,,19671112.0
Johannisthalerchaussee,autobus,A47,1967380_east,"52.45136033,13.48829962",,,,,,,,1967533.0
Baumschulenstr. Ecke Südostallee,autobus,A47,1967381_east,"52.46095842,13.48119184",,,,,,,,196790.0
S-Bhf. Baumschulenweg,autobus,A47,1967382_east,"52.46749675,13.48937988",,,,,,,,1967968.0
"Treptow, Rathaus",autobus,A47,1967383_east,"52.48358900,13.48032476",,,,,,,,19671173.0
Sowjetisches Ehrenmal,autobus,A47,1967384_east,"52.48535896,13.46705341",,,,,,,,19671084.0
S-Bhf. Treptower Park,autobus,A47,1967385_east,"52.49403641,13.46076257",,,,,,,,19671003.0
Bhf. Schöneweide,autobus,A48,1967386_east,"52.45374952,13.51020040",,,,,,,,1967134.0
Königsheideweg,autobus,A48,1967387_east,"52.44659457,13.50649293",,,,,,,,1967629.0
Lindhorstweg,autobus,A48,1967388_east,"52.44148584,13.50065006",,,,,,,,1967687.0
Stubenrauchstr.,autobus,A48,1967389_east,"52.42413802,13.48549509",,,,,,,,19671129.0
"Bhf. Kaulsdorf, Bausdorfstr.",autobus,A49,1967390_east,"52.51315438,13.59093779",,,,,,,,1967129.0
Ridbacherstr.,autobus,A49,1967391_east,"52.52745720,13.60644776",,,,,,,,1967936.0
Grottkauerstr.,autobus,A49,1967392_east,"52.52796238,13.60080528",,,,,,,,1967395.0
Uckermarkstr.,autobus,A49,1967393_east,"52.52145144,13.59672460",,,,,,,,19671234.0
"Niederschönhausen, Rolandstr.",autobus,A50,1967394_east,"52.58358273,13.42110944",,,,,,,,1967781.0
Ossietzkyplatz,autobus,A50,1967395_east,"52.58150701,13.40424959",,,,,,,,1967819.0
Kurt-Fischer-Platz,autobus,A50,1967396_east,"52.57973293,13.39833073",,,,,,,,1967618.0
"Pankow, Rathaus",autobus,A50,1967397_east,"52.56953909,13.40418644",,,,,,,,1967837.0
Mühlenstr. Ecke Florastr.,autobus,A50,1967398_east,"52.56538943,13.40655805",,,,,,,,1967767.0
U-Bhf. Pankow (Vinetastr.),autobus,A50,1967399_east,"52.55932980,13.41333319",,,,,,,,19671214.0
S-Bhf. Buch,autobus,51B,1967400_east,"52.63683138,13.49252086",,,,,,,,1967971.0
Karowerstr.,autobus,51B,1967401_east,"52.63349335,13.49885777",,,,,,,,1967560.0
Akademie der Wissenschaften,autobus,51B,1967402_east,"52.63612869,13.50189862",,,,,,,,196710.0
Ostseestr. vor Prenzlauer Promenade,autobus,A54,1967403_east,"52.55070784,13.43120023",,,,,,,,1967829.0
Storkowerstr. Ecke Greifswalderstr.,autobus,A54,1967404_east,"52.54126983,13.43885375",,,,,,,,19671114.0
Stedingerweg,autobus,A54,1967405_east,"52.53925005,13.45247205",,,,,,,,19671107.0
S-Bhf. Lenninallee,autobus,A54,1967407_east,"52.52851724,13.45572809",,,,,,,,1967988.0
Dimitroffstr. vor Cotheniusstr.,autobus,A54,1967408_east,"52.52774514,13.44620525",,,,,,,,1967252.0
"Weißensee, Nüßlerstr.",autobus,A56,1967409_east,"52.56398538,13.46973377",,,,,,,,19671294.0
Gehringstr. Ecke Gustav-Adolf-Str.,autobus,A56,1967410_east,"52.56275860,13.45929567",,,,,,,,1967360.0
Rennbahnstr. Ecke Gustav-Adolf-Str.,autobus,A56,1967411_east,"52.56218648,13.45426704",,,,,,,,1967930.0
Wigandstalerstr. Ecke Gustav-Adolf-Str.,autobus,A56,1967412_east,"52.55784135,13.44431694",,,,,,,,19671315.0
Hamburgerplatz,autobus,A56,1967413_east,"52.55539419,13.43897314",,,,,,,,1967423.0
Gustav-Adolf-Str. (Spitze),autobus,A56,1967414_east,"52.55176158,13.43041792",,,,,,,,1967409.0
Kanzowstr.,autobus,A56,1967415_east,"52.54489809,13.42748473",,,,,,,,1967549.0
Kniprodestr. Ecke Ermländischestr.,autobus,A57,1967416_east,"52.53214047,13.44149841",,,,,,,,1967583.0
Königstor,autobus,A57,1967417_east,"52.52520269,13.41983499",,,,,,,,1967630.0
U-Bhf. Luxemburgplatz,autobus,A57,1967418_east,"52.52797823,13.41037278",,,,,,,,19671206.0
Deutsche Staatsoper,autobus,A57,1967419_east,"52.51738793,13.39467182",,,,,,,,1967247.0
Bhf. Friedrichstr.,autobus,A57,1967420_east,"52.52056066,13.38823192",,,,,,,,1967124.0
Oranienburger Tor,autobus,A57,1967421_east,"52.52716314,13.38710905",,,,,,,,1967806.0
Scharnhorststr. Ecke Kielerstr.,autobus,A57,1967423_east,"52.53435221,13.37030740",,,,,,,,19671018.0
Fontanestr.,autobus,A58,1967424_east,"52.58985939,13.36119357",,,,,,,,1967314.0
Edelweißstr.,autobus,A58,1967425_east,"52.58637604,13.36752519",,,,,,,,1967271.0
Ehrenmal,autobus,A58,1967426_east,"52.57958420,13.37597472",,,,,,,,1967275.0
Heinrich-Mann-Platz,autobus,A58,1967427_east,"52.57297246,13.39214613",,,,,,,,1967454.0
"Pankow, Kirche",autobus,A58,1967428_east,"52.57124681,13.41067072",,,,,,,,1967835.0
S-Bhf. Pankow,autobus,A58,1967429_east,"52.56742037,13.41225013",,,,,,,,1967993.0
U-Bhf. Pankow (Vinetastr.),autobus,A58,1967430_east,"52.55932980,13.41333319",,,,,,,,19671214.0
Walther-Ulbricht-Stadion,autobus,A59,1967431_east,"52.53664798,13.37829813",,,,,,,,19671271.0
Invalidenstr.,autobus,A59,1967432_east,"52.53056312,13.38307277",,,,,,,,1967521.0
Bhf. Friedrichstr.,autobus,A59,1967433_east,"52.52056066,13.38823192",,,,,,,,1967124.0
Französischestr.,autobus,A59,1967434_east,"52.51479531,13.38921161",,,,,,,,1967320.0
U-Bhf. Stadtmitte,autobus,A59,1967435_east,"52.51041797,13.38988130",,,,,,,,19671224.0
U-Bhf. Thälmannplatz,autobus,A59,1967436_east,"52.51144420,13.38343291",,,,,,,,19671230.0
"Glienicke, Kirche",autobus,A7,1967437_east,"52.63062737,13.31286192",,,,,,,,1967370.0
Elsässerstr.,autobus,A7,1967438_east,"52.63337295,13.34510342",,,,,,,,1967286.0
"Schildow, Kirche",autobus,A7,1967439_east,"52.63581867,13.37771917",,,,,,,,19671020.0
"Blankenfelde, Hauptstr.",autobus,A7,1967440_east,"52.63002535,13.38262328",,,,,,,,1967155.0
Industriebahn,autobus,A7,1967441_east,"52.61860431,13.39039578",,,,,,,,1967516.0
Nordend,autobus,A7,1967442_east,"52.59006569,13.40174057",,,,,,,,1967787.0
Kurt-Fischer-Platz,autobus,A7,1967443_east,"52.57973293,13.39833073",,,,,,,,1967618.0
"Pankow, Rathaus",autobus,A7,1967444_east,"52.56953909,13.40418644",,,,,,,,1967837.0
Florastr. Ecke Mühlenstr.,autobus,A7,1967445_east,"52.56537666,13.40654063",,,,,,,,1967311.0
U-Bhf. Vinetastr.,autobus,A7,1967446_east,"52.55981894,13.41320863",,,,,,,,19671232.0
"Schildow, Kirche",autobus,A7E,1967447_east,"52.63581867,13.37771917",,,,,,,,19671020.0
"Blankenfelde, Hauptstr.",autobus,A7E,1967448_east,"52.63002535,13.38262328",,,,,,,,1967155.0
Nordend,autobus,A7E,1967449_east,"52.59006569,13.40174057",,,,,,,,1967787.0
Kurt-Fischer-Platz,autobus,A7E,1967450_east,"52.57973293,13.39833073",,,,,,,,1967618.0
"Pankow, Rathaus",autobus,A7E,1967451_east,"52.56953909,13.40418644",,,,,,,,1967837.0
Florastr. Ecke Mühlenstr.,autobus,A7E,1967452_east,"52.56537666,13.40654063",,,,,,,,1967311.0
U-Bhf. Vinetastr.,autobus,A7E,1967453_east,"52.55981894,13.41320863",,,,,,,,19671232.0
"Waldesruh, Malhlsdorferallee",autobus,A8,1967454_east,"52.48493120,13.62906944",,,,,,,,19671259.0
Fichtestr. Ecke Schopenhauerstr.,autobus,A8,1967455_east,"52.47979925,13.61729231",,,,,,,,1967309.0
Hultschinerdamm,autobus,A8,1967456_east,"52.47711374,13.60059814",,,,,,,,1967500.0
Sadowastr. Ecke Ulmenstr.,autobus,A8,1967457_east,"52.48270617,13.58489909",,,,,,,,19671013.0
Jägerstr.,autobus,A8,1967458_east,"52.48596831,13.57416719",,,,,,,,1967538.0
"Biesdorf, Köpenickerstr.",autobus,A8,1967459_east,"52.48659005,13.56036458",,,,,,,,1967143.0
Dohlengrund,autobus,A8,1967460_east,"52.49817919,13.56339788",,,,,,,,1967255.0
"Alt-Biesdorf, Oberfeldstr.",autobus,A8,1967461_east,"52.50918607,13.55334706",",+nan",,,,,,,196720.0
"Alt-Friedrichsfelde, Am Tierpark",autobus,A8,1967462_east,"52.50970259,13.51883251",,,,,,,,196723.0
U-Bhf. Friedrichsfelde,autobus,A8,1967463_east,"52.50624112,13.51285306",,,,,,,,19671192.0
Sadowastr.,autobus,A8E,1967464_east,"52.48267547,13.58483307",,,,,,,,19671012.0
Jägerstr.,autobus,A8E,1967465_east,"52.48596831,13.57416719",,,,,,,,1967538.0
"Biesdorf, Köpenickerstr.",autobus,A8E,1967466_east,"52.48659005,13.56036458",,,,,,,,1967143.0
Dohlengrund,autobus,A8E,1967467_east,"52.49817919,13.56339788",,,,,,,,1967255.0
"Alt-Biesdorf, Oberfeldstr.",autobus,A8E,1967468_east,"52.50918607,13.55334706",",+nan",,,,,,,196720.0
"Alt-Friedrichsfelde, Am Tierpark",autobus,A8E,1967469_east,"52.50970259,13.51883251",,,,,,,,196723.0
U-Bhf. Friedrichsfelde,autobus,A8E,1967470_east,"52.50624112,13.51285306",,,,,,,,19671192.0
Kurischestr.,autobus,A9,1967471_east,"52.53541469,13.43908579",,,,,,,,1967617.0
Königstor,autobus,A9,1967472_east,"52.52520269,13.41983499",,,,,,,,1967630.0
U-Bhf. Luxemburgplatz,autobus,A9,1967473_east,"52.52797823,13.41037278",,,,,,,,19671206.0
Deutsche Staatsoper,autobus,A9,1967474_east,"52.51738793,13.39467182",,,,,,,,1967247.0
Friedrichstr. Ecke Unter den Linden,autobus,A9,1967475_east,"52.51718498,13.38882143",,,,,,,,1967338.0
Otto-Grotewohl-Str.,autobus,A9,1967476_east,"52.51648504,13.38074919",,,,,,,,1967830.0
Neu-Lindenberg,autobus,AL,1967477_east,"52.60088563,13.55479409",,,,,,,,1967776.0
"Lindenberg, Schule",autobus,AL,1967478_east,"52.60315194,13.53344348",,,,,,,,1967679.0
"Lindenberg, Dorf",autobus,AL,1967479_east,"52.60155977,13.51999473",,,,,,,,1967677.0
"Lindenberg, Mühle",autobus,AL,1967480_east,"52.59740281,13.50726274",,,,,,,,1967678.0
"Malchow, Dorfstr.",autobus,AL,1967481_east,"52.58046227,13.48279758",,,,,,,,1967713.0
Friedrichstr.,s-bahn,KBS 101,1967482_east,"52.52027778,13.38694444",Q111219456,,,,,,,1967334.0
Marx-Engels-Platz,s-bahn,KBS 101,1967483_east,"52.52260000,13.40220000",Q689312,,,,,,,1967737.0
Alexanderplatz,s-bahn,KBS 101,1967484_east,"52.52138889,13.41194444",Q111324700,,,,,,,196713.0
Jannowitzbrücke,s-bahn,KBS 101,1967485_east,"52.51482222,13.41795000",Q27955427,,,,,,,1967526.0
Ostbahnhof,s-bahn,KBS 101,1967486_east,"52.51000000,13.43470000",Q111325075,,,,,,,1967822.0
Warschauer Str.,s-bahn,KBS 101,1967487_east,"52.50641667,13.45095556",Q111252298,,,,,,,19671276.0
Ostkreuz,s-bahn,KBS 101,1967488_east,"52.50310000,13.46890000",Q111251530,,,,,,,1967824.0
Nöldnerplatz,s-bahn,KBS 101,1967489_east,"52.50380000,13.48530000",Q4892447,,,,,,,1967790.0
Lichtenberg,s-bahn,KBS 101,1967490_east,"52.51060000,13.49640000",Q634247,,,,,,,1967665.0
Friedrichsfelde Ost,s-bahn,KBS 101,1967491_east,"52.51410000,13.51980000",Q800473,,,,,,,1967330.0
Biesdorf,s-bahn,KBS 101,1967492_east,"52.51310000,13.55540000",Q4892357,,,,,,,1967142.0
Kaulsdorf,s-bahn,KBS 101,1967493_east,"52.51210000,13.59040000",Q800478,,,,,,,1967563.0
Mahlsdorf,s-bahn,KBS 101,1967494_east,"52.51210000,13.61060000",Q800484,,,,,,,1967710.0
Hoppegarten (Mark),s-bahn,KBS 101,1967495_east,"52.51830000,13.67340000",Q15197357,,,,,,,1967498.0
Neuenhagen (b Bln),s-bahn,KBS 101,1967496_east,"52.52080000,13.70030000",Q7001614,,,,,,,1967778.0
Fredersdorf (b Bln),s-bahn,KBS 101,1967497_east,"52.52650000,13.76250000",Q15197387,,,,,,,1967321.0
Petershagen Nord,s-bahn,KBS 101,1967498_east,"52.52910000,13.79100000",Q7178217,,,,,,,1967853.0
Strausberg,s-bahn,KBS 101,1967499_east,"52.53193300,13.83693300",Q7622326,,,,,,,19671122.0
Strausberg,s-bahn,KBS 101c,1967500_east,"52.53193300,13.83693300",Q7622326,,,,,,,19671122.0
Strausberg Stadt,s-bahn,KBS 101c,1967501_east,"52.57660000,13.88780000",Q7622325,,,,,,,19671124.0
Strausberg Nord,s-bahn,KBS 101c,1967502_east,"52.59020000,13.90840000",Q7622324,,,,,,,19671123.0
Friedrichstr.,s-bahn,KBS 102,1967503_east,"52.52027778,13.38694444",Q111219456,,,,,,,1967334.0
Marx-Engels-Platz,s-bahn,KBS 102,1967504_east,"52.52260000,13.40220000",Q689312,,,,,,,1967737.0
Alexanderplatz,s-bahn,KBS 102,1967505_east,"52.52138889,13.41194444",Q111324700,,,,,,,196713.0
Jannowitzbrücke,s-bahn,KBS 102,1967506_east,"52.51482222,13.41795000",Q27955427,,,,,,,1967526.0
Ostbahnhof,s-bahn,KBS 102,1967507_east,"52.51000000,13.43470000",Q111325075,,,,,,,1967822.0
Warschauer Str.,s-bahn,KBS 102,1967508_east,"52.50641667,13.45095556",Q111252298,,,,,,,19671276.0
Ostkreuz,s-bahn,KBS 102,1967509_east,"52.50310000,13.46890000",Q111251530,,,,,,,1967824.0
Rummelsburg,s-bahn,KBS 102,1967510_east,"52.50124400,13.47854500",Q15107132,,,,,,,1967954.0
Betriebsbahnhof Rummelsburg,s-bahn,KBS 102,1967511_east,"52.49390000,13.49780000",Q829009,,,,,,,1967119.0
Karlshorst,s-bahn,KBS 102,1967512_east,"52.48080000,13.52580000",Q111327045,,,,,,,1967553.0
Wuhlheide,s-bahn,KBS 102,1967513_east,"52.46890000,13.55330000",Q800514,,,,,,,19671349.0
Köpenick,s-bahn,KBS 102,1967514_east,"52.45860000,13.58080000",Q800479,,,,,,,1967634.0
Hirschgarten,s-bahn,KBS 102,1967515_east,"52.45790000,13.60320000",Q4892435,,,,,,,1967475.0
Friedrichshagen,s-bahn,KBS 102,1967516_east,"52.45740000,13.62330000",Q800474,,,,,,,1967332.0
Rahnsdorf,s-bahn,KBS 102,1967517_east,"52.45163720,13.68997760",Q800489,,,,,,,1967897.0
Wilhelmshagen,s-bahn,KBS 102,1967518_east,"52.43860000,13.72220000",Q800494,,,,,,,19671319.0
Erkner,s-bahn,KBS 102,1967519_east,"52.42960000,13.75130000",Q14434071,,,,,,,1967289.0
Friedrichstr.,s-bahn,KBS 103,1967520_east,"52.52027778,13.38694444",Q111219456,,,,,,,1967334.0
Marx-Engels-Platz,s-bahn,KBS 103,1967521_east,"52.52260000,13.40220000",Q689312,,,,,,,1967737.0
Alexanderplatz,s-bahn,KBS 103,1967522_east,"52.52138889,13.41194444",Q111324700,,,,,,,196713.0
Jannowitzbrücke,s-bahn,KBS 103,1967523_east,"52.51482222,13.41795000",Q27955427,,,,,,,1967526.0
Ostbahnhof,s-bahn,KBS 103,1967524_east,"52.51000000,13.43470000",Q111325075,,,,,,,1967822.0
Warschauer Str.,s-bahn,KBS 103,1967525_east,"52.50641667,13.45095556",Q111252298,,,,,,,19671276.0
Treptower Park,s-bahn,KBS 103,1967526_east,"52.49380000,13.46180000",Q559274,,,,,,,19671174.0
Plänterwald,s-bahn,KBS 103,1967527_east,"52.47860000,13.47330000",Q7205917,,,,,,,1967864.0
Baumschulenweg,s-bahn,KBS 103,1967528_east,"52.46750000,13.48972200",Q324336,,,,,,,196791.0
Schöneweide,s-bahn,KBS 103,1967529_east,"52.45500000,13.50944444",Q111323931,,,,,,,19671053.0
Betriebsbahnhof Schöneweide,s-bahn,KBS 103,1967530_east,"52.44676000,13.52391000",Q4526101,,,,,,,1967120.0
Adlershof,s-bahn,KBS 103,1967531_east,"52.43472222,13.54138889",Q323551,,,,,,,19676.0
Grünau,s-bahn,KBS 103,1967532_east,"52.41220000,13.57460000",Q111307258,,,,,,,1967404.0
Eichwalde,s-bahn,KBS 103,1967533_east,"52.37150000,13.61520000",Q19274479,,,,,,,1967281.0
Zeuthen,s-bahn,KBS 103,1967534_east,"52.34860000,13.62740000",Q8069824,,,,,,,19671362.0
Wildau,s-bahn,KBS 103,1967535_east,"52.32000000,13.63400000",Q8000974,,,,,,,19671316.0
Königs Wusterhausen,s-bahn,KBS 103,1967536_east,"52.29660000,13.63110000",Q178002,,,,,,,1967628.0
Friedrichstr.,s-bahn,KBS 103a,1967537_east,"52.52027778,13.38694444",Q111219456,,,,,,,1967334.0
Marx-Engels-Platz,s-bahn,KBS 103a,1967538_east,"52.52260000,13.40220000",Q689312,,,,,,,1967737.0
Alexanderplatz,s-bahn,KBS 103a,1967539_east,"52.52138889,13.41194444",Q111324700,,,,,,,196713.0
Jannowitzbrücke,s-bahn,KBS 103a,1967540_east,"52.51482222,13.41795000",Q27955427,,,,,,,1967526.0
Ostbahnhof,s-bahn,KBS 103a,1967541_east,"52.51000000,13.43470000",Q111325075,,,,,,,1967822.0
Warschauer Str.,s-bahn,KBS 103a,1967542_east,"52.50641667,13.45095556",Q111252298,,,,,,,19671276.0
Treptower Park,s-bahn,KBS 103a,1967543_east,"52.49380000,13.46180000",Q559274,,,,,,,19671174.0
Plänterwald,s-bahn,KBS 103a,1967544_east,"52.47860000,13.47330000",Q7205917,,,,,,,1967864.0
Baumschulenweg,s-bahn,KBS 103a,1967545_east,"52.46750000,13.48972200",Q324336,,,,,,,196791.0
Schöneweide,s-bahn,KBS 103a,1967546_east,"52.45500000,13.50944444",Q111323931,,,,,,,19671053.0
Betriebsbahnhof Schöneweide,s-bahn,KBS 103a,1967547_east,"52.44676000,13.52391000",Q4526101,,,,,,,1967120.0
Adlershof,s-bahn,KBS 103a,1967548_east,"52.43472222,13.54138889",Q323551,,,,,,,19676.0
Altglienicke,s-bahn,KBS 103a,1967549_east,"52.40730000,13.55880000",Q4736651,,,,,,,196746.0
Grünbergallee,s-bahn,KBS 103a,1967550_east,"52.39920000,13.54160000",Q5612896,,,,,,,1967405.0
Zentralflughafen Berlin-Schönefeld,s-bahn,KBS 103a,1967551_east,"52.39140000,13.51280000",Q661069,,,,,,,19671358.0
Oranienburg,s-bahn,KBS 104,1967552_east,"52.75360000,13.24960000",Q2341669,,,,,,,1967804.0
Lehnitz,s-bahn,KBS 104,1967553_east,"52.74110000,13.26350000",Q4258498,,,,,,,1967647.0
Borgsdorf,s-bahn,KBS 104,1967554_east,"52.71550000,13.27640000",Q4093486,,,,,,,1967167.0
Birkenwerder,s-bahn,KBS 104,1967555_east,"52.68850000,13.28880000",Q2343634,,,,,,,1967147.0
Hohen Neuendorf (b Bln),s-bahn,KBS 104,1967556_east,"52.66840000,13.28700000",Q4500489,,,,,,,1967481.0
Bergfelde (b Bln),s-bahn,KBS 104,1967557_east,"52.67020000,13.32030000",Q4891640,,,,,,,1967102.0
Schönfließ,s-bahn,KBS 104,1967558_east,"52.66480000,13.33970000",Q801423,,,,,,,19671054.0
Blankenburg,s-bahn,KBS 104,1967559_east,"52.59150000,13.44350000",Q800469,,,,,,,1967153.0
Pankow-Heinersdorf,s-bahn,KBS 104,1967560_east,"52.57806530,13.42950930",Q4892366,,,,,,,1967839.0
Pankow,s-bahn,KBS 104,1967561_east,"52.56670000,13.41110000",Q111273850,,,,,,,1967833.0
Schönhauserallee,s-bahn,KBS 104,1967562_east,"52.54932900,13.41370600",Q111264493,,,,,,,19671055.0
Prenzlauerallee,s-bahn,KBS 104,1967563_east,"52.54477500,13.42611600",Q32661483,,,,,,,1967874.0
Greifswalder Str.,s-bahn,KBS 104,1967564_east,"52.53972222,13.43944444",Q439246,,,,,,,1967388.0
Leninallee,s-bahn,KBS 104,1967565_east,"52.52950000,13.45480000",Q800507,,,,,,,1967653.0
Zentralviehhof,s-bahn,KBS 104,1967566_east,"52.52380000,13.46440000",Q800512,,,,,,,19671360.0
Frankfurterallee,s-bahn,KBS 104,1967567_east,"52.51416667,13.47472222",Q111250033,,,,,,,1967316.0
Warschauer Str.,s-bahn,KBS 104,1967568_east,"52.50641667,13.45095556",Q111252298,,,,,,,19671276.0
Ostbahnhof,s-bahn,KBS 104,1967569_east,"52.51000000,13.43470000",Q111325075,,,,,,,1967822.0
Hennigsdorf (b Bln),s-bahn,KBS 104d,1967570_east,"52.63800000,13.20570000",Q800909,,,,,,,1967456.0
Hennigsdorf Nord,s-bahn,KBS 104d,1967571_east,"52.66000000,13.20330000",Q685717,,,,,,,1967457.0
Hohenschöpping,s-bahn,KBS 104d,1967572_east,"52.67000000,13.19450000",Q19274489,,,,,,,1967486.0
Velten (Mark),s-bahn,KBS 104d,1967573_east,"52.68500000,13.17222200",Q19274518,,,,,,,19671248.0
Blankenburg,s-bahn,KBS 105,1967574_east,"52.59150000,13.44350000",Q800469,,,,,,,1967153.0
Pankow-Heinersdorf,s-bahn,KBS 105,1967575_east,"52.57806530,13.42950930",Q4892366,,,,,,,1967839.0
Pankow,s-bahn,KBS 105,1967576_east,"52.56670000,13.41110000",Q111273850,,,,,,,1967833.0
Schönhauserallee,s-bahn,KBS 105,1967577_east,"52.54932900,13.41370600",Q111264493,,,,,,,19671055.0
Prenzlauerallee,s-bahn,KBS 105,1967578_east,"52.54477500,13.42611600",Q32661483,,,,,,,1967874.0
Greifswalder Str.,s-bahn,KBS 105,1967579_east,"52.53972222,13.43944444",Q439246,,,,,,,1967388.0
Leninallee,s-bahn,KBS 105,1967580_east,"52.52950000,13.45480000",Q800507,,,,,,,1967653.0
Zentralviehhof,s-bahn,KBS 105,1967581_east,"52.52380000,13.46440000",Q800512,,,,,,,19671360.0
Frankfurterallee,s-bahn,KBS 105,1967582_east,"52.51416667,13.47472222",Q111250033,,,,,,,1967316.0
Ostkreuz,s-bahn,KBS 105,1967583_east,"52.50310000,13.46890000",Q111251530,,,,,,,1967824.0
Treptower Park,s-bahn,KBS 105,1967584_east,"52.49380000,13.46180000",Q559274,,,,,,,19671174.0
Plänterwald,s-bahn,KBS 105,1967585_east,"52.47860000,13.47330000",Q7205917,,,,,,,1967864.0
Baumschulenweg,s-bahn,KBS 105,1967586_east,"52.46750000,13.48972200",Q324336,,,,,,,196791.0
Schöneweide,s-bahn,KBS 105,1967587_east,"52.45500000,13.50944444",Q111323931,,,,,,,19671053.0
Betriebsbahnhof Schöneweide,s-bahn,KBS 105,1967588_east,"52.44676000,13.52391000",Q4526101,,,,,,,1967120.0
Adlershof,s-bahn,KBS 105,1967589_east,"52.43472222,13.54138889",Q323551,,,,,,,19676.0
Grünau,s-bahn,KBS 105,1967590_east,"52.41220000,13.57460000",Q111307258,,,,,,,1967404.0
Eichwalde,s-bahn,KBS 105,1967591_east,"52.37150000,13.61520000",Q19274479,,,,,,,1967281.0
Zeuthen,s-bahn,KBS 105,1967592_east,"52.34860000,13.62740000",Q8069824,,,,,,,19671362.0
Bernau (b Bln),s-bahn,KBS 106,1967593_east,"52.67630000,13.59310000",Q479789,,,,,,,1967114.0
Zepernick (b Bernau),s-bahn,KBS 106,1967594_east,"52.65980000,13.53420000",Q801657,,,,,,,19671361.0
Röntgental,s-bahn,KBS 106,1967595_east,"52.64870000,13.51360000",Q801386,,,,,,,1967957.0
Buch,s-bahn,KBS 106,1967596_east,"52.63590000,13.49170000",Q4892359,,,,,,,1967193.0
Karow,s-bahn,KBS 106,1967597_east,"52.61500000,13.46920000",Q111324168,,,,,,,1967558.0
Blankenburg,s-bahn,KBS 106,1967598_east,"52.59150000,13.44350000",Q800469,,,,,,,1967153.0
Pankow-Heinersdorf,s-bahn,KBS 106,1967599_east,"52.57806530,13.42950930",Q4892366,,,,,,,1967839.0
Pankow,s-bahn,KBS 106,1967600_east,"52.56670000,13.41110000",Q111273850,,,,,,,1967833.0
Schönhauserallee,s-bahn,KBS 106,1967601_east,"52.54932900,13.41370600",Q111264493,,,,,,,19671055.0
Prenzlauerallee,s-bahn,KBS 106,1967602_east,"52.54477500,13.42611600",Q32661483,,,,,,,1967874.0
Greifswalder Str.,s-bahn,KBS 106,1967603_east,"52.53972222,13.43944444",Q439246,,,,,,,1967388.0
Leninallee,s-bahn,KBS 106,1967604_east,"52.52950000,13.45480000",Q800507,,,,,,,1967653.0
Zentralviehhof,s-bahn,KBS 106,1967605_east,"52.52380000,13.46440000",Q800512,,,,,,,19671360.0
Frankfurterallee,s-bahn,KBS 106,1967606_east,"52.51416667,13.47472222",Q111250033,,,,,,,1967316.0
Ostkreuz,s-bahn,KBS 106,1967607_east,"52.50310000,13.46890000",Q111251530,,,,,,,1967824.0
Treptower Park,s-bahn,KBS 106,1967608_east,"52.49380000,13.46180000",Q559274,,,,,,,19671174.0
Plänterwald,s-bahn,KBS 106,1967609_east,"52.47860000,13.47330000",Q7205917,,,,,,,1967864.0
Baumschulenweg,s-bahn,KBS 106,1967610_east,"52.46750000,13.48972200",Q324336,,,,,,,196791.0
Schöneweide,s-bahn,KBS 106,1967611_east,"52.45500000,13.50944444",Q111323931,,,,,,,19671053.0
Oberspree,s-bahn,KBS 106,1967612_east,"52.45250000,13.53820000",Q15192700,,,,,,,1967794.0
Spindlersfeld,s-bahn,KBS 106,1967613_east,"52.44720000,13.56130000",Q4892371,,,,,,,19671098.0
Schönhauserallee,s-bahn,KBS 106a,1967614_east,"52.54932900,13.41370600",Q111264493,,,,,,,19671055.0
Prenzlauerallee,s-bahn,KBS 106a,1967615_east,"52.54477500,13.42611600",Q32661483,,,,,,,1967874.0
Greifswalder Str.,s-bahn,KBS 106a,1967616_east,"52.53972222,13.43944444",Q439246,,,,,,,1967388.0
Leninallee,s-bahn,KBS 106a,1967617_east,"52.52950000,13.45480000",Q800507,,,,,,,1967653.0
Zentralviehhof,s-bahn,KBS 106a,1967618_east,"52.52380000,13.46440000",Q800512,,,,,,,19671360.0
Frankfurterallee,s-bahn,KBS 106a,1967619_east,"52.51416667,13.47472222",Q111250033,,,,,,,1967316.0
Ostkreuz,s-bahn,KBS 106a,1967620_east,"52.50310000,13.46890000",Q111251530,,,,,,,1967824.0
Treptower Park,s-bahn,KBS 106a,1967621_east,"52.49380000,13.46180000",Q559274,,,,,,,19671174.0
Plänterwald,s-bahn,KBS 106a,1967622_east,"52.47860000,13.47330000",Q7205917,,,,,,,1967864.0
Baumschulenweg,s-bahn,KBS 106a,1967623_east,"52.46750000,13.48972200",Q324336,,,,,,,196791.0
Schöneweide,s-bahn,KBS 106a,1967624_east,"52.45500000,13.50944444",Q111323931,,,,,,,19671053.0
Betriebsbahnhof Schöneweide,s-bahn,KBS 106a,1967625_east,"52.44676000,13.52391000",Q4526101,,,,,,,1967120.0
Adlershof,s-bahn,KBS 106a,1967626_east,"52.43472222,13.54138889",Q323551,,,,,,,19676.0
Altglienicke,s-bahn,KBS 106a,1967627_east,"52.40730000,13.55880000",Q4736651,,,,,,,196746.0
Grünbergallee,s-bahn,KBS 106a,1967628_east,"52.39920000,13.54160000",Q5612896,,,,,,,1967405.0
Zentralflughafen Berlin-Schönefeld,s-bahn,KBS 106a,1967629_east,"52.39140000,13.51280000",Q661069,,,,,,,19671358.0
S-Bhf. Friedrichshagen (Grenze),tram,"S-Bhf. Friedrichshagen <> Rüdersdorf, Karl-Marx-Platz (VEB Schöneiche-Rüdersdorf)",1967668_east,"52.45769560,13.62667120",Q66499230,,,,,,,1967974.0
"Schöneiche, Waldstr.",tram,"S-Bhf. Friedrichshagen <> Rüdersdorf, Karl-Marx-Platz (VEB Schöneiche-Rüdersdorf)",1967669_east,"52.46776642,13.68198322",,,,,,,,19671052.0
"Schöneiche, Goethepark",tram,"S-Bhf. Friedrichshagen <> Rüdersdorf, Karl-Marx-Platz (VEB Schöneiche-Rüdersdorf)",1967670_east,"52.47079746,13.68834961",,,,,,,,19671048.0
"Schöneiche, Dorfstr.",tram,"S-Bhf. Friedrichshagen <> Rüdersdorf, Karl-Marx-Platz (VEB Schöneiche-Rüdersdorf)",1967671_east,"52.47856621,13.69495789",,,,,,,,19671047.0
Dorfaue,tram,"S-Bhf. Friedrichshagen <> Rüdersdorf, Karl-Marx-Platz (VEB Schöneiche-Rüdersdorf)",1967672_east,"52.47886989,13.70037921",,,,,,,,1967260.0
"Schöneiche, Schillerstr.",tram,"S-Bhf. Friedrichshagen <> Rüdersdorf, Karl-Marx-Platz (VEB Schöneiche-Rüdersdorf)",1967673_east,"52.47747517,13.70876210",,,,,,,,19671051.0
"Schöneiche, Grätzwalde",tram,"S-Bhf. Friedrichshagen <> Rüdersdorf, Karl-Marx-Platz (VEB Schöneiche-Rüdersdorf)",1967674_east,"52.47410985,13.71327932",,,,,,,,19671049.0
"Schöneiche, Jägerstr.",tram,"S-Bhf. Friedrichshagen <> Rüdersdorf, Karl-Marx-Platz (VEB Schöneiche-Rüdersdorf)",1967675_east,"52.47278763,13.73056629",,,,,,,,19671050.0
"Rüdersdorf, Berghof",tram,"S-Bhf. Friedrichshagen <> Rüdersdorf, Karl-Marx-Platz (VEB Schöneiche-Rüdersdorf)",1967676_east,"52.47364542,13.76110048",,,,,,,,1967958.0
"Rüdersdorf, Torellplatz",tram,"S-Bhf. Friedrichshagen <> Rüdersdorf, Karl-Marx-Platz (VEB Schöneiche-Rüdersdorf)",1967677_east,"52.47407610,13.77142280",Q66542827,,,,,,,1967963.0
"Rüdersdorf, Heinitzstr.",tram,"S-Bhf. Friedrichshagen <> Rüdersdorf, Karl-Marx-Platz (VEB Schöneiche-Rüdersdorf)",1967678_east,"52.47300367,13.77654713",,,,,,,,1967959.0
"Rüdersdorf, Post",tram,"S-Bhf. Friedrichshagen <> Rüdersdorf, Karl-Marx-Platz (VEB Schöneiche-Rüdersdorf)",1967679_east,"52.47029587,13.78653797",,,,,,,,1967961.0
"Rüdersdorf, Schulstr.",tram,"S-Bhf. Friedrichshagen <> Rüdersdorf, Karl-Marx-Platz (VEB Schöneiche-Rüdersdorf)",1967680_east,"52.46997849,13.78702428",,,,,,,,1967962.0
"Rüdersdorf, Karl-Marx-Platz",tram,"S-Bhf. Friedrichshagen <> Rüdersdorf, Karl-Marx-Platz (VEB Schöneiche-Rüdersdorf)",1967681_east,"52.46647403,13.80512773",,,,,,,,1967960.0
S-Bhf. Rahnsdorf,tram,S-Bhf. Rahnsdorf <> Woltersdorfer Schleuse (VEB Woltersdorf),1967682_east,"52.45142247,13.69304560",,,,,,,,1967998.0
Goethestr.,tram,S-Bhf. Rahnsdorf <> Woltersdorfer Schleuse (VEB Woltersdorf),1967683_east,"52.45554577,13.72637715",,,,,,,,1967377.0
Eichendamm,tram,S-Bhf. Rahnsdorf <> Woltersdorfer Schleuse (VEB Woltersdorf),1967684_east,"52.45567448,13.73097129",,,,,,,,1967278.0
Lerchenstr.,tram,S-Bhf. Rahnsdorf <> Woltersdorfer Schleuse (VEB Woltersdorf),1967685_east,"52.45516415,13.73440924",,,,,,,,1967664.0
Fasanenstr.,tram,S-Bhf. Rahnsdorf <> Woltersdorfer Schleuse (VEB Woltersdorf),1967686_east,"52.45303126,13.74428068",,,,,,,,1967302.0
Thälmannplatz,tram,S-Bhf. Rahnsdorf <> Woltersdorfer Schleuse (VEB Woltersdorf),1967687_east,"52.45059921,13.75244097",,,,,,,,19671166.0
Blumenstr.,tram,S-Bhf. Rahnsdorf <> Woltersdorfer Schleuse (VEB Woltersdorf),1967688_east,"52.44907888,13.76010696",,,,,,,,1967160.0
"Woltersdorf, Krankenhaus",tram,S-Bhf. Rahnsdorf <> Woltersdorfer Schleuse (VEB Woltersdorf),1967689_east,"52.44726860,13.76152919",,,,,,,,19671345.0
Woltersdorfer Schleuse,tram,S-Bhf. Rahnsdorf <> Woltersdorfer Schleuse (VEB Woltersdorf),1967690_east,"52.44331332,13.76395552",,,,,,,,19671346.0
Pankow (Vinetastr.),u-bahn,A,1967691_east,"52.55916667,13.41333333",Q570906,,,,,,,1967834.0
Schönhauserallee,u-bahn,A,1967692_east,"52.54932889,13.41370611",Q47014936,,,,,,,19671057.0
Dimitroffstr.,u-bahn,A,1967693_east,"52.54166667,13.41222222",Q571382,,,,,,,1967250.0
Senefelderplatz,u-bahn,A,1967694_east,"52.53242000,13.41274300",Q32661454,,,,,,,19671068.0
Luxemburgplatz,u-bahn,A,1967695_east,"52.52833333,13.41027778",Q658790,,,,,,,1967697.0
Alexanderplatz,u-bahn,A,1967696_east,"52.52140000,13.41190000",Q17173458,,,,,,,196714.0
Klosterstr.,u-bahn,A,1967697_east,"52.51611111,13.41222222",Q657893,,,,,,,1967579.0
Märkisches Museum,u-bahn,A,1967698_east,"52.51194444,13.40888889",Q657871,,,,,,,1967761.0
Spittelmarkt,u-bahn,A,1967699_east,"52.51111111,13.40361111",Q569489,,,,,,,19671100.0
Hausvogteiplatz,u-bahn,A,1967700_east,"52.51305556,13.39666667",Q656523,,,,,,,1967435.0
Stadtmitte,u-bahn,A,1967701_east,"52.51220000,13.38940000",Q660066,,,,,,,19671105.0
Thälmannplatz,u-bahn,A,1967702_east,"52.51167000,13.38472000",Q658391,,,,,,,19671167.0
Alexanderplatz,u-bahn,E,1967703_east,"52.52140000,13.41190000",Q17173458,,,,,,,196714.0
Schillingstr.,u-bahn,E,1967704_east,"52.52027800,13.42166700",Q552899,,,,,,,19671021.0
Strausbergerplatz,u-bahn,E,1967705_east,"52.51805556,13.43083333",Q570999,,,,,,,19671125.0
Marchlewskistr.,u-bahn,E,1967706_east,"52.51679444,13.44499167",Q551768,,,,,,,1967717.0
Frankfurter Tor,u-bahn,E,1967707_east,"52.51583333,13.45416667",Q568627,,,,,,,1967319.0
Samariterstr.,u-bahn,E,1967708_east,"52.51472222,13.46444444",Q552891,,,,,,,19671014.0
Frankfurterallee,u-bahn,E,1967709_east,"52.51363889,13.47569444",Q3752007,,,,,,,1967317.0
Magdalenenstr.,u-bahn,E,1967710_east,"52.51250000,13.48638889",Q473901,,,,,,,1967707.0
Bahnhof Lichtenberg,u-bahn,E,1967711_east,"52.51055600,13.49638900",Q3831986,,,,,,,196785.0
Friedrichsfelde,u-bahn,E,1967712_east,"52.50611111,13.51277778",Q429781,,,,,,,1967329.0
"Johannisthal, Haeckelstr.",tram,69,1967713_east,"52.44029440,13.50526380",Q66225573,,,,,,,1967532.0
Bhf. Schöneweide,tram,69,1967714_east,"52.45640818,13.50991657",,,,,,,,1967135.0
Wilhelminenhofstr.,tram,69,1967715_east,"52.46083797,13.52105438",,,,,,,,19671317.0
S-Bhf. Karlshorst,tram,69,1967716_east,"52.48133100,13.52544330",Q65952829,,,,,,,1967982.0
Hochschule für Ökonomie,tram,69,1967717_east,"52.49276810,13.52660590",Q65952866,,,,,,,1967480.0
Tierpark Berlin,tram,69,1967718_east,"52.50297205,13.52091647",,,,,,,,19671170.0
Alt-Friedrichsfelde Ecke Am Tierpark,tram,69,1967719_east,"52.50914094,13.51812993",,,,,,,,196722.0
Bhf. Lichtenberg,tram,69,1967720_east,"52.51236030,13.49775470",Q66013733,,,,,,,1967131.0
Strab. Bhf. Siegfriedstr.,tram,69,1967721_east,"52.52064110,13.49944540",Q66014798,,,,,,,19671116.0
Herzbergstr.,tram,69,1967722_east,"52.52637000,13.49903600",Q65684891,,,,,,,1967469.0
Roederplatz,tram,69,1967723_east,"52.52660010,13.47906800",Q65685373,,,,,,,1967942.0
Steuerhaus,tram,69,1967724_east,"52.53049300,13.46149890",Q65553632,,,,,,,19671113.0
Dimitroffstr. Ecke Landsbergerallee,tram,69,1967725_east,"52.52643035,13.44759679",,,,,,,,1967251.0
Leninplatz,tram,69,1967726_east,"52.52326580,13.43264570",Q65553105,,,,,,,1967656.0
"Alexanderplatz, Memhardstr.",tram,69,1967727_east,"52.52334390,13.41107730",Q65227406,,,,,,,196715.0
Hackescher Markt,tram,69,1967728_east,"52.52270059,13.40160586",Q65094590+nan,,,,,,,1967415.0
Oranienburger Tor,tram,69,1967729_east,"52.52560310,13.38727450",Q65095375,,,,,,,1967807.0
Walter-Ulbricht-Stadion,tram,69,1967730_east,"52.53596333,13.37632165",,,,,,,,19671267.0
"Johannisthal, Haeckelstr.",tram,69E,1967731_east,"52.44029440,13.50526380",Q66225573,,,,,,,1967532.0
Bhf. Schöneweide,tram,69E,1967732_east,"52.45640818,13.50991657",,,,,,,,1967135.0
Wilhelminenhofstr.,tram,69E,1967733_east,"52.46083797,13.52105438",,,,,,,,19671317.0
S-Bhf. Karlshorst,tram,69E,1967734_east,"52.48133100,13.52544330",Q65952829,,,,,,,1967982.0
Hochschule für Ökonomie,tram,69E,1967735_east,"52.49276810,13.52660590",Q65952866,,,,,,,1967480.0
Tierpark Berlin,tram,69E,1967736_east,"52.50297205,13.52091647",,,,,,,,19671170.0
Alt-Friedrichsfelde Ecke Am Tierpark,tram,69E,1967737_east,"52.50914094,13.51812993",,,,,,,,196722.0
Bhf. Lichtenberg,tram,69E,1967738_east,"52.51236030,13.49775470",Q66013733,,,,,,,1967131.0
Strab. Bhf. Siegfriedstr.,tram,69E,1967739_east,"52.52064110,13.49944540",Q66014798,,,,,,,19671116.0
Herzbergstr.,tram,69E,1967740_east,"52.52637000,13.49903600",Q65684891,,,,,,,1967469.0
Roederplatz,tram,69E,1967741_east,"52.52660010,13.47906800",Q65685373,,,,,,,1967942.0
Steuerhaus,tram,69E,1967742_east,"52.53049300,13.46149890",Q65553632,,,,,,,19671113.0
Dimitroffstr. Ecke Landsbergerallee,tram,69E,1967743_east,"52.52643035,13.44759679",,,,,,,,1967251.0
Kniprodestr.,tram,69E,1967744_east,"52.53252860,13.44068680",Q65707391,,,,,,,1967582.0
Invalidenstr. Ecke Chausseestr.,tram,63,196781_east,"52.53058680,13.38309848",,,,,,,,
Invalidenstr. Ecke Chausseestr.,tram,73,1967142_east,"52.53058680,13.38309848",,,,,,,,
Walter-Ulbricht-Stadion über Greifswalderstr.,tram,73,1967143_east,"52.53651514,13.37777572",,,,,,,,
Wendenschloß Ecke Ekhofstr.,tram,83,1967186_east,"52.41633001,13.58969077",,,,,,,,
Müggelheimerstr./Wendenschloßstr.,tram,95,1967259_east,"52.44260945,13.58225859",,,,,,,,
Fahlenbergstr. Ecke Fürstenwalderallee,autobus,A22,1967281_east,"52.43147015,13.71870886",,,,,,,,
"Kolonie ""Land in Sonne""",autobus,A39,1967326_east,"52.55462883,13.51187030",,,,,,,,
"Hohenschönhausen, Falkenbergerstr.",autobus,A39,1967327_east,"52.55648662,13.48662123",,,,,,,,
LPG Falkenberg,autobus,A46,1967373_east,"52.57043276,13.53602484",,,,,,,,
Funk- Und Fernmeldeanlage,autobus,A54,1967406_east,"52.53373620,13.45293949",,,,,,,,
Platz vor dem Neuen Tor,autobus,A57,1967422_east,"52.52921246,13.37851356",,,,,,,,
Ostbahnhof,omnibus,O30,1967630_east,"52.50976671,13.43372198",,,,,,,,
Küstrinerplatz,omnibus,O30,1967631_east,"52.51324778,13.43933319",,,,,,,,
Warschauerstr.,omnibus,O30,1967632_east,"52.51243227,13.45259884",,,,,,,,
Boxhagenerstr. Ecke Holteistr.,omnibus,O30,1967633_east,"52.50861319,13.46627719",,,,,,,,
S-Bhf. Rummelsburg,omnibus,O30,1967634_east,"52.50179539,13.47802858",,,,,,,,
Weitlingstr.,omnibus,O30,1967635_east,"52.50098659,13.49295187",,,,,,,,
Bhf. Lichtenberg,omnibus,O30,1967636_east,"52.51128756,13.49959112",,,,,,,,
Obus-Bf. Siegfriedstr.,omnibus,O30,1967637_east,"52.52055828,13.49943442",,,,,,,,
Herzbergstr.,omnibus,O30,1967638_east,"52.52658889,13.49077833",,,,,,,,
Roederplatz,omnibus,O30,1967639_east,"52.52660010,13.47906800",,,,,,,,
Proskauerstr. Ecke Dolzigerstr.,omnibus,O30,1967640_east,"52.51987408,13.46328923",,,,,,,,
Ebertystr. Ecke Leninallee,omnibus,O30,1967641_east,"52.52722237,13.45079968",,,,,,,,
Greifswalderstr. Ecke Dimitroffstr.,omnibus,O30,1967642_east,"52.53621776,13.43301750",,,,,,,,
Königstor,omnibus,O30,1967643_east,"52.52520269,13.41983499",,,,,,,,
U-Bhf. Luxemburgplatz,omnibus,O30,1967644_east,"52.52797823,13.41037278",,,,,,,,
Rosenthalerplatz,omnibus,O30,1967645_east,"52.52967295,13.40142893",,,,,,,,
Robert-Koch-Platz,omnibus,O30,1967646_east,"52.52757051,13.37877230",,,,,,,,
Dimitroffstr. vor Cotheniusstr.,omnibus,O37,1967647_east,"52.52774514,13.44620525",,,,,,,,
S-Bhf. Leninallee,omnibus,O37,1967648_east,"52.52851327,13.45560255",,,,,,,,
Weißenseerweg,omnibus,O37,1967649_east,"52.53305920,13.47625284",,,,,,,,
Genslerstr. Ecke Landsbergerchaussee,omnibus,O37,1967650_east,"52.53424371,13.49714436",,,,,,,,
Dingelstädterstr. Ecke Landsbergerchaussee,omnibus,O37,1967651_east,"52.53587673,13.52191373",,,,,,,,
Bürknersfelde,omnibus,O37,1967652_east,"52.53888981,13.53415938",,,,,,,,
Marzahnerchaussee Ecke Berlinerchaussee,omnibus,O37,1967653_east,"52.53890763,13.53383321",,,,,,,,
"Alt-Marzahn, Kirche",omnibus,O37,1967654_east,"52.54242345,13.56406175",,,,,,,,
Elisabethstr.,omnibus,O37,1967655_east,"52.53409534,13.55949916",,,,,,,,
Boschpolerstr.,omnibus,O37,1967656_east,"52.52812259,13.54886933",,,,,,,,
S-Bhf. Biesdorf,omnibus,O37,1967657_east,"52.51343259,13.55538728",,,,,,,,
"Alt-Biesdorf, Oberfeldstr.",omnibus,O37,1967658_east,"52.50918607,13.55334706",,,,,,,,
"Alt-Friedrichsfelde, Am Tierpark",omnibus,O37,1967659_east,"52.50970259,13.51883251",,,,,,,,
Bhf. Lichtenberg,omnibus,O37,1967660_east,"52.51128756,13.49959112",,,,,,,,
Ostbahnhof,omnibus,O40,1967661_east,"52.50976671,13.43372198",,,,,,,,
Küstrinerplatz,omnibus,O40,1967662_east,"52.51324778,13.43933319",,,,,,,,
Leninplatz,omnibus,O40,1967663_east,"52.52323900,13.43359458",,,,,,,,
Königstor,omnibus,O40,1967664_east,"52.52520269,13.41983499",,,,,,,,
Rosenthalerplatz,omnibus,O40,1967665_east,"52.52967295,13.40142893",,,,,,,,
Oranienburger Tor,omnibus,O40,1967666_east,"52.52716314,13.38710905",,,,,,,,
Robert-Koch-Platz,omnibus,O40,1967667_east,"52.52757051,13.37877230",,,,,,,,
