stop_name,type,line_name,stop_id,location,identifier,latitude,longitude,match_score,matched_name,matched_stop_id,matched_historical_lines,location_from
Ostbahnhof,tram,1,19640_east,"52.50910764,13.43550619",,,,,,,,1964878.0
U-Bhf. Strausbergerplatz,tram,1,19641_east,"52.51808307,13.43293834",,52.51808307,13.43293834,100.0,U-Bhf. Strausbergerplatz,196524_east,['1'],
Leninplatz,tram,1,19642_east,"52.52326580,13.43264570",,52.5232658,13.4326457,100.0,Leninplatz,196525_east,['1'],
"Alexanderplatz, Memhardstr.",tram,1,19643_east,"52.52334390,13.41107730",Q65227406,,,,,,,196414.0
Rosenthalerplatz,tram,1,19644_east,"52.53017690,13.40161210",Q65093945,,,,,,,19641024.0
Oranienburger Tor,tram,1,19646_east,"52.52560310,13.38727450",Q65095375,,,,,,,1964864.0
Hannoverschestr.,tram,1,19647_east,"52.52716496,13.38704676",,,,,,,,1964451.0
Adalbertstr. Ecke Köpenickerstr.,autobus,A1P,19648_east,"52.50880201,13.42459206",,52.50880201,13.42459206,95.0,Köpenickerstr. Ecke Adalbertstr.,196531_east,['A1P'],
S-Bhf. Jannowitzbrücke,autobus,A1P,19649_east,"52.51478600,13.41805624",,52.514786,13.41805624,100.0,S-Bhf. Jannowitzbrücke,196532_east,['A1P'],
"Alexanderplatz, Grunerstr.",autobus,A1P,196410_east,"52.52008326,13.41408419",,52.52008326,13.41408419,100.0,"Alexanderplatz, Grunerstr.",196533_east,['A1P'],
S-Bhf. Warschauerstr.,tram,3,196411_east,"52.50641667,13.45095556",Q111252298,,,,,,,19641075.0
Kopernikusstr.,tram,3,196412_east,"52.51058420,13.45262580",,52.5105842,13.4526258,100.0,Kopernikusstr.,196535_east,['3'],
Bhf. Frankfurterallee,tram,3,196414_east,"52.51380370,13.47737720",,52.5138037,13.4773772,100.0,Bhf. Frankfurterallee,196537_east,['3'],
Roederplatz,tram,3,196415_east,"52.52660010,13.47906800",Q65685373,,,,,,,19641018.0
Hohenschönhauserstr.,tram,3,196416_east,"52.53593290,13.47294680",,52.5359329,13.4729468,100.0,HohenSchönhauserstr.,196539_east,['3'],
Omnibus-Bhf. Lichtenbergerstr.,tram,3,196417_east,"52.54423460,13.46872150",,52.5442346,13.4687215,100.0,Omnibus Bhf. Lichtenbergerstr.,196540_east,['3'],
Klement-Gottwald-Allee,tram,3,196418_east,"52.55207481,13.46563086",,52.55207481,13.46563086,100.0,Klement-Gottwald-Allee,196541_east,['3'],
Antonplatz,tram,3,196419_east,"52.54848030,13.45174160",Q65548849,,,,,,,196469.0
Prenzlauer Promenade,tram,3,196420_east,"52.55155537,13.43032253",,,,,,,,1964941.0
Schönhauserallee,tram,3,196421_east,"52.55377050,13.41388980",,52.5537705,13.4138898,100.0,Schönhauserallee,196544_east,['3'],
Björnsonstr.,tram,3,196422_east,"52.55442320,13.40305850",,52.5544232,13.4030585,100.0,Björnsonstr.,196545_east,['3'],
S-Bhf. Warschauerstr.,tram,4,196423_east,"52.50641667,13.45095556",Q111252298,,,,,,,19641075.0
Grünbergerstr.,tram,4,196424_east,"52.51223590,13.45260900",,52.5122359,13.452609,90.0,Grünbergerstr. Ecke Warschauerstr.,196547_east,['4'],
Frankfurter Tor,tram,4,196425_east,"52.51539030,13.45401720",Q65706246,,,,,,,1964337.0
Bersarinplatz,tram,4,196426_east,"52.51921500,13.45252570",,52.519215,13.4525257,100.0,Bersarinplatz,196549_east,['4'],
Leninallee,tram,4,196427_east,"52.52593430,13.44623680",,52.5259343,13.4462368,90.0,Leninallee Ecke Dimitroffstr.,196550_east,['4'],
Kniprodestr.,tram,4,196428_east,"52.53252860,13.44068680",Q65707391,,,,,,,1964621.0
Greifswalderstr.,tram,4,196429_east,"52.53649750,13.43340450",Q65548960,,,,,,,1964402.0
Prenzlauerallee,tram,4,196430_east,"52.53965220,13.42447890",Q65222180,,,,,,,1964938.0
U-Bhf. Dimitroffstr.,tram,4,196431_east,"52.54019280,13.41139790",Q65088313,,,,,,,19641278.0
Heinrich-Heine-Str.,tram,11,196433_east,"52.51098553,13.41647537",,52.51098553,13.41647537,90.0,Heinrich-Heine-Str. Ecke Schmidstr.,196556_east,['11'],
S-Bhf. Jannowitzbrücke,tram,11,196434_east,"52.51478600,13.41805624",,,,,,,,19641054.0
"Alexanderplatz, Memhardstr.",tram,11,196435_east,"52.52334390,13.41107730",Q65227406,,,,,,,196414.0
Rosenthalerplatz,tram,11,196436_east,"52.53017690,13.40161210",,52.5301769,13.4016121,100.0,Rosenthalerplatz,196559_east,['11'],
Oranienburger Tor,tram,11,196438_east,"52.52560310,13.38727450",Q65095375,,,,,,,1964864.0
Bhf. Friedrichstr.,tram,11,196439_east,"52.51928050,13.38841070","Q65095382, Q65095382",,,,,,,1964127.0
Am Kupfergraben,tram,11,196440_east,"52.51942080,13.39538390",,52.5194208,13.3953839,100.0,Am Kupfergraben,196564_east,['11'],
Hönower Wiesenweg Ecke Blockdammweg,tram,13,196441_east,"52.48430451,13.50580476",,52.48430451,13.50580476,100.0,Hönower Wiesenweg Ecke Blockdammweg,196565_east,['13'],
Kraftwerk Klingenberg,tram,13,196442_east,"52.48813740,13.49586850",Q66079524,,,,,,,1964634.0
Karlshorsterstr.,tram,13,196443_east,"52.50233410,13.47546688",,,,,,,,1964589.0
Holteistr. Ecke Boxhagenerstr.,tram,13,196444_east,"52.50882350,13.46596900",,52.5088235,13.465969,100.0,Holteistr. Ecke Boxhagenerstr.,196568_east,['13'],
Frankfurter Tor,tram,13,196445_east,"52.51539030,13.45401720",,52.5153903,13.4540172,100.0,Frankfurter Tor,196569_east,['13'],
Bersarinplatz,tram,13,196446_east,"52.51921500,13.45252570",Q65706258,,,,,,,1964120.0
Leninallee,tram,13,196447_east,"52.52593430,13.44623680",Q65553230,,,,,,,1964702.0
Kniprodestr.,tram,13,196448_east,"52.53212517,13.44148683",,52.53212517,13.44148683,90.0,Kniprodestr. Ecke Dimitroffstr.,196572_east,['13'],
Greifswalderstr.,tram,13,196449_east,"52.53649750,13.43340450",Q65548960,,,,,,,1964402.0
Prenzlauerallee,tram,13,196450_east,"52.53965220,13.42447890",Q65222180,,,,,,,1964938.0
U-Bhf. Dimitroffstr.,tram,13,196451_east,"52.54019280,13.41139790",Q65088313,,,,,,,19641278.0
Oderbergerstr. Ecke Eberswalderstr.,tram,13,196452_east,"52.54061077,13.40455993",,52.54061077,13.40455993,100.0,Oderbergerstr. Ecke Eberswalderstr.,196576_east,['13'],
"Rosenthal, Hauptstr.",tram,22,196453_east,"52.59700630,13.37639160",,52.5970063,13.3763916,100.0,"Rosenthal, Hauptstr.",196577_east,['22'],
Nordendstr.,tram,22,196454_east,"52.58853400,13.38829520",,52.588534,13.3882952,100.0,Nordendstr.,196578_east,['22'],
Kurt-Fischer-Platz,tram,22,196455_east,"52.57866800,13.39830160",,52.578668,13.3983016,100.0,Kurt-Fischer-Platz,196579_east,['22'],
"Pankow, Kirche",tram,22,196456_east,"52.57064520,13.41031150",Q65055066,,,,,,,1964892.0
S-Bhf. Pankow,tram,22,196457_east,"52.56756920,13.41216410",Q65055075,,,,,,,19641065.0
U-Bhf. Vinetastr.,tram,22,196458_east,"52.55961680,13.41323200",Q65075426,,,,,,,19641319.0
S-Bhf. Schönhauserallee,tram,22,196459_east,"52.54936190,13.41357340",Q65088013,,,,,,,19641072.0
U-Bhf. Dimitroffstr.,tram,22,196460_east,"52.54019280,13.41139790",Q65088313,,,,,,,19641278.0
Rosenthalerplatz,tram,22,196461_east,"52.53017690,13.40161210",Q65093945,,,,,,,19641024.0
"Alexanderplatz, Memhardstr.",tram,22,196462_east,"52.52334390,13.41107730",Q65227406,,,,,,,196414.0
S-Bhf. Jannowitzbrücke,tram,22,196463_east,"52.51478600,13.41805624",,,,,,,,19641054.0
Nordend,tram,46,196465_east,"52.59021040,13.40275240",,52.5902104,13.4027524,100.0,Nordend,196589_east,['46'],
Ossietzkyplatz,tram,46,196466_east,"52.58100580,13.40401481",,,,,,,,1964875.0
Kurt-Fischer-Platz,tram,46,196467_east,"52.57866800,13.39830160",Q65032974,,,,,,,1964664.0
"Pankow, Kirche",tram,46,196468_east,"52.57064520,13.41031150",,52.5706452,13.4103115,100.0,"Pankow, Kirche",196592_east,['46'],
S-Bhf. Pankow,tram,46,196469_east,"52.56756920,13.41216410",Q65055075,,,,,,,19641065.0
U-Bhf. Vinetastr.,tram,46,196470_east,"52.55961680,13.41323200",Q65075426,,,,,,,19641319.0
S-Bhf. Schönhauserallee,tram,46,196471_east,"52.54936190,13.41357340",,52.5493619,13.4135734,100.0,S-Bhf. Schönhauserallee,196595_east,['46'],
U-Bhf. Dimitroffstr.,tram,46,196472_east,"52.54019280,13.41139790",Q65088313,,,,,,,19641278.0
Brunnenstr.,tram,46,196473_east,"52.53245420,13.39742360",Q65691740,,,,,,,1964194.0
Oranienburger Tor,tram,46,196474_east,"52.52560310,13.38727450",Q65095375,,,,,,,1964864.0
Bhf. Friedrichstr.,tram,46,196475_east,"52.51928050,13.38841070","Q65095382, Q65095382",,,,,,,1964127.0
Am Kupfergraben,tram,46,196476_east,"52.51942080,13.39538390",Q65055027,,,,,,,196450.0
"Niederschönhausen, Idastr.",tram,46P,196477_east,"52.58375905,13.41188774",,52.58375905,13.41188774,100.0,"Niederschönhausen, Idastr.",1965101_east,['46P'],
Ossietzkyplatz,tram,46P,196478_east,"52.58100580,13.40401481",,52.5810058,13.40401481,100.0,Ossietzkyplatz,1965102_east,['46P'],
"Buchholz, Hauptstr.",tram,49,196479_east,"52.61907206,13.39338336",,52.61907206,13.39338336,100.0,"Buchholz, Hauptstr.",1965103_east,['49'],
Rosenthalerstr.,tram,49,196480_east,"52.59633000,13.43287600",Q66192394,,,,,,,19641025.0
Galenusstr.,tram,49,196481_east,"52.58181830,13.42876780",,52.5818183,13.4287678,100.0,Galenusstr.,1965105_east,['49'],
S-Bhf. Pankow-Heinersdorf,tram,49,196482_east,"52.57750782,13.42785306",,52.57750782,13.42785306,100.0,S-Bhf. Pankow-Heinersdorf,1965106_east,['49'],
"Pankow, Kirche",tram,49,196483_east,"52.57064520,13.41031150",Q65055066,,,,,,,1964892.0
S-Bhf. Pankow,tram,49,196484_east,"52.56756920,13.41216410",,52.5675692,13.4121641,100.0,S-Bhf. Pankow,1965109_east,['49'],
U-Bhf. Vinetastr.,tram,49,196485_east,"52.55961680,13.41323200",Q65075426,,,,,,,19641319.0
Bornholmerstr.,tram,49,196486_east,"52.55377050,13.41388980",,,,,,,,1964173.0
S-Bhf. Schönhauserallee,tram,49,196487_east,"52.54936190,13.41357340",Q65088013,,,,,,,19641072.0
U-Bhf. Dimitroffstr.,tram,49,196488_east,"52.54019280,13.41139790",Q65088313,,,,,,,19641278.0
Rosenthalerplatz,tram,49,196489_east,"52.53017690,13.40161210",Q65093945,,,,,,,19641024.0
"Hohenschönhausen, Gartenstadt",tram,63,196491_east,"52.55086720,13.50949940",,52.5508672,13.5094994,100.0,"Hohenschönhausen, Gartenstadt",1965115_east,['63'],
Falkenbergerstr. Ecke Wartenbergerstr.,tram,63,196492_east,"52.55036672,13.50991503",,52.55036672,13.50991503,100.0,Falkenbergerstr. Ecke Wartenbergerstr.,1965116_east,['63'],
Degnerstr.,tram,63,196494_east,"52.54488037,13.49394995",,,,,,,,1964254.0
Weißenseerweg,tram,63,196495_east,"52.53225800,13.47670500",,52.532258,13.476705,100.0,Weißenseerweg,1965119_east,['63'],
Steuerhaus,tram,63,196496_east,"52.53049300,13.46149890",Q65553632,,,,,,,19641198.0
Dimitroffstr.,tram,63,196497_east,"52.52643035,13.44759679",,,,,,,,1964262.0
Leninplatz,tram,63,196498_east,"52.52326580,13.43264570",Q65553105,,,,,,,1964704.0
"Alexanderplatz, Memhardstr.",tram,63,196499_east,"52.52334390,13.41107730",Q65227406,,,,,,,196414.0
"Hackescher Markt, Große Präsidentenstr.",tram,63,1964100_east,"52.52270059,13.40160586",,52.52270059,13.40160586,90.0,Hackescher Markt,1965124_east,['63'],
"Hohenschönhausen, Falkenbergerstr.",tram,64,1964101_east,"52.55086720,13.50949940",,52.5508672,13.5094994,100.0,"Hohenschönhausen, Falkenbergerstr.",1965125_east,['64'],
Degnerstr.,tram,64,1964103_east,"52.54489445,13.49398483",,52.54489445,13.49398483,100.0,Degnerstr.,1965127_east,['64'],
Weißenseerweg,tram,64,1964104_east,"52.53225800,13.47670500",Q65942700,,,,,,,19641377.0
Steuerhaus,tram,64,1964105_east,"52.53049300,13.46149890",Q65553632,,,,,,,19641198.0
Dimitroffstr.,tram,64,1964106_east,"52.52643035,13.44759679",,,,,,,,1964262.0
Leninplatz,tram,64,1964107_east,"52.52326580,13.43264570",Q65553105,,,,,,,1964704.0
"Alexanderplatz, Leninallee",tram,64,1964108_east,"52.52210316,13.41651113",,52.52210316,13.41651113,100.0,"Alexanderplatz, Leninallee",1965132_east,['64'],
S-Bhf. Jannowitzbrücke,tram,64,1964109_east,"52.51478600,13.41805624",,,,,,,,19641054.0
Spittelmarkt,tram,64,1964110_east,"52.51124332,13.40494540",,,,,,,,19641181.0
Dönhoffplatz,tram,64,1964111_east,"52.50995057,13.39814408",,52.50995057,13.39814408,100.0,Dönhoffplatz,1965135_east,['64'],
Bhf. Schöneweide,tram,69,1964113_east,"52.45640818,13.50991657",,,,,,,,1964140.0
Wilhelminenhofstr.,tram,69,1964114_east,"52.46083797,13.52105438",,52.46083797,13.52105438,100.0,Wilhelminenhofstr.,1965138_east,['69'],
S-Bhf. Karlshorst,tram,69,1964115_east,"52.48133100,13.52544330",,52.481331,13.5254433,100.0,S-Bhf. Karlshorst,1965139_east,['69'],
Hochschule für Ökonomie,tram,69,1964116_east,"52.49276810,13.52660590",,52.4927681,13.5266059,100.0,Hochschule für Ökonomie,1965140_east,['69'],
Tierpark Berlin,tram,69,1964117_east,"52.50297205,13.52091647",,,,,,,,19641263.0
Alt-Friedrichsfelde Ecke Am Tierpark,tram,69,1964118_east,"52.50914094,13.51812993",,,,,,,,196422.0
Bhf. Lichtenberg,tram,69,1964119_east,"52.51236030,13.49775470",,52.5123603,13.4977547,100.0,Bhf. Lichtenberg,1965143_east,['69'],
Strab. Bhf. Siegfriedstr.,tram,69,1964120_east,"52.52064110,13.49944540",Q66014798,,,,,,,19641202.0
Herzbergstr.,tram,69,1964121_east,"52.52637000,13.49903600",,52.52637,13.499036,100.0,Herzbergstr.,1965145_east,['69'],
Roederplatz,tram,69,1964122_east,"52.52660010,13.47906800",Q65685373,,,,,,,19641018.0
Steuerhaus,tram,69,1964123_east,"52.53049300,13.46149890",Q65553632,,,,,,,19641198.0
Dimitroffstr.,tram,69,1964124_east,"52.52643035,13.44759679",,,,,,,,1964262.0
Leninplatz,tram,69,1964125_east,"52.52326580,13.43264570",Q65553105,,,,,,,1964704.0
"Alexanderplatz, Memhardstr.",tram,69,1964126_east,"52.52334390,13.41107730",Q65227406,,,,,,,196414.0
Hackescher Markt,tram,69,1964127_east,"52.52383540,13.40260300",Q65094590,,,,,,,1964437.0
Oranienburger Tor,tram,69,1964128_east,"52.52560310,13.38727450",,52.5256031,13.3872745,100.0,Oranienburger Tor,1965152_east,['69'],
Walter-Ulbricht-Stadion,tram,69,1964129_east,"52.53651514,13.37777572",,,,,,,,19641353.0
Bhf. Schöneweide,tram,69E,1964131_east,"52.45640818,13.50991657",,,,,,,,1964140.0
Wilhelminenhofstr.,tram,69E,1964132_east,"52.46083797,13.52105438",,,,,,,,19641398.0
S-Bhf. Karlshorst,tram,69E,1964133_east,"52.48133100,13.52544330",Q65952829,,,,,,,19641055.0
Tierpark Berlin,tram,69E,1964135_east,"52.50297205,13.52091647",,,,,,,,19641263.0
Alt-Friedrichsfelde Ecke Am Tierpark,tram,69E,1964136_east,"52.50914094,13.51812993",,,,,,,,196422.0
Alt-Friedrichsfelde,tram,69E,1964137_east,"52.50914094,13.51812993",,,,,,,,196421.0
Bhf. Lichtenberg,tram,69E,1964138_east,"52.51236030,13.49775470",Q66013733,,,,,,,1964133.0
Strab. Bhf. Siegfriedstr.,tram,69E,1964139_east,"52.52064110,13.49944540",Q66014798,,,,,,,19641202.0
Herzbergstr.,tram,69E,1964140_east,"52.52637000,13.49903600",Q65684891,,,,,,,1964497.0
Roederplatz,tram,69E,1964141_east,"52.52660010,13.47906800",Q65685373,,,,,,,19641018.0
Steuerhaus,tram,69E,1964142_east,"52.53049300,13.46149890",Q65553632,,,,,,,19641198.0
Dimitroffstr.,tram,69E,1964143_east,"52.52643035,13.44759679",,,,,,,,1964262.0
Kniprodestr.,tram,69E,1964144_east,"52.53252860,13.44068680",Q65707391,,,,,,,1964621.0
Berlinerstr. Ecke Suermondtstr.,tram,70,1964146_east,"52.54900402,13.50174036",,52.54900402,13.50174036,100.0,Berlinerstr. Ecke Suermondtstr.,1965169_east,['70'],
Stadion Buschallee,tram,70,1964147_east,"52.55667180,13.48698340",,52.5566718,13.4869834,100.0,Stadion Buschallee,1965170_east,['70'],
Buschallee Ecke Klement-Gottwald-Allee,tram,70,1964148_east,"52.55375980,13.46919660",,52.5537598,13.4691966,100.0,Buschallee Ecke Klement-Gottwald-Allee,1965171_east,['70'],
Lichtenbergerstr.,tram,70,1964149_east,"52.55203261,13.46568992",,,,,,,,1964716.0
Antonplatz,tram,70,1964150_east,"52.54848030,13.45174160",Q65548849,,,,,,,196469.0
Prenzlauer Promenade,tram,70,1964151_east,"52.55155537,13.43032253",,,,,,,,1964941.0
Humannplatz,tram,70,1964152_east,"52.54936270,13.42136460",,52.5493627,13.4213646,100.0,Humannplatz,1965175_east,['70'],
U-Bhf. Dimitroffstr.,tram,70,1964153_east,"52.54019280,13.41139790",,52.5401928,13.4113979,100.0,U-Bhf. Dimitroffstr.,1965176_east,['70'],
Brunnenstr.,tram,70,1964154_east,"52.53245420,13.39742360",Q65691740,,,,,,,1964194.0
Oranienburger Tor,tram,70,1964155_east,"52.52560310,13.38727450",Q65095375,,,,,,,1964864.0
Bhf. Friedrichstr.,tram,70,1964156_east,"52.51928050,13.38841070",,52.5192805,13.3884107,100.0,Bhf. Friedrichstr.,1965180_east,['70'],
Am Kupfergraben,tram,70,1964157_east,"52.51942080,13.39538390",Q65055027,,,,,,,196450.0
"Heinersdorf, Romain-Rolland-Str.",tram,71,1964158_east,"52.57255110,13.43710630",,52.5725511,13.4371063,100.0,"Heinersdorf, Romain-Rolland-Str.",1965182_east,['71'],
"Heinersdorf, Kirche",tram,71,1964159_east,"52.56869080,13.43890530",,52.5686908,13.4389053,100.0,"Heinersdorf, Kirche",1965183_east,['71'],
Am Steinberg,tram,71,1964160_east,"52.55857960,13.43337510",,52.5585796,13.4333751,100.0,Am Steinberg,1965184_east,['71'],
S-Bhf. Prenzlauerallee,tram,71,1964162_east,"52.54480750,13.42740800",,52.5448075,13.427408,100.0,S-Bhf. Prenzlauerallee,1965186_east,['71'],
Dimitroffstr.,tram,71,1964163_east,"52.52643035,13.44759679",,,,,,,,1964262.0
Saarbrückerstr.,tram,71,1964164_east,"52.52853096,13.41711369",,,,,,,,19641080.0
Prenzlauer Tor,tram,71,1964165_east,"52.55135441,13.43020267",,52.55135441,13.43020267,86.0,Prenzlauer Promenade Ecke Ostseestr.,1965185_east,['71'],
"Jüdenstr., Molkenmarkt",tram,71,1964167_east,"52.51614221,13.41059179",,,,,,,,1964572.0
"Weißensee, Pasedagplatz",tram,72,1964168_east,"52.55940270,13.46095940",Q65954665,,,,,,,19641375.0
Klement-Gottwald-Allee Ecke Rennbahnstr.,tram,72,1964169_east,"52.55739860,13.46568720",Q65954749,,,,,,,1964613.0
Lichtenbergerstr.,tram,72,1964170_east,"52.55203261,13.46568992",,52.55203261,13.46568992,100.0,Lichtenbergerstr.,1965194_east,['72'],
Antonplatz,tram,72,1964171_east,"52.54848030,13.45174160",Q65548849,,,,,,,196469.0
Prenzlauer Promenade,tram,72,1964172_east,"52.55155537,13.43032253",,52.55155537,13.43032253,100.0,Prenzlauer Promenade,1965196_east,['72'],
S-Bhf. Prenzlauerallee,tram,72,1964173_east,"52.54480750,13.42740800",Q65219791,,,,,,,19641068.0
Dimitroffstr.,tram,72,1964174_east,"52.53919786,13.42420107",,52.53919786,13.42420107,90.0,Prenzlauerallee Ecke Dimitroffstr.,1965198_east,['72'],
Saarbrückerstr.,tram,72,1964175_east,"52.52853502,13.41711798",,52.52853502,13.41711798,90.0,Saarbrückerstr. Ecke Prenzlauerallee,1965199_east,['72'],
"Alexanderplatz, Memhardstr.",tram,72,1964176_east,"52.52334390,13.41107730",Q65227406,,,,,,,196414.0
Molkenmarkt,tram,72,1964177_east,"52.51679321,13.40933062",,,,,,,,1964806.0
Spittelmarkt,tram,72,1964178_east,"52.51124332,13.40494540",,52.51124332,13.4049454,100.0,Spittelmarkt,1965201_east,['72'],
Charlottenstr.,tram,72,1964179_east,"52.51050786,13.39183149",,52.51050786,13.39183149,100.0,Charlottenstr.,1965202_east,['72'],
Taubenstr. Ecke Glinkastr.,tram,72,1964180_east,"52.51282808,13.38655005",,52.51282808,13.38655005,100.0,Taubenstr. Ecke Glinkastr.,1965203_east,['72'],
"Wießensee, Pasedagplatz",tram,74,1964181_east,"52.55940270,13.46095940",,52.5594027,13.4609594,95.0,"Weißensee, Pasedagplatz",1965214_east,['74'],
Klement-Gottwald-Allee Ecke Rennbahnstr.,tram,74,1964182_east,"52.55739860,13.46568720",Q65954749,,,,,,,1964613.0
Lichtenbergerstr.,tram,74,1964183_east,"52.55203261,13.46568992",,,,,,,,1964716.0
Antonplatz,tram,74,1964184_east,"52.54848030,13.45174160",,52.5484803,13.4517416,100.0,Antonplatz,1965217_east,['74'],
S-Bhf. Greifswalderstr.,tram,74,1964185_east,"52.54072340,13.43829040",Q65548932,,,,,,,19641049.0
Königstor,tram,74,1964186_east,"52.52821600,13.42386902",,52.528216,13.42386902,100.0,Königstor,1965220_east,['74'],
"Alexanderplatz, Memhardstr.",tram,74,1964187_east,"52.52334390,13.41107730",,52.5233439,13.4110773,100.0,"Alexanderplatz, Memhardstr.",1965221_east,['74'],
Molkenmarkt,tram,74,1964188_east,"52.51679321,13.40933062",,52.51679321,13.40933062,100.0,Molkenmarkt,1965222_east,['74'],
Spittelmarkt,tram,74,1964189_east,"52.51124332,13.40494540",,,,,,,,19641181.0
Leipzigerstr. Ecke Wilhelmstr.,tram,74,1964190_east,"52.51000007,13.38420836",,,,,,,,1964700.0
Klement-Gottwald-Allee Ecke Rennbahnstr.,tram,74E,1964191_east,"52.55739860,13.46568720",Q65954749,,,,,,,1964613.0
Lichtenbergerstr.,tram,74E,1964192_east,"52.55203261,13.46568992",,,,,,,,1964716.0
Antonplatz,tram,74E,1964193_east,"52.54848030,13.45174160",Q65548849,,,,,,,196469.0
S-Bhf. Greifswalderstr.,tram,74E,1964194_east,"52.54072340,13.43829040",Q65548932,,,,,,,19641049.0
Dimitroffstr.,tram,74E,1964195_east,"52.52643035,13.44759679",,,,,,,,1964262.0
Königstor,tram,74E,1964196_east,"52.52821600,13.42386902",,,,,,,,1964676.0
"Alexanderplatz, Memhardstr.",tram,74E,1964197_east,"52.52334390,13.41107730",Q65227406,,,,,,,196414.0
S-Bhf. Jannowitzbrücke,tram,74E,1964198_east,"52.51478600,13.41805624",,,,,,,,19641054.0
Spittelmarkt,tram,74E,1964199_east,"52.51124332,13.40494540",,,,,,,,19641181.0
"Mahlsdorf-Süd, Hubertus",tram,82,1964200_east,"52.47416630,13.59914430",,52.4741663,13.5991443,100.0,"Mahlsdorf-Süd, Hubertus",1965225_east,['82'],
S-Bhf. Köpenick,tram,82,1964201_east,"52.45821530,13.57904350",,52.4582153,13.5790435,100.0,S-Bhf. Köpenick,1965226_east,['82'],
Pionierpark,tram,82,1964203_east,"52.45798013,13.54198083",,52.45798013,13.54198083,100.0,Pionierpark,1965228_east,['82'],
Heinrich-Duncker-Str. Ecke Ehrlichstr.,tram,82,1964205_east,"52.47895660,13.52343160",,52.4789566,13.5234316,100.0,Heinrich-Duncker-Str. Ecke Ehrlichstr.,1965230_east,['82'],
Kraftwerk Klingenberg,tram,82,1964206_east,"52.48813740,13.49586850",,52.4881374,13.4958685,100.0,Kraftwerk Klingenberg,1965231_east,['82'],
S-Bhf. Ostkreuz,tram,82,1964207_east,"52.50243022,13.46902005",,52.50243022,13.46902005,100.0,S-Bhf. Ostkreuz,1965232_east,['82'],
Stralauerallee Ecke Markgrafendamm,tram,82,1964208_east,"52.49740745,13.46463651",,52.49740745,13.46463651,100.0,Stralauerallee Ecke Markgrafendamm,1965233_east,['82'],
Warschauerstr.,tram,82,1964209_east,"52.50502000,13.44863000",,52.50502,13.44863,100.0,Warschauerstr.,1965234_east,['82'],
Ostbahnhof,tram,82,1964210_east,"52.50910764,13.43550619",,52.50910764,13.43550619,100.0,Ostbahnhof,1965235_east,['82'],
S-Bhf. Jannowitzbrücke,tram,82,1964211_east,"52.51478600,13.41805624",,,,,,,,19641054.0
"Alexanderplatz, Memhardstr.",tram,82,1964212_east,"52.52334390,13.41107730",Q65227406,,,,,,,196414.0
Invalidenstr.,tram,82,1964213_east,"52.53245420,13.39742360",,52.5324542,13.3974236,90.0,Brunnenstr. Ecke Invalidenstr.,1965238_east,['82'],
Chausseestr.,tram,82,1964214_east,"52.53041580,13.38273020",,52.5304158,13.3827302,90.0,Chausseestr. Ecke Invalidenstr.,1965239_east,['82'],
Walter-Ulbricht-Stadion,tram,82,1964215_east,"52.53651514,13.37777572",,52.53651514,13.37777572,100.0,Walter-Ulbricht-Stadion,1965240_east,['82'],
Kinderheim,autobus,A82P,1964216_east,"52.48981531,13.48140423",,,,,,,,1964602.0
Markgrafendamm,autobus,A82P,1964218_east,"52.49919969,13.46574229",,,,,,,,1964784.0
Wendenschloß Ecke Ekhofstr.,tram,83,1964219_east,"52.41696580,13.58859260",,52.4169658,13.5885926,90.0,Wendenschloß,1965241_east,['83'],
VEB Schiffswerft,tram,83,1964220_east,"52.42547978,13.58622004",,,,,,,,19641334.0
RFT-Werk,tram,83,1964221_east,"52.43633349,13.58242861",,,,,,,,1964965.0
Strab. Bhf. Köpenick,tram,83,1964222_east,"52.43991340,13.58178240",Q66370900,,,,,,,19641201.0
Lindenstr. Ecke Bahnhofstr.,tram,83,1964223_east,"52.45050940,13.57268400",,52.4505094,13.572684,100.0,Lindenstr. Ecke Bahnhofstr.,1965245_east,['83'],
S-Bhf. Köpenick,tram,83,1964224_east,"52.45821530,13.57904350",Q66370784,,,,,,,19641058.0
Mahlsdorf-Süd,tram,83,1964225_east,"52.47416630,13.59914430",,52.4741663,13.5991443,100.0,Mahlsdorf-Süd,1965247_east,['83'],
Bürgerwäldchen,tram,83,1964226_east,"52.48924332,13.60636876",,52.48924332,13.60636876,100.0,Bürgerwäldchen,1965248_east,['83'],
Rahnsdorferstr.,tram,83,1964227_east,"52.49851730,13.61310100",,52.4985173,13.613101,100.0,Rahnsdorferstr.,1965249_east,['83'],
S-Bhf. Mahlsdorf,tram,83,1964228_east,"52.51221827,13.61219075",,52.51221827,13.61219075,100.0,S-Bhf. Mahlsdorf,1965250_east,['83'],
Am Falkenberg,tram,84,1964229_east,"52.41079970,13.57045293",,52.4107997,13.57045293,100.0,Am Falkenberg,1965251_east,['84'],
"Altglienicke, Kirche",tram,84,1964230_east,"52.42184573,13.53940770",,52.42184573,13.5394077,100.0,"Altglienicke, Kirche",1965252_east,['84'],
S-Bhf. Adlershof,tram,84,1964231_east,"52.43525100,13.54084890",,52.435251,13.5408489,100.0,S-Bhf. Adlershof,1965253_east,['84'],
S-Bhf. Spindlersfeld,tram,84,1964232_east,"52.44573110,13.56242980",,52.4457311,13.5624298,100.0,S-Bhf. Spindlersfeld,1965254_east,['84'],
Luisenhain,tram,84,1964233_east,"52.44496133,13.57412369",,52.44496133,13.57412369,100.0,Luisenhain,1965255_east,['84'],
Bahnhofstr. Ecke Lindenstr.,tram,84,1964234_east,"52.45050940,13.57268400",,52.4505094,13.572684,100.0,Bahnhofstr. Ecke Lindenstr.,1965256_east,['84'],
Hirschgarten,tram,84,1964236_east,"52.45185330,13.60062450",,52.4518533,13.6006245,100.0,Hirschgarten,1965258_east,['84'],
S-Bhf. Friedrichshagen,tram,84,1964237_east,"52.45641260,13.62536560",,52.4564126,13.6253656,100.0,S-Bhf. Friedrichshagen,1965259_east,['84'],
"Bölschestr., Brauerei",tram,84,1964238_east,"52.44699266,13.62425200",,52.44699266,13.624252,100.0,"Bölschestr., Brauerei",1965260_east,['84'],
"Friedrichshagen, Wasserwerk",tram,84,1964239_east,"52.45605630,13.64199560",,52.4560563,13.6419956,100.0,"Friedrichshagen, Wasserwerk",1965261_east,['84'],
Wendenschloß,tram,85,1964240_east,"52.41696580,13.58859260",Q66363928,,,,,,,19641378.0
VEB Schiffswerft,tram,85,1964241_east,"52.42547978,13.58622004",,52.42547978,13.58622004,100.0,VEB Schiffswerft,1965263_east,['85'],
RFT-Werk,tram,85,1964242_east,"52.43633349,13.58242861",,52.43633349,13.58242861,100.0,RFT-Werk,1965264_east,['85'],
Strab. Bhf. Köpenick,tram,85,1964243_east,"52.43991340,13.58178240",Q66370900,,,,,,,19641201.0
Parkstr.,tram,85,1964245_east,"52.45876522,13.53993546",,,,,,,,1964908.0
Edisonstr.,tram,85,1964246_east,"52.46194960,13.51390490",Q65951882,,,,,,,1964282.0
Bhf. Schöneweide,tram,85,1964247_east,"52.45640818,13.50991657",,,,,,,,1964140.0
"Johannisthal, Haeckelstr.",tram,85,1964248_east,"52.44029440,13.50526380",,52.4402944,13.5052638,100.0,"Johannisthal, Haeckelstr.",1965270_east,['85'],
Alt-Schmöckwitz,tram,86,1964249_east,"52.37527670,13.64954900",,52.3752767,13.649549,100.0,Alt-Schmöckwitz,1965271_east,['86'],
Karolinenhof Mitte,tram,86,1964250_east,"52.39176096,13.63465426",,52.39176096,13.63465426,100.0,Karolinenhof Mitte,1965272_east,['86'],
Richtershorn,tram,86,1964251_east,"52.40105000,13.62484730",,52.40105,13.6248473,100.0,Richtershorn,1965273_east,['86'],
Freibad Grünau,tram,86,1964252_east,"52.40862240,13.60445500",,52.4086224,13.604455,100.0,Freibad Grünau,1965274_east,['86'],
S-Bhf. Grünau,tram,86,1964253_east,"52.41349300,13.57468020",,52.413493,13.5746802,100.0,S-Bhf. Grünau,1965275_east,['86'],
Chemische Fabrik,tram,86,1964254_east,"52.42696433,13.57354047",,52.42696433,13.57354047,100.0,Chemische Fabrik,1965276_east,['86'],
Grünstr.,tram,86,1964255_east,"52.44496665,13.57413387",,52.44496665,13.57413387,100.0,Grünstr.,1965277_east,['86'],
S-Bhf. Köpenick,tram,86,1964257_east,"52.45821530,13.57904350",Q66370784,,,,,,,19641058.0
Hirtestr.,tram,86,1964258_east,"52.45904460,13.58383020",,52.4590446,13.5838302,100.0,Hirtestr.,1965280_east,['86'],
"Mahlsdorf-Süd, Hubertus",tram,86,1964259_east,"52.47416630,13.59914430",Q66368466,,,,,,,1964760.0
Rahnsdorf,tram,87,1964260_east,"52.44353169,13.68503800",,52.44353169,13.685038,100.0,Rahnsdorf,1965282_east,['87'],
S-Bhf. Friedrichshagen,tram,87,1964261_east,"52.45641260,13.62536560",Q66360784,,,,,,,19641047.0
"Bölschestr., Brauerei",tram,87,1964262_east,"52.44699266,13.62425200",,,,,,,,1964217.0
Hirschgarten,tram,87,1964263_east,"52.45185330,13.60062450",Q66360740,,,,,,,1964504.0
Seelenbinderstr. Ecke Bahnhofstr.,tram,87,1964264_east,"52.45546320,13.57693030",,52.4554632,13.5769303,100.0,Seelenbinderstr. Ecke Bahnhofstr.,1965287_east,['87'],
Parkstr.,tram,87,1964266_east,"52.45870589,13.53986512",,52.45870589,13.53986512,100.0,Parkstr.,1965289_east,['87'],
Wilhelminenhofstr. Ecke Edisonstr.,tram,87,1964267_east,"52.46194960,13.51390490",,52.4619496,13.5139049,100.0,Wilhelminenhofstr. Ecke Edisonstr.,1965290_east,['87'],
Bhf. Schöneweide,tram,87,1964268_east,"52.45640818,13.50991657",,,,,,,,1964140.0
Kali-Chemie,tram,87,1964269_east,"52.46329855,13.49978977","nan, nan+ nan",,,,,,,1964582.0
Köpenicker Landstr. Ecke Baumschulenstr.,tram,87,1964270_east,"52.46913201,13.49134005",,52.46913201,13.49134005,100.0,Köpenicker Landstr. Ecke Baumschulenstr.,1965293_east,['87'],
S-Bhf. Plänterwald,tram,87,1964271_east,"52.47964547,13.47567730",,,,,,,,19641067.0
Am Treptower Park Ecke Elsenstr.,tram,87,1964272_east,"52.49176487,13.45770388",,52.49176487,13.45770388,100.0,Am Treptower Park Ecke Elsenstr.,1965295_east,['87'],
Wiener Brücke,tram,87,1964273_east,"52.49588477,13.43650069",,52.49588477,13.43650069,100.0,Wiener Brücke,1965296_east,['87'],
"Oberspree, Bruno-Bürgel-Weg",tram,92,1964274_east,"52.45277701,13.53712484",,52.45277701,13.53712484,100.0,"Oberspree, Bruno-Bürgel-Weg",1965297_east,['92'],
Bhf. Schöneweide,tram,92,1964275_east,"52.45640818,13.50991657",,,,,,,,1964140.0
Kali-Chemie,tram,92,1964276_east,"52.46329855,13.49978977",,52.46329855,13.49978977,100.0,Kali-Chemie,1965299_east,['92'],
Baumschulenstr.,tram,92,1964277_east,"52.46908185,13.49132991",,,,,,,,196491.0
S-Bhf. Baumschulenweg,tram,92,1964278_east,"52.46742532,13.48930334",,52.46742532,13.48930334,100.0,S-Bhf. Baumschulenweg,1965301_east,['92'],
Sonnenallee Ecke Baumschulenstr.,tram,92,1964279_east,"52.46085257,13.48134008",,52.46085257,13.48134008,100.0,Sonnenallee Ecke Baumschulenstr.,1965302_east,['92'],
Krankenhaus Köpenick,tram,95,1964280_east,"52.43861201,13.59241126",,52.43861201,13.59241126,100.0,Krankenhaus Köpenick,1965303_east,['95'],
Lindenstr. Ecke Hegelschule,tram,95,1964281_east,"52.45050940,13.57268400",,52.4505094,13.572684,100.0,Lindenstr. Ecke Hegelschule,1965304_east,['95'],
Parkstr.,tram,95,1964282_east,"52.45876522,13.53993546",,,,,,,,1964908.0
Edisonstr.,tram,95,1964283_east,"52.46194960,13.51390490",,52.4619496,13.5139049,100.0,Edisonstr.,1965306_east,['95'],
Bhf. Schöneweide,tram,95,1964284_east,"52.45534130,13.51104490",,52.4553413,13.5110449,100.0,Bhf. Schöneweide,1965307_east,['95'],
Kali-Chemie,tram,95,1964285_east,"52.46329855,13.49978977","nan, nan+ nan",,,,,,,1964582.0
Baumschulenstr.,tram,95,1964286_east,"52.46911905,13.49136497",,52.46911905,13.49136497,90.0,Baumschulenstr. Ecke Köpenicker Landstr.,1965309_east,['95'],
S-Bhf. Plänterwald,tram,95,1964287_east,"52.47964547,13.47567730",,52.47964547,13.4756773,100.0,S-Bhf. Plänterwald,1965310_east,['95'],
Elsenstr.,tram,95,1964288_east,"52.49175632,13.45775787",,52.49175632,13.45775787,90.0,Elsenstr. Ecke Am Treptower Park,1965311_east,['95'],
Wiener Brücke,tram,95,1964289_east,"52.49588477,13.43650069",,,,,,,,19641390.0
Fahlenbergstr. Ecke Fürstenwalderallee,autobus,A22,1964291_east,"52.43147015,13.71870886",,52.43147015,13.71870886,100.0,Fahlenbergstr. Ecke Fürstenwalderallee,1965376_east,['A22'],
S-Bhf. Wilhelmshagen,autobus,A22,1964292_east,"52.43886122,13.72106025",,52.43886122,13.72106025,100.0,S-Bhf. Wilhelmshagen,1965377_east,['A22'],
Zentralschule,autobus,A22,1964293_east,"52.43465069,13.70369221",,52.43465069,13.70369221,100.0,Zentralschule,1965378_east,['A22'],
Waldschänke,autobus,A22,1964294_east,"52.44331814,13.68593963",,52.44331814,13.68593963,100.0,Waldschänke,1965379_east,['A22'],
S-Bhf. Rahnsdorf,autobus,A22,1964295_east,"52.45162837,13.69157910",,52.45162837,13.6915791,100.0,S-Bhf. Rahnsdorf,1965380_east,['A22'],
"Fichtenau, Stadtgrenze",autobus,A22,1964296_east,"52.45479242,13.70149996",,52.45479242,13.70149996,100.0,"Fichtenau, Stadtgrenze",1965381_east,['A22'],
Falkenhöhe,autobus,A23,1964297_east,"52.40050703,13.53822948",,52.40050703,13.53822948,100.0,Falkenhöhe,1965382_east,['A23'],
S-Bhf. Altglienicke,autobus,A23,1964298_east,"52.40840520,13.55881617",,52.4084052,13.55881617,100.0,S-Bhf. Altglienicke,1965384_east,['A23'],
Normannenstr.,autobus,A23,1964299_east,"52.41755554,13.54149328",,52.41755554,13.54149328,100.0,Normannenstr.,1965385_east,['A23'],
Wolfmarsteig,autobus,A23,1964300_east,"52.41268952,13.53660263",,52.41268952,13.53660263,100.0,Wolfmarsteig,1965386_east,['A23'],
Schönefelderchaussee,autobus,A23,1964301_east,"52.41855858,13.53727083",,52.41855858,13.53727083,86.0,"Altglienicke, Schönefelder Chaussee",1965387_east,['A23'],
"Altglienicke, Kirche",autobus,A23,1964302_east,"52.42184573,13.53940770",,52.42184573,13.5394077,100.0,"Altglienicke, Kirche",1965388_east,['A23'],
VEB Bautransporte,autobus,A26,1964303_east,"52.44295542,13.51951909",,52.44295542,13.51951909,100.0,VEB Bautransporte,1965389_east,['A26'],
Bhf. Schöneweide,autobus,A26,1964304_east,"52.45374952,13.51020040",,,,,,,,1964139.0
"S-Bhf. Kaulsdorf, Planitzstr.",autobus,A27,1964305_east,"52.51113864,13.58755467",,52.51113864,13.58755467,100.0,"S-Bhf. Kaulsdorf, Planitzstr.",1965391_east,['A27'],
Chemnitzerstr. Ecke Alt-Kaulsdorf,autobus,A27,1964306_east,"52.50515642,13.58155740",,52.50515642,13.5815574,100.0,Chemnitzerstr. Ecke Alt-Kaulsdorf,1965392_east,['A27'],
Ulmenstr.,autobus,A27,1964307_east,"52.48730878,13.57493203",,52.48730878,13.57493203,100.0,Ulmenstr.,1965393_east,['A27'],
Wongrowitzerstr.,autobus,A27,1964308_east,"52.46693770,13.58532270",,52.4669377,13.5853227,85.0,Wongrowitzer Steig,1965394_east,['A27'],
S-Bhf. Köpenick,autobus,A27,1964309_east,"52.45882190,13.57956468",,52.4588219,13.57956468,100.0,S-Bhf. Köpenick,1965395_east,['A27'],
Bahnhofstr. Ecke Lindenstr.,autobus,A27,1964310_east,"52.45096281,13.57214687",,52.45096281,13.57214687,100.0,Bahnhofstr. Ecke Lindenstr.,1965396_east,['A27'],
"Köpenick, Krankenhaus",autobus,A27,1964311_east,"52.43861201,13.59241126",,52.43861201,13.59241126,100.0,"Köpenick, Krankenhaus",1965399_east,['A27'],
Müggelseeperle,autobus,A27,1964312_east,"52.42170169,13.64089308",,52.42170169,13.64089308,100.0,Müggelseeperle,1965401_east,['A27'],
Müggelheim,autobus,A27,1964313_east,"52.41018331,13.66589753",,52.41018331,13.66589753,100.0,Müggelheim,1965402_east,['A27'],
Zentralflughafen,autobus,A36,1964314_east,"52.39057738,13.51559457",,52.39057738,13.51559457,100.0,Zentralflughafen,1965403_east,['A36'],
"Schönefeld, Kirche",autobus,A36,1964315_east,"52.38742508,13.50596412",,,,,,,,19641124.0
Gartenstr.,autobus,A36,1964316_east,"52.39304608,13.52501992",,52.39304608,13.52501992,100.0,Gartenstr.,1965406_east,['A36'],
S-Bhf. Grünbergallee,autobus,A36,1964317_east,"52.39982233,13.54017097",,52.39982233,13.54017097,100.0,S-Bhf. Grünbergallee,1965407_east,['A36'],
"Bohnsdorf, Kirche",autobus,A36,1964318_east,"52.39948771,13.55557443",,52.39948771,13.55557443,100.0,"Bohnsdorf, Kirche",1965408_east,['A36'],
Gartenstadtweg,autobus,A36,1964319_east,"52.41231391,13.56660268",,52.41231391,13.56660268,100.0,Gartenstadtweg,1965409_east,['A36'],
S-Bhf. Grünau,autobus,A36,1964320_east,"52.41361516,13.57379629",,52.41361516,13.57379629,100.0,S-Bhf. Grünau,1965410_east,['A36'],
"Wartenberg, Siedlung",autobus,A39,1964321_east,"52.58393196,13.53076034",,52.58393196,13.53076034,100.0,"Wartenberg, Siedlung",1965418_east,['A39'],
"Wartenberg, Dorfstr.",autobus,A39,1964322_east,"52.57484090,13.51802097",,52.5748409,13.51802097,100.0,"Wartenberg, Dorfstr.",1965419_east,['A39'],
Falkenbergerchaussee,autobus,A39,1964323_east,"52.56529727,13.51255507",,52.56529727,13.51255507,86.0,Falkenberger Chaussee Ecke Wartenbergerstr.,1965420_east,['A39'],
"Kolonie ""land In Sonne""",autobus,A39,1964324_east,"52.55462883,13.51187030",,52.55462883,13.5118703,100.0,"Kolonie ""Land in Sonne""",1965422_east,['A39'],
"Hohenschönhausen, Falkenbergerstr.",autobus,A39,1964325_east,"52.55022955,13.50958504",,52.55022955,13.50958504,100.0,"Hohenschönhausen, Falkenbergerstr.",1965423_east,['A39'],
"Buch, Kiesgruben",autobus,A42,1964326_east,"52.64175805,13.51596463",,52.64175805,13.51596463,100.0,"Buch, Kiesgruben",1965424_east,['A42'],
"Karowerstr., Alt-Buch",autobus,A42,1964327_east,"52.63531074,13.49911856",,52.63531074,13.49911856,100.0,"Karowerstr., Alt-Buch",1965426_east,['A42'],
Strasse 78,autobus,A42,1964328_east,"52.61464604,13.48487327",,52.61464604,13.48487327,100.0,Strasse 78,1965427_east,['A42'],
Alt-Karow,autobus,A42,1964329_east,"52.60931229,13.48126585",,52.60931229,13.48126585,100.0,Alt-Karow,1965428_east,['A42'],
Güteraußenring,autobus,A42,1964330_east,"52.59988724,13.46929713",,52.59988724,13.46929713,100.0,Güteraußenring,1965429_east,['A42'],
"Blankenburg, Bahnhofstr.",autobus,A42,1964331_east,"52.59138047,13.45351227",,52.59138047,13.45351227,100.0,"Blankenburg, Bahnhofstr.",1965431_east,['A42'],
"Heinersdorf, Kirche",autobus,A42,1964332_east,"52.56825199,13.44048454",,52.56825199,13.44048454,100.0,"Heinersdorf, Kirche",1965432_east,['A42'],
Am Steinberg,autobus,A42,1964333_east,"52.55648145,13.42930676",,,,,,,,196456.0
Prenzlauer Promenade (Spitze),autobus,A42,1964334_east,"52.55169017,13.43028846",nan+ nan,,,,,,,1964942.0
Bürknersfelde,autobus,A43,1964335_east,"52.54954049,13.58668971",,,,,,,,1964222.0
"Marzahn, Berlinerchaussee",autobus,A43,1964336_east,"52.54286481,13.55012491",,52.54286481,13.55012491,98.0,"Marzahn, Berliner Chaussee",1965435_east,['A43'],
Güterbahnhof Springpfuhl,autobus,A43,1964337_east,"52.52561232,13.53368732",,52.52561232,13.53368732,100.0,Güterbahnhof Springpfuhl,1965436_east,['A43'],
S-Bhf. Friedrichsfelde-Ost,autobus,A43,1964338_east,"52.51324537,13.52403058",,52.51324537,13.52403058,100.0,S-Bhf. Friedrichsfelde-Ost,1965437_east,['A43'],
"Alt-Friedrichsfelde, Am Tierpark",autobus,A43,1964339_east,"52.50970259,13.51883251",,,,,,,,196423.0
U-Bhf. Friedrichsfelde,autobus,A43,1964340_east,"52.50624112,13.51285306",,,,,,,,19641284.0
Weitlingstr.,autobus,A43,1964341_east,"52.50098659,13.49295187",,,,,,,,19641372.0
S-Bhf. Nöldnerplatz,autobus,A43,1964342_east,"52.50326620,13.48429373",,52.5032662,13.48429373,100.0,S-Bhf. Nöldnerplatz,1965441_east,['A43'],
"Hönow, Dorfstr.",autobus,A44,1964343_east,"52.54884928,13.63648688",,52.54884928,13.63648688,100.0,"Hönow, Dorfstr.",1965442_east,['A44'],
Greifswalderstr.,autobus,A44,1964344_east,"52.53002871,13.62681794",,52.53002871,13.62681794,100.0,Greifswalderstr.,1965443_east,['A44'],
Am Rosenhag,autobus,A44,1964345_east,"52.52474356,13.62177583",,52.52474356,13.62177583,100.0,Am Rosenhag,1965444_east,['A44'],
S-Bhf. Mahlsdorf,autobus,A44,1964346_east,"52.51234909,13.61221794",,52.51234909,13.61221794,100.0,S-Bhf. Mahlsdorf,1965445_east,['A44'],
Greifswalderstr.,autobus,A44E,1964347_east,"52.53002871,13.62681794",,,,,,,,1964401.0
Am Rosenhag,autobus,A44E,1964348_east,"52.52474356,13.62177583",,,,,,,,196455.0
S-Bhf. Mahlsdorf,autobus,A44E,1964349_east,"52.51234909,13.61221794",,,,,,,,19641060.0
Hauptstr. Ecke Edelweißstr.,autobus,A45,1964351_east,"52.58637926,13.36752939",,52.58637926,13.36752939,100.0,Hauptstr. Ecke Edelweißstr.,1965450_east,['A45'],
Ehrenmal,autobus,A45,1964352_east,"52.57958420,13.37597472",,,,,,,,1964286.0
Heinrich-Mann-Platz,autobus,A45,1964353_east,"52.57297246,13.39214613",,,,,,,,1964482.0
"Pankow, Rathaus",autobus,A45,1964354_east,"52.56953909,13.40418644",,,,,,,,1964893.0
"Pankow, Kirche",autobus,A45,1964355_east,"52.57124681,13.41067072",,52.57124681,13.41067072,100.0,"Pankow, Kirche",1965453_east,['A45'],
Prenzlauer Promenade Ecke Kissingenstr.,autobus,A45,1964356_east,"52.56795805,13.42773437",,,,,,,,1964944.0
Am Steinberg,autobus,A45,1964357_east,"52.55648145,13.42930676",,,,,,,,196456.0
Hamburgerplatz,autobus,A45,1964358_east,"52.55539419,13.43897314",,52.55539419,13.43897314,100.0,Hamburgerplatz,1965456_east,['A45'],
Pistoriusstr. Ecke Klement-Gottwald-Allee,autobus,A45,1964359_east,"52.55009436,13.45900711",,52.55009436,13.45900711,95.0,Klement-Gottwald-Allee Ecke Pistoriusstr.,1965457_east,['A45'],
Lichtenbergerstr. Ecke Klement-Gottwald-Allee,autobus,A45,1964360_east,"52.55200518,13.46547796",,52.55200518,13.46547796,100.0,Lichtenbergerstr. Ecke Klement-Gottwald-Allee,1965458_east,['A45'],
Klement-Gottwald-Allee Ecke Rennbahnstr.,autobus,A45,1964361_east,"52.55694653,13.46696608",nan+ nan,,,,,,,1964612.0
"Weißensee, Schwarzelfenweg",autobus,A45,1964362_east,"52.56729838,13.46535453",,52.56729838,13.46535453,100.0,"Weißensee, Schwarzelfenweg",1965461_east,['A45'],
"Ahrensfeld, Kirche",autobus,A46,1964363_east,"52.57532251,13.57645628",,52.57532251,13.57645628,97.0,"Ahrensfelde, Kirche",1965462_east,['A46'],
Lpg Falkenberg,autobus,A46,1964364_east,"52.57689764,13.58248385",,52.57689764,13.58248385,100.0,LPG Falkenberg,1965463_east,['A46'],
Malchowerweg,autobus,A46,1964366_east,"52.56152031,13.50048590",,52.56152031,13.5004859,100.0,Malchowerweg,1965464_east,['A46'],
Buschallee Ecke Klement-Gottwald-Alle,autobus,A46,1964367_east,"52.55387174,13.46754341",,52.55387174,13.46754341,99.0,Buschallee Ecke Klement-Gottwald-Allee,1965465_east,['A46'],
Klement-Gottwald-Allee Ecke Rennbahnstr.,autobus,A46,1964368_east,"52.55694653,13.46696608",nan+ nan,,,,,,,1964612.0
Feldtmannstr.,autobus,A46,1964369_east,"52.56401588,13.46980858",,,,,,,,1964324.0
Bhf. Schöneweide,autobus,A47,1964371_east,"52.45374952,13.51020040",,52.45374952,13.5102004,100.0,Bhf. Schöneweide,1965469_east,['A47'],
Sterndamm,autobus,A47,1964372_east,"52.44658675,13.50653487",,52.44658675,13.50653487,100.0,Sterndamm,1965470_east,['A47'],
Johannisthalerchaussee,autobus,A47,1964373_east,"52.45136033,13.48829962",,52.45136033,13.48829962,98.0,Johannisthaler Chaussee,1965471_east,['A47'],
Baumschulenstr. Ecke Südostallee,autobus,A47,1964374_east,"52.46095842,13.48119184",,52.46095842,13.48119184,100.0,Baumschulenstr. Ecke Südostallee,1965472_east,['A47'],
S-Bhf. Baumschulenweg,autobus,A47,1964375_east,"52.46749675,13.48937988",,52.46749675,13.48937988,100.0,S-Bhf. Baumschulenweg,1965473_east,['A47'],
Eichbuschallee,autobus,A47,1964376_east,"52.47574297,13.48731257",,52.47574297,13.48731257,100.0,Eichbuschallee,1965474_east,['A47'],
"Treptow, Rathaus",autobus,A47,1964377_east,"52.48358900,13.48032476",,52.483589,13.48032476,100.0,"Treptow, Rathaus",1965475_east,['A47'],
S-Bhf. Treptower Park,autobus,A47,1964378_east,"52.49403641,13.46076257",,52.49403641,13.46076257,100.0,S-Bhf. Treptower Park,1965477_east,['A47'],
Bhf. Schöneweide,autobus,A48,1964379_east,"52.45374952,13.51020040",,,,,,,,1964139.0
Königsheideweg,autobus,A48,1964380_east,"52.44659457,13.50649293",,52.44659457,13.50649293,100.0,Königsheideweg,1965479_east,['A48'],
Lindhorstweg,autobus,A48,1964381_east,"52.44148584,13.50065006",,52.44148584,13.50065006,100.0,Lindhorstweg,1965480_east,['A48'],
Stubenrauchstr.,autobus,A48,1964382_east,"52.42413802,13.48549509",,52.42413802,13.48549509,100.0,Stubenrauchstr.,1965481_east,['A48'],
"Kaulsdorf, Bausdorfstr.",autobus,A49,1964383_east,"52.51315438,13.59093779",,52.51315438,13.59093779,95.0,"Bhf. Kaulsdorf, Bausdorfstr.",1965482_east,['A49'],
Ridbacherstr.,autobus,A49,1964384_east,"52.52745720,13.60644776",,52.5274572,13.60644776,100.0,Ridbacherstr.,1965483_east,['A49'],
Grottkauerstr.,autobus,A49,1964385_east,"52.52747689,13.60650030",,52.52747689,13.6065003,100.0,Grottkauerstr.,1965484_east,['A49'],
Uckermarkstr.,autobus,A49,1964386_east,"52.52145144,13.59672460",,52.52145144,13.5967246,100.0,Uckermarkstr.,1965485_east,['A49'],
Storkowerstr. Ecke Greifswalderstr.,autobus,A54,1964387_east,"52.54126983,13.43885375",,52.54126983,13.43885375,100.0,Storkowerstr. Ecke Greifswalderstr.,1965486_east,['A54'],
S-Bhf. Lenninallee,autobus,A54,1964388_east,"52.52851724,13.45572809",,52.52851724,13.45572809,100.0,S-Bhf. Lenninallee,1965487_east,['A54'],
Dimitroffstr. Ecke Leninallee,autobus,A54,1964389_east,"52.52644399,13.44764502",,52.52644399,13.44764502,100.0,Dimitroffstr. Ecke Leninallee,1965488_east,['A54'],
Ehrenmal,autobus,A55,1964392_east,"52.57958420,13.37597472",,,,,,,,1964286.0
Heinrich-Mann-Platz,autobus,A55,1964393_east,"52.57297246,13.39214613",,,,,,,,1964482.0
"Pankow, Rathaus",autobus,A55,1964394_east,"52.56953909,13.40418644",,,,,,,,1964893.0
"Pankow, Kirche",autobus,A55,1964395_east,"52.57124681,13.41067072",,,,,,,,1964891.0
S-Bhf. Pankow,autobus,A55,1964396_east,"52.56742037,13.41225013",,,,,,,,19641064.0
Prenzlauer Promenade Ecke Granitzstr.,autobus,A55,1964397_east,"52.57209202,13.42875772",,,,,,,,1964943.0
"Heinersdorf, Kirche",autobus,A55,1964398_east,"52.56826376,13.44060190",,,,,,,,1964477.0
Am Steinberg,autobus,A55,1964399_east,"52.55648145,13.42930676",,52.55648145,13.42930676,100.0,Am Steinberg,1965494_east,['A55'],
Hamburgerplatz,autobus,A55,1964400_east,"52.55539419,13.43897314",,,,,,,,1964449.0
"Weißensee, Nüßlerstr.",autobus,A56,1964404_east,"52.56398538,13.46973377",,52.56398538,13.46973377,100.0,"Weißensee, Nüßlerstr.",1965501_east,['A56'],
Rennbahnstr. Ecke Gustav-Adolf-Str.,autobus,A56,1964405_east,"52.56218648,13.45426704",,52.56218648,13.45426704,100.0,Rennbahnstr. Ecke Gustav-Adolf-Str.,1965503_east,['A56'],
Hamburgerplatz,autobus,A56,1964406_east,"52.55539419,13.43897314",,,,,,,,1964449.0
Prenzlauer Promenade,autobus,A56,1964407_east,"52.55167517,13.43032601",,52.55167517,13.43032601,100.0,Prenzlauer Promenade,1965506_east,['A56'],
Wicherstr. Ecke Prenzlauerallee,autobus,A56,1964408_east,"52.54598539,13.42701250",,52.54598539,13.4270125,85.0,"Prenzlauerallee, Wichertstr.",1965507_east,['A56'],
Kniprodestr. Ecke Ermländischestr.,autobus,A57,1964409_east,"52.53214047,13.44149841",,52.53214047,13.44149841,100.0,Kniprodestr. Ecke Ermländischestr.,1965508_east,['A57'],
Dimitroffstr.,autobus,A57,1964410_east,"52.52644945,13.44757477",,52.52644945,13.44757477,100.0,Dimitroffstr.,1965509_east,['A57'],
Königstor,autobus,A57,1964411_east,"52.52520269,13.41983499",,,,,,,,1964675.0
S-Bhf. Alexanderplatz,autobus,A57,1964412_east,"52.52074878,13.41214723",,,,,,,,19641041.0
Marx-Engels-Platz,autobus,A57,1964413_east,"52.51617617,13.40093741",,52.51617617,13.40093741,100.0,Marx-Engels-Platz,1965513_east,['A57'],
Friedrichstr.,autobus,A57,1964414_east,"52.51718498,13.38882143",,,,,,,,1964357.0
Bhf. Friedrichstr.,autobus,A57,1964415_east,"52.52056066,13.38823192",,,,,,,,1964126.0
Schumannstr.,autobus,A57,1964416_east,"52.52325899,13.38382070",,52.52325899,13.3838207,90.0,Schumannstr. Ecke Reinhardtstr.,1965516_east,['A57'],
Robert-Koch-Platz,autobus,A57,1964417_east,"52.52757051,13.37877230",,52.52757051,13.3787723,100.0,Robert-Koch-Platz,1965517_east,['A57'],
Fontanestr.,autobus,A58,1964418_east,"52.58985939,13.36119357",,52.58985939,13.36119357,100.0,Fontanestr.,1965518_east,['A58'],
"Wilhelmsruh, Hauptstrasee",autobus,A58,1964419_east,"52.59724375,13.37551883",,,,,,,,19641403.0
Ehrenmal,autobus,A58,1964420_east,"52.57958420,13.37597472",,,,,,,,1964286.0
Heinrich-Mann-Platz,autobus,A58,1964421_east,"52.57297246,13.39214613",,52.57297246,13.39214613,100.0,Heinrich-Mann-Platz,1965520_east,['A58'],
"Pankow, Rathaus",autobus,A58,1964422_east,"52.56953909,13.40418644",,,,,,,,1964893.0
"Pankow, Kirche",autobus,A58,1964423_east,"52.57124681,13.41067072",,,,,,,,1964891.0
S-Bhf. Pankow,autobus,A58,1964424_east,"52.56742037,13.41225013",,52.56742037,13.41225013,100.0,S-Bhf. Pankow,1965523_east,['A58'],
U-Bhf. Pankow,autobus,A58,1964425_east,"52.56742037,13.41225013",,52.56742037,13.41225013,92.0,S-Bhf. Pankow,1965523_east,['A58'],
Walther-Ulbricht-Stadion,autobus,A59,1964426_east,"52.53664798,13.37829813",,52.53664798,13.37829813,100.0,Walther-Ulbricht-Stadion,1965525_east,['A59'],
Invalidenstr.,autobus,A59,1964427_east,"52.53056312,13.38307277",,52.53056312,13.38307277,100.0,Invalidenstr.,1965526_east,['A59'],
Oranienburger Tor,autobus,A59,1964428_east,"52.52716314,13.38710905",,52.52716314,13.38710905,100.0,Oranienburger Tor,1965527_east,['A59'],
Bhf. Friedrichstr.,autobus,A59,1964429_east,"52.52056066,13.38823192",,,,,,,,1964126.0
Französischestr.,autobus,A59,1964430_east,"52.51479531,13.38921161",,52.51479531,13.38921161,100.0,Französischestr.,1965529_east,['A59'],
U-Bhf. Stadtmitte,autobus,A59,1964431_east,"52.51041797,13.38988130",,52.51041797,13.3898813,100.0,U-Bhf. Stadtmitte,1965530_east,['A59'],
U-Bhf. Thälmannplatz,autobus,A59,1964432_east,"52.51144420,13.38343291",,52.5114442,13.38343291,100.0,U-Bhf. Thälmannplatz,1965531_east,['A59'],
"Glienicke, Kirche",autobus,A7,1964433_east,"52.63062737,13.31286192",,52.63062737,13.31286192,100.0,"Glienicke, Kirche",1965532_east,['A7'],
Elsässerstr.,autobus,A7,1964434_east,"52.63337295,13.34510342",,52.63337295,13.34510342,100.0,Elsässerstr.,1965533_east,['A7'],
"Schildow, Kirche",autobus,A7,1964435_east,"52.63581867,13.37771917",,,,,,,,19641093.0
"Blankenfelde, Hauptstr.",autobus,A7,1964436_east,"52.63002535,13.38262328",,52.63002535,13.38262328,100.0,"Blankenfelde, Hauptstr.",1965535_east,['A7'],
Nordend,autobus,A7,1964437_east,"52.59006569,13.40174057",,52.59006569,13.40174057,100.0,Nordend,1965537_east,['A7'],
Kurt-Fischer-Platz,autobus,A7,1964438_east,"52.57973293,13.39833073",,52.57973293,13.39833073,100.0,Kurt-Fischer-Platz,1965538_east,['A7'],
"Pankow, Rathaus",autobus,A7,1964439_east,"52.56953909,13.40418644",,,,,,,,1964893.0
U-Bhf. Vinetastr.,autobus,A7,1964440_east,"52.55981894,13.41320863",,52.55981894,13.41320863,100.0,U-Bhf. Vinetastr.,1965541_east,['A7'],
"Schildow, Kirche",autobus,A7E,1964441_east,"52.63581867,13.37771917",,,,,,,,19641093.0
Nordend,autobus,A7E,1964443_east,"52.59006569,13.40174057",,,,,,,,1964841.0
Kurt-Fischer-Platz,autobus,A7E,1964444_east,"52.57973293,13.39833073",,,,,,,,1964663.0
"Pankow, Rathaus",autobus,A7E,1964445_east,"52.56953909,13.40418644",,52.56953909,13.40418644,100.0,"Pankow, Rathaus",1965547_east,['A7E'],
U-Bhf. Vinetastr.,autobus,A7E,1964446_east,"52.55981894,13.41320863",,,,,,,,19641318.0
"Waldesruh, Malhlsdorferallee",autobus,A8,1964447_east,"52.48493120,13.62906944",,52.4849312,13.62906944,100.0,"Waldesruh, Malhlsdorferallee",1965550_east,['A8'],
Fichtestr. Ecke Schopenhauerstr.,autobus,A8,1964448_east,"52.47979925,13.61729231",,52.47979925,13.61729231,100.0,Fichtestr. Ecke Schopenhauerstr.,1965551_east,['A8'],
Hultschinerdamm,autobus,A8,1964449_east,"52.47711374,13.60059814",,52.47711374,13.60059814,100.0,Hultschinerdamm,1965552_east,['A8'],
Sadowastr.,autobus,A8,1964450_east,"52.48267547,13.58483307",,52.48267547,13.58483307,100.0,Sadowastr.,1965553_east,['A8'],
Chemnitzer Ecke Ulmenstr.,autobus,A8,1964451_east,"52.48730505,13.57494604",,,,,,,,1964233.0
"Alt-Biesdorf, Oberfeldstr.",autobus,A8,1964452_east,"52.50918607,13.55334706",,52.50918607,13.55334706,100.0,"Alt-Biesdorf, Oberfeldstr.",1965558_east,['A8'],
"Alt-Friedrichsfelde, Am Tierpark",autobus,A8,1964453_east,"52.50970259,13.51883251",,,,,,,,196423.0
U-Bhf. Friedrichsfelde,autobus,A8,1964454_east,"52.50624112,13.51285306",,52.50624112,13.51285306,100.0,U-Bhf. Friedrichsfelde,1965560_east,['A8'],
Sadowastr.,autobus,A8E,1964455_east,"52.48267547,13.58483307",,,,,,,,19641084.0
Chemnitzer Ecke Ulmenstr.,autobus,A8E,1964456_east,"52.48730505,13.57494604",,,,,,,,1964233.0
"Alt-Friedrichsfelde, Am Tierpark",autobus,A8E,1964458_east,"52.50970259,13.51883251",,52.50970259,13.51883251,100.0,"Alt-Friedrichsfelde, Am Tierpark",1965567_east,['A8E'],
U-Bhf. Friedrichsfelde,autobus,A8E,1964459_east,"52.50624112,13.51285306",,,,,,,,19641284.0
Kurischestr.,autobus,A9,1964460_east,"52.53541469,13.43908579",,52.53541469,13.43908579,100.0,Kurischestr.,1965569_east,['A9'],
Dimitroffstr.,autobus,A9,1964461_east,"52.52644945,13.44757477",,,,,,,,1964261.0
Königstor,autobus,A9,1964462_east,"52.52520269,13.41983499",,52.52520269,13.41983499,100.0,Königstor,1965571_east,['A9'],
S-Bhf. Alexanderplatz,autobus,A9,1964463_east,"52.52074878,13.41214723",,52.52074878,13.41214723,100.0,S-Bhf. Alexanderplatz,1965572_east,['A9'],
Marx-Engels-Platz,autobus,A9,1964464_east,"52.51617617,13.40093741",,,,,,,,1964790.0
Friedrichstr.,autobus,A9,1964465_east,"52.52056066,13.38823192",,52.52056066,13.38823192,95.0,Bhf. Friedrichstr.,1965575_east,['A9'],
Bhf. Friedrichstr.,autobus,A9,1964466_east,"52.52056066,13.38823192",,52.52056066,13.38823192,100.0,Bhf. Friedrichstr.,1965575_east,['A9'],
Oranienburger Tor,autobus,A9,1964467_east,"52.52716314,13.38710905",,,,,,,,1964863.0
Platz Vor Dem Neuen Tor,autobus,A9,1964468_east,"52.52921246,13.37851356",,52.52921246,13.37851356,100.0,Platz vor dem Neuen Tor,1965577_east,['A9'],
Scharnhorststr. Ecke Kielerstr.,autobus,A9,1964469_east,"52.53435872,13.37031084",,52.53435872,13.37031084,100.0,Scharnhorststr. Ecke Kielerstr.,1965578_east,['A9'],
Diepensee,autobus,AD,1964470_east,"52.30056922,13.58892002",,,,,,,,1964259.0
Kienberg,autobus,AD,1964471_east,"52.35176615,13.54930701",,,,,,,,1964599.0
Waltersdorf,autobus,AD,1964472_east,"52.36492901,13.55571241",,,,,,,,19641354.0
S-Bhf. Grünau,autobus,AD,1964474_east,"52.41361516,13.57379629",,,,,,,,19641050.0
Zühlsdorf,autobus,AS,1964475_east,"52.71622507,13.36692567",,52.71622507,13.36692567,100.0,Zühlsdorf,1965584_east,['AS'],
"Summt, Seegarten",autobus,AS,1964476_east,"52.69281585,13.36639406",,52.69281585,13.36639406,100.0,"Summt, Seegarten",1965585_east,['AS'],
"Triftweg, Lpg",autobus,AS,1964477_east,"52.67560474,13.37729050",,52.67560474,13.3772905,100.0,"Triftweg, LPG",1965586_east,['AS'],
"Mühlenbeck, Schule",autobus,AS,1964478_east,"52.66607201,13.37807341",,52.66607201,13.37807341,100.0,"Mühlenbeck, Schule",1965587_east,['AS'],
Mönchmühle,autobus,AS,1964479_east,"52.64953455,13.39049276",,52.64953455,13.39049276,100.0,Mönchmühle,1965588_east,['AS'],
"Schildow, Kirche",autobus,AS,1964480_east,"52.63581867,13.37771917",,52.63581867,13.37771917,100.0,"Schildow, Kirche",1965589_east,['AS'],
Eichbuschplatz,autobus,A38,1964482_east,"52.39366126,13.58204631",,,,,,,,1964290.0
Joachimstr.,autobus,A38,1964483_east,"52.40316590,13.57664159",,,,,,,,1964563.0
S-Bhf. Grünau,autobus,A38,1964484_east,"52.41361516,13.57379629",,,,,,,,19641050.0
Neu-Lindenberg,autobus,AL,1964485_east,"52.60088563,13.55479409",,52.60088563,13.55479409,100.0,Neu-Lindenberg,1965579_east,['AL'],
Lindenberg,autobus,AL,1964486_east,"52.60088563,13.55479409",,52.60088563,13.55479409,95.0,Neu-Lindenberg,1965579_east,['AL'],
"Malchow, Dorfstr.",autobus,AL,1964487_east,"52.58046227,13.48279758",,52.58046227,13.48279758,100.0,"Malchow, Dorfstr.",1965583_east,['AL'],
Groß Ziethen,autobus,AZ,1964488_east,"52.41404104,13.43887916",,52.41404104,13.43887916,90.0,"Groß Ziethen, Friedrich-Ebert-Str.",1965590_east,['AZ'],
Klein Ziethen,autobus,AZ,1964489_east,"52.37958050,13.44656987",,52.3795805,13.44656987,100.0,Klein Ziethen,1965591_east,['AZ'],
"Waßmannsdorf, Warteh.",autobus,AZ,1964490_east,"52.37269773,13.46503265",,52.37269773,13.46503265,90.0,Waßmannsdorf,1965592_east,['AZ'],
"Schönefeld, Kirche",autobus,AZ,1964491_east,"52.38742508,13.50596412",,52.38742508,13.50596412,100.0,"Schönefeld, Kirche",1965593_east,['AZ'],
Bhf. Schönefeld,autobus,AZ,1964492_east,"52.38192403,13.51154508",,52.38192403,13.51154508,100.0,Bhf. Schönefeld,1965594_east,['AZ'],
Friedrichstr.,s-bahn,KBS 101,1964493_east,"52.52027778,13.38694444",Q111219456,,,,,,,1964356.0
Marx-Engels-Platz,s-bahn,KBS 101,1964494_east,"52.52260000,13.40220000",Q689312,,,,,,,1964791.0
Alexanderplatz,s-bahn,KBS 101,1964495_east,"52.52138889,13.41194444",Q111324700,,,,,,,19649.0
Jannowitzbrücke,s-bahn,KBS 101,1964496_east,"52.51482222,13.41795000",Q27955427,,,,,,,1964557.0
Ostbahnhof,s-bahn,KBS 101,1964497_east,"52.51000000,13.43470000",Q111325075,,,,,,,1964877.0
Warschauer Str.,s-bahn,KBS 101,1964498_east,"52.50641667,13.45095556",Q111252298,,,,,,,19641360.0
Ostkreuz,s-bahn,KBS 101,1964499_east,"52.50310000,13.46890000",Q111251530,,,,,,,1964880.0
Nöldnerplatz,s-bahn,KBS 101,1964500_east,"52.50380000,13.48530000",,52.5038,13.4853,100.0,Nöldnerplatz,1965602_east,['KBS 101'],
Lichtenberg,s-bahn,KBS 101,1964501_east,"52.51060000,13.49640000",,52.5106,13.4964,100.0,Lichtenberg,1965603_east,['KBS 101'],
Friedrichsfelde Ost,s-bahn,KBS 101,1964502_east,"52.51410000,13.51980000",,52.5141,13.5198,100.0,Friedrichsfelde Ost,1965604_east,['KBS 101'],
Biesdorf,s-bahn,KBS 101,1964503_east,"52.51310000,13.55540000",,52.5131,13.5554,100.0,Biesdorf,1965605_east,['KBS 101'],
Kaulsdorf,s-bahn,KBS 101,1964504_east,"52.51210000,13.59040000",,52.5121,13.5904,100.0,Kaulsdorf,1965606_east,['KBS 101'],
Mahlsdorf,s-bahn,KBS 101,1964505_east,"52.51210000,13.61060000",,52.5121,13.6106,100.0,Mahlsdorf,1965607_east,['KBS 101'],
Hoppegarten (Mark),s-bahn,KBS 101,1964506_east,"52.51830000,13.67340000",,52.5183,13.6734,100.0,Hoppegarten (Mark),1965608_east,['KBS 101'],
Neuenhagen (b Bln),s-bahn,KBS 101,1964507_east,"52.52080000,13.70030000",,52.5208,13.7003,100.0,Neuenhagen (b Bln),1965609_east,['KBS 101'],
Fredersdorf (b Bln),s-bahn,KBS 101,1964508_east,"52.52650000,13.76250000",,52.5265,13.7625,100.0,Fredersdorf (b Bln),1965610_east,['KBS 101'],
Giebelsee,s-bahn,KBS 101,1964509_east,"52.52910000,13.79100000",Q7178217,,,,,,,1964380.0
Strausberg,s-bahn,KBS 101,1964510_east,"52.53193300,13.83693300",,52.531933,13.836933,100.0,Strausberg,1965612_east,['KBS 101'],
Strausberg,s-bahn,KBS 101c,1964511_east,"52.53193300,13.83693300",Q7622326,,,,,,,19641208.0
Strausberg Stadt,s-bahn,KBS 101c,1964512_east,"52.57660000,13.88780000",,52.5766,13.8878,100.0,Strausberg Stadt,1965614_east,['KBS 101c'],
Strausberg Nord,s-bahn,KBS 101c,1964513_east,"52.59020000,13.90840000",,52.5902,13.9084,100.0,Strausberg Nord,1965615_east,['KBS 101c'],
Friedrichstr.,s-bahn,KBS 102,1964514_east,"52.52027778,13.38694444",Q111219456,,,,,,,1964356.0
Marx-Engels-Platz,s-bahn,KBS 102,1964515_east,"52.52260000,13.40220000",Q689312,,,,,,,1964791.0
Alexanderplatz,s-bahn,KBS 102,1964516_east,"52.52138889,13.41194444",Q111324700,,,,,,,19649.0
Jannowitzbrücke,s-bahn,KBS 102,1964517_east,"52.51482222,13.41795000",,52.51482222,13.41795,100.0,Jannowitzbrücke,1965619_east,['KBS 102'],
Ostbahnhof,s-bahn,KBS 102,1964518_east,"52.51000000,13.43470000",Q111325075,,,,,,,1964877.0
Warschauer Str.,s-bahn,KBS 102,1964519_east,"52.50641667,13.45095556",Q111252298,,,,,,,19641360.0
Ostkreuz,s-bahn,KBS 102,1964520_east,"52.50310000,13.46890000",Q111251530,,,,,,,1964880.0
Rummelsburg,s-bahn,KBS 102,1964521_east,"52.50124400,13.47854500",,52.501244,13.478545,100.0,Rummelsburg,1965623_east,['KBS 102'],
Betriebsbahnhof Rummelsburg,s-bahn,KBS 102,1964522_east,"52.49390000,13.49780000",,52.4939,13.4978,100.0,Betriebsbahnhof Rummelsburg,1965624_east,['KBS 102'],
Karlshorst,s-bahn,KBS 102,1964523_east,"52.48080000,13.52580000",,52.4808,13.5258,100.0,Karlshorst,1965625_east,['KBS 102'],
Wuhlheide,s-bahn,KBS 102,1964524_east,"52.46890000,13.55330000",,52.4689,13.5533,100.0,Wuhlheide,1965626_east,['KBS 102'],
Köpenick,s-bahn,KBS 102,1964525_east,"52.45860000,13.58080000",,52.4586,13.5808,100.0,Köpenick,1965627_east,['KBS 102'],
Hirschgarten,s-bahn,KBS 102,1964526_east,"52.45790000,13.60320000",,52.4579,13.6032,100.0,Hirschgarten,1965628_east,['KBS 102'],
Friedrichshagen,s-bahn,KBS 102,1964527_east,"52.45740000,13.62330000",,52.4574,13.6233,100.0,Friedrichshagen,1965629_east,['KBS 102'],
Rahnsdorf,s-bahn,KBS 102,1964528_east,"52.45163720,13.68997760",,52.4516372,13.6899776,100.0,Rahnsdorf,1965630_east,['KBS 102'],
Wilhelmshagen,s-bahn,KBS 102,1964529_east,"52.43860000,13.72220000",,52.4386,13.7222,100.0,Wilhelmshagen,1965631_east,['KBS 102'],
Erkner,s-bahn,KBS 102,1964530_east,"52.42960000,13.75130000",,52.4296,13.7513,100.0,Erkner,1965632_east,['KBS 102'],
Falkensee,s-bahn,KBS 103,1964531_east,"52.55972200,13.08888900",Q5431918,,,,,,,1964319.0
Albrechtshof,s-bahn,KBS 103,1964532_east,"52.54940000,13.12830000",Q800470,,,,,,,19648.0
Friedrichstr.,s-bahn,KBS 103,1964533_east,"52.52027778,13.38694444",,52.52027778,13.38694444,100.0,Friedrichstr.,1965633_east,['KBS 103'],
Marx-Engels-Platz,s-bahn,KBS 103,1964534_east,"52.52260000,13.40220000",Q689312,,,,,,,1964791.0
Alexanderplatz,s-bahn,KBS 103,1964535_east,"52.52138889,13.41194444",Q111324700,,,,,,,19649.0
Jannowitzbrücke,s-bahn,KBS 103,1964536_east,"52.51482222,13.41795000",Q27955427,,,,,,,1964557.0
Ostbahnhof,s-bahn,KBS 103,1964537_east,"52.51000000,13.43470000",Q111325075,,,,,,,1964877.0
Warschauer Str.,s-bahn,KBS 103,1964538_east,"52.50641667,13.45095556",,52.50641667,13.45095556,100.0,Warschauer Str.,1965638_east,['KBS 103'],
Ostkreuz,s-bahn,KBS 103,1964539_east,"52.50310000,13.46890000",Q111251530,,,,,,,1964880.0
Treptower Park,s-bahn,KBS 103,1964540_east,"52.49380000,13.46180000",Q559274,,,,,,,19641266.0
Plänterwald,s-bahn,KBS 103,1964541_east,"52.47860000,13.47330000",Q7205917,,,,,,,1964924.0
Baumschulenweg,s-bahn,KBS 103,1964542_east,"52.46750000,13.48972200",Q324336,,,,,,,196493.0
Schöneweide,s-bahn,KBS 103,1964543_east,"52.45500000,13.50944444",Q111323931,,,,,,,19641132.0
Betriebsbahnhof Schöneweide,s-bahn,KBS 103,1964544_east,"52.44676000,13.52391000",Q4526101,,,,,,,1964122.0
Adlershof,s-bahn,KBS 103,1964545_east,"52.43472222,13.54138889",,52.43472222,13.54138889,100.0,Adlershof,1965644_east,['KBS 103'],
Grünau,s-bahn,KBS 103,1964546_east,"52.41220000,13.57460000",,52.4122,13.5746,100.0,Grünau,1965645_east,['KBS 103'],
Eichwalde,s-bahn,KBS 103,1964547_east,"52.37150000,13.61520000",,52.3715,13.6152,100.0,Eichwalde,1965646_east,['KBS 103'],
Zeuthen,s-bahn,KBS 103,1964548_east,"52.34860000,13.62740000",Q8069824,,,,,,,19641444.0
Wildau,s-bahn,KBS 103,1964549_east,"52.32000000,13.63400000",,52.32,13.634,100.0,Wildau,1965648_east,['KBS 103'],
Königs Wusterhausen,s-bahn,KBS 103,1964550_east,"52.29660000,13.63110000",,52.2966,13.6311,100.0,Königs Wusterhausen,1965649_east,['KBS 103'],
Friedrichstr.,s-bahn,KBS 103a,1964551_east,"52.52027778,13.38694444",Q111219456,,,,,,,1964356.0
Marx-Engels-Platz,s-bahn,KBS 103a,1964552_east,"52.52260000,13.40220000",,52.5226,13.4022,100.0,Marx-Engels-Platz,1965651_east,['KBS 103a'],
Alexanderplatz,s-bahn,KBS 103a,1964553_east,"52.52138889,13.41194444",,52.52138889,13.41194444,100.0,Alexanderplatz,1965652_east,['KBS 103a'],
Jannowitzbrücke,s-bahn,KBS 103a,1964554_east,"52.51482222,13.41795000",Q27955427,,,,,,,1964557.0
Ostbahnhof,s-bahn,KBS 103a,1964555_east,"52.51000000,13.43470000",,52.51,13.4347,100.0,Ostbahnhof,1965654_east,['KBS 103a'],
Warschauer Str.,s-bahn,KBS 103a,1964556_east,"52.50641667,13.45095556",Q111252298,,,,,,,19641360.0
Ostkreuz,s-bahn,KBS 103a,1964557_east,"52.50310000,13.46890000",Q111251530,,,,,,,1964880.0
Treptower Park,s-bahn,KBS 103a,1964558_east,"52.49380000,13.46180000",Q559274,,,,,,,19641266.0
Plänterwald,s-bahn,KBS 103a,1964559_east,"52.47860000,13.47330000",Q7205917,,,,,,,1964924.0
Baumschulenweg,s-bahn,KBS 103a,1964560_east,"52.46750000,13.48972200",Q324336,,,,,,,196493.0
Schöneweide,s-bahn,KBS 103a,1964561_east,"52.45500000,13.50944444",,52.455,13.50944444,100.0,Schöneweide,1965659_east,['KBS 103a'],
Betriebsbahnhof Schöneweide,s-bahn,KBS 103a,1964562_east,"52.44676000,13.52391000",,52.44676,13.52391,100.0,Betriebsbahnhof Schöneweide,1965660_east,['KBS 103a'],
Adlershof,s-bahn,KBS 103a,1964563_east,"52.43472222,13.54138889",Q323551,,,,,,,19643.0
Oranienburg,s-bahn,KBS 104,1964564_east,"52.75360000,13.24960000",,52.7536,13.2496,100.0,Oranienburg,1965665_east,['KBS 104'],
Lehnitz,s-bahn,KBS 104,1964565_east,"52.74110000,13.26350000",,52.7411,13.2635,100.0,Lehnitz,1965666_east,['KBS 104'],
Borgsdorf,s-bahn,KBS 104,1964566_east,"52.71550000,13.27640000",,52.7155,13.2764,100.0,Borgsdorf,1965667_east,['KBS 104'],
Birkenwerder,s-bahn,KBS 104,1964567_east,"52.68850000,13.28880000",,52.6885,13.2888,100.0,Birkenwerder,1965668_east,['KBS 104'],
Hohen Neuendorf (b Bln),s-bahn,KBS 104,1964568_east,"52.66840000,13.28700000",,52.6684,13.287,100.0,Hohen Neuendorf (b Bln),1965669_east,['KBS 104'],
Bergfelde (b Bln),s-bahn,KBS 104,1964569_east,"52.67020000,13.32030000",,52.6702,13.3203,100.0,Bergfelde (b Bln),1965670_east,['KBS 104'],
Schönfließ,s-bahn,KBS 104,1964570_east,"52.66480000,13.33970000",,52.6648,13.3397,100.0,Schönfließ,1965671_east,['KBS 104'],
Blankenburg,s-bahn,KBS 104,1964571_east,"52.59150000,13.44350000",,52.5915,13.4435,100.0,Blankenburg,1965672_east,['KBS 104'],
Pankow-Heinersdorf,s-bahn,KBS 104,1964572_east,"52.57806530,13.42950930",Q4892366,,,,,,,1964894.0
Pankow,s-bahn,KBS 104,1964573_east,"52.56670000,13.41110000",Q111273850,,,,,,,1964889.0
Schönhauserallee,s-bahn,KBS 104,1964574_east,"52.54932900,13.41370600",Q111264493,,,,,,,19641134.0
Prenzlauerallee,s-bahn,KBS 104,1964575_east,"52.54477500,13.42611600",Q32661483,,,,,,,1964937.0
Greifswalder Str.,s-bahn,KBS 104,1964576_east,"52.53972222,13.43944444",,52.53972222,13.43944444,100.0,Greifswalder Str.,1965677_east,['KBS 104'],
Leninallee,s-bahn,KBS 104,1964577_east,"52.52950000,13.45480000",,52.5295,13.4548,100.0,Leninallee,1965678_east,['KBS 104'],
Zentralviehhof,s-bahn,KBS 104,1964578_east,"52.52380000,13.46440000",Q800512,,,,,,,19641442.0
Frankfurterallee,s-bahn,KBS 104,1964579_east,"52.51416667,13.47472222",Q111250033,,,,,,,1964336.0
Ostkreuz,s-bahn,KBS 104,1964580_east,"52.50310000,13.46890000",Q111251530,,,,,,,1964880.0
Warschauer Str.,s-bahn,KBS 104,1964581_east,"52.50641667,13.45095556",Q111252298,,,,,,,19641360.0
Ostbahnhof,s-bahn,KBS 104,1964582_east,"52.51000000,13.43470000",Q111325075,,,,,,,1964877.0
Jannowitzbrücke,s-bahn,KBS 104,1964583_east,"52.51482222,13.41795000",Q27955427,,,,,,,1964557.0
Alexanderplatz,s-bahn,KBS 104,1964584_east,"52.52138889,13.41194444",Q111324700,,,,,,,19649.0
Hennigsdorf (b Bln),s-bahn,KBS 104d,1964585_east,"52.63800000,13.20570000",,52.638,13.2057,100.0,Hennigsdorf (b Bln),1965683_east,['KBS 104d'],
Hennigsdorf Nord,s-bahn,KBS 104d,1964586_east,"52.66000000,13.20330000",,52.66,13.2033,100.0,Hennigsdorf Nord,1965684_east,['KBS 104d'],
Hohenschöpping,s-bahn,KBS 104d,1964587_east,"52.67000000,13.19450000",,52.67,13.1945,100.0,Hohenschöpping,1965685_east,['KBS 104d'],
Velten (Mark),s-bahn,KBS 104d,1964588_east,"52.68500000,13.17222200",,52.685,13.172222,100.0,Velten (Mark),1965686_east,['KBS 104d'],
Bernau (b Bln),s-bahn,KBS 106,1964589_east,"52.67630000,13.59310000",,52.6763,13.5931,100.0,Bernau (b Bln),1965706_east,['KBS 106'],
Zepernick (b Bernau),s-bahn,KBS 106,1964590_east,"52.65980000,13.53420000",,52.6598,13.5342,100.0,Zepernick (b Bernau),1965707_east,['KBS 106'],
Röntgental,s-bahn,KBS 106,1964591_east,"52.64870000,13.51360000",,52.6487,13.5136,100.0,Röntgental,1965708_east,['KBS 106'],
Buch,s-bahn,KBS 106,1964592_east,"52.63590000,13.49170000",,52.6359,13.4917,100.0,Buch,1965709_east,['KBS 106'],
Karow,s-bahn,KBS 106,1964593_east,"52.61500000,13.46920000",,52.615,13.4692,100.0,Karow,1965710_east,['KBS 106'],
Blankenburg,s-bahn,KBS 106,1964594_east,"52.59150000,13.44350000",Q800469,,,,,,,1964159.0
Pankow-Heinersdorf,s-bahn,KBS 106,1964595_east,"52.57806530,13.42950930",Q4892366,,,,,,,1964894.0
Pankow,s-bahn,KBS 106,1964596_east,"52.56670000,13.41110000",,52.5667,13.4111,100.0,Pankow,1965713_east,['KBS 106'],
Schönhauserallee,s-bahn,KBS 106,1964597_east,"52.54932900,13.41370600",Q111264493,,,,,,,19641134.0
Prenzlauerallee,s-bahn,KBS 106,1964598_east,"52.54477500,13.42611600",Q32661483,,,,,,,1964937.0
Greifswalder Str.,s-bahn,KBS 106,1964599_east,"52.53972222,13.43944444",Q439246,,,,,,,1964400.0
Leninallee,s-bahn,KBS 106,1964600_east,"52.52950000,13.45480000",Q800507,,,,,,,1964701.0
Zentralviehhof,s-bahn,KBS 106,1964601_east,"52.52380000,13.46440000",,52.5238,13.4644,100.0,Zentralviehhof,1965718_east,['KBS 106'],
Frankfurterallee,s-bahn,KBS 106,1964602_east,"52.51416667,13.47472222",,52.51416667,13.47472222,100.0,Frankfurterallee,1965719_east,['KBS 106'],
Ostkreuz,s-bahn,KBS 106,1964603_east,"52.50310000,13.46890000",Q111251530,,,,,,,1964880.0
Treptower Park,s-bahn,KBS 106,1964604_east,"52.49380000,13.46180000",Q559274,,,,,,,19641266.0
Plänterwald,s-bahn,KBS 106,1964605_east,"52.47860000,13.47330000",Q7205917,,,,,,,1964924.0
Baumschulenweg,s-bahn,KBS 106,1964606_east,"52.46750000,13.48972200",Q324336,,,,,,,196493.0
Schöneweide,s-bahn,KBS 106,1964607_east,"52.45500000,13.50944444",Q111323931,,,,,,,19641132.0
Oberspree,s-bahn,KBS 106,1964608_east,"52.45250000,13.53820000",,52.4525,13.5382,100.0,Oberspree,1965725_east,['KBS 106'],
Spindlersfeld,s-bahn,KBS 106,1964609_east,"52.44720000,13.56130000",,52.4472,13.5613,100.0,Spindlersfeld,1965726_east,['KBS 106'],
Schönhauserallee,s-bahn,KBS 106a,1964610_east,"52.54932900,13.41370600",,52.549329,13.413706,100.0,Schönhauserallee,1965727_east,['KBS 106a'],
Prenzlauerallee,s-bahn,KBS 106a,1964611_east,"52.54477500,13.42611600",Q32661483,,,,,,,1964937.0
Greifswalder Str.,s-bahn,KBS 106a,1964612_east,"52.53972222,13.43944444",Q439246,,,,,,,1964400.0
Leninallee,s-bahn,KBS 106a,1964613_east,"52.52950000,13.45480000",Q800507,,,,,,,1964701.0
Zentralviehhof,s-bahn,KBS 106a,1964614_east,"52.52380000,13.46440000",Q800512,,,,,,,19641442.0
Frankfurterallee,s-bahn,KBS 106a,1964615_east,"52.51416667,13.47472222",Q111250033,,,,,,,1964336.0
Ostkreuz,s-bahn,KBS 106a,1964616_east,"52.50310000,13.46890000",Q111251530,,,,,,,1964880.0
Treptower Park,s-bahn,KBS 106a,1964617_east,"52.49380000,13.46180000",Q559274,,,,,,,19641266.0
Plänterwald,s-bahn,KBS 106a,1964618_east,"52.47860000,13.47330000",,52.4786,13.4733,100.0,Plänterwald,1965735_east,['KBS 106a'],
Baumschulenweg,s-bahn,KBS 106a,1964619_east,"52.46750000,13.48972200",,52.4675,13.489722,100.0,Baumschulenweg,1965736_east,['KBS 106a'],
Schöneweide,s-bahn,KBS 106a,1964620_east,"52.45500000,13.50944444",Q111323931,,,,,,,19641132.0
Betriebsbahnhof Schöneweide,s-bahn,KBS 106a,1964621_east,"52.44676000,13.52391000",Q4526101,,,,,,,1964122.0
Adlershof,s-bahn,KBS 106a,1964622_east,"52.43472222,13.54138889",Q323551,,,,,,,19643.0
Kosterstr.,omnibus,O30,1964623_east,"52.51798604,13.41212675",,52.51798604,13.41212675,100.0,Kosterstr.,1965336_east,['O30'],
Andreasstr.,omnibus,O30,1964624_east,"52.51797307,13.43289548",,52.51797307,13.43289548,100.0,Andreasstr.,1965337_east,['O30'],
Küstrinerplatz,omnibus,O30,1964625_east,"52.51324778,13.43933319",,52.51324778,13.43933319,100.0,Küstrinerplatz,1965338_east,['O30'],
Warschauerstr.,omnibus,O30,1964626_east,"52.51243227,13.45259884",,52.51243227,13.45259884,100.0,Warschauerstr.,1965339_east,['O30'],
Boxhagenerstr. Ecke Holteistr.,omnibus,O30,1964627_east,"52.50861319,13.46627719",,52.50861319,13.46627719,100.0,Boxhagenerstr. Ecke Holteistr.,1965340_east,['O30'],
S-Bhf. Rummelsburg,omnibus,O30,1964628_east,"52.50179539,13.47802858",,52.50179539,13.47802858,100.0,S-Bhf. Rummelsburg,1965341_east,['O30'],
Weitlingstr.,omnibus,O30,1964629_east,"52.50098659,13.49295187",,52.50098659,13.49295187,100.0,Weitlingstr.,1965342_east,['O30'],
Bhf. Lichtenberg,omnibus,O30,1964630_east,"52.54423460,13.46872150",,52.5442346,13.4687215,100.0,Bhf. Lichtenberg,1965343_east,['O30'],
Obus-Bf. Siegfriedstr.,omnibus,O30,1964631_east,"52.52055828,13.49943442",,52.52055828,13.49943442,100.0,Obus-Bf. Siegfriedstr.,1965344_east,['O30'],
Roederplatz,omnibus,O30,1964632_east,"52.52671389,13.47966235",,52.52671389,13.47966235,100.0,Roederplatz,1965345_east,['O30'],
Proskauer Ecke Dolzigerstr.,omnibus,O30,1964633_east,"52.51987408,13.46328923",,52.51987408,13.46328923,100.0,Proskauer Ecke Dolzigerstr.,1965346_east,['O30'],
Ebertystr. Ecke Leninallee,omnibus,O30,1964634_east,"52.52722237,13.45079968",,52.52722237,13.45079968,100.0,Ebertystr. Ecke Leninallee,1965347_east,['O30'],
Greifswalderstr. Ecke Dimitroffstr.,omnibus,O30,1964635_east,"52.53621776,13.43301750",,52.53621776,13.4330175,100.0,Greifswalderstr. Ecke Dimitroffstr.,1965348_east,['O30'],
"Alexanderplatz, Neue Königstr.",omnibus,O30,1964637_east,"52.52004899,13.41401856",,52.52004899,13.41401856,100.0,"Alexanderplatz, Neue Königstr.",1965350_east,['O30'],
Klosterstr.,omnibus,O30,1964638_east,"52.51798604,13.41212675",,52.51798604,13.41212675,100.0,Klosterstr.,1965351_east,['O30'],
Marzahnerchaussee,omnibus,O37,1964639_east,"52.53890763,13.53383321",,52.53890763,13.53383321,85.0,Marzahner Chaussee Ecke Berliner Chaussee,1965358_east,['O37'],
"Alt-Marzahn, Kirche",omnibus,O37,1964640_east,"52.54242345,13.56406175",,52.54242345,13.56406175,100.0,"Alt-Marzahn, Kirche",1965359_east,['O37'],
Elisabethstr.,omnibus,O37,1964641_east,"52.53409534,13.55949916",,52.53409534,13.55949916,100.0,Elisabethstr.,1965360_east,['O37'],
S-Bhf. Biesdorf,omnibus,O37,1964642_east,"52.51343259,13.55538728",,52.51343259,13.55538728,100.0,S-Bhf. Biesdorf,1965362_east,['O37'],
"Alt-Biesdorf, Oberfeldstr.",omnibus,O37,1964643_east,"52.50918607,13.55334706",,52.50918607,13.55334706,100.0,"Alt-Biesdorf, Oberfeldstr.",1965363_east,['O37'],
"Alt-Friedrichsfelde, Am Tierpark",omnibus,O37,1964644_east,"52.50970259,13.51883251",,52.50970259,13.51883251,100.0,"Alt-Friedrichsfelde, Am Tierpark",1965364_east,['O37'],
Ostbahnhof,omnibus,O40,1964646_east,"52.50976671,13.43372198",,52.50976671,13.43372198,100.0,Ostbahnhof,1965366_east,['O40'],
Leninplatz,omnibus,O40,1964649_east,"52.52323900,13.43359458",,52.523239,13.43359458,100.0,Leninplatz,1965369_east,['O40'],
Königstor,omnibus,O40,1964650_east,"52.52520269,13.41983499",,52.52520269,13.41983499,100.0,Königstor,1965370_east,['O40'],
Prenzlauer Tor,omnibus,O40,1964651_east,"52.52709114,13.41580937",,52.52709114,13.41580937,100.0,Prenzlauer Tor,1965371_east,['O40'],
Rosenthalerplatz,omnibus,O40,1964652_east,"52.52967295,13.40142893",,52.52967295,13.40142893,100.0,Rosenthalerplatz,1965372_east,['O40'],
Oranienburger Tor,omnibus,O40,1964653_east,"52.52716314,13.38710905",,52.52716314,13.38710905,100.0,Oranienburger Tor,1965373_east,['O40'],
Robert-Koch-Platz,omnibus,O40,1964654_east,"52.52757051,13.37877230",,52.52757051,13.3787723,100.0,Robert-Koch-Platz,1965374_east,['O40'],
S-Bhf. Friedrichshagen (Grenze),tram,"S-Bhf. Friedrichshagen <> Rüdersdorf, Karl-Marx-Platz (VEB Schöneiche-Rüdersdorf)",1964655_east,"52.45769560,13.62667120",,52.4576956,13.6266712,100.0,S-Bhf. Friedrichshagen (Grenze),1965313_east,"['S-Bhf. Friedrichshagen <> Rüdersdorf, Karl-Marx-Platz (VEB Schöneiche-Rüdersdorf)']",
"Schöneiche, Waldstr.",tram,"S-Bhf. Friedrichshagen <> Rüdersdorf, Karl-Marx-Platz (VEB Schöneiche-Rüdersdorf)",1964656_east,"52.46776642,13.68198322",,52.46776642,13.68198322,100.0,"Schöneiche, Waldstr.",1965314_east,"['S-Bhf. Friedrichshagen <> Rüdersdorf, Karl-Marx-Platz (VEB Schöneiche-Rüdersdorf)']",
"Schöneiche, Goethepark",tram,"S-Bhf. Friedrichshagen <> Rüdersdorf, Karl-Marx-Platz (VEB Schöneiche-Rüdersdorf)",1964657_east,"52.47079746,13.68834961",,52.47079746,13.68834961,100.0,"Schöneiche, Goethepark",1965315_east,"['S-Bhf. Friedrichshagen <> Rüdersdorf, Karl-Marx-Platz (VEB Schöneiche-Rüdersdorf)']",
"Schöneiche, Dorfstr.",tram,"S-Bhf. Friedrichshagen <> Rüdersdorf, Karl-Marx-Platz (VEB Schöneiche-Rüdersdorf)",1964658_east,"52.47856621,13.69495789",,52.47856621,13.69495789,100.0,"Schöneiche, Dorfstr.",1965316_east,"['S-Bhf. Friedrichshagen <> Rüdersdorf, Karl-Marx-Platz (VEB Schöneiche-Rüdersdorf)']",
"Schöneiche, Dorfaue",tram,"S-Bhf. Friedrichshagen <> Rüdersdorf, Karl-Marx-Platz (VEB Schöneiche-Rüdersdorf)",1964659_east,"52.47876200,13.70039800",,52.478762,13.700398,100.0,"Schöneiche, Dorfaue",1965317_east,"['S-Bhf. Friedrichshagen <> Rüdersdorf, Karl-Marx-Platz (VEB Schöneiche-Rüdersdorf)']",
"Schöneiche, Schillerstr.",tram,"S-Bhf. Friedrichshagen <> Rüdersdorf, Karl-Marx-Platz (VEB Schöneiche-Rüdersdorf)",1964660_east,"52.47747517,13.70876210",,52.47747517,13.7087621,100.0,"Schöneiche, Schillerstr.",1965318_east,"['S-Bhf. Friedrichshagen <> Rüdersdorf, Karl-Marx-Platz (VEB Schöneiche-Rüdersdorf)']",
"Schöneiche, Grätzwalde",tram,"S-Bhf. Friedrichshagen <> Rüdersdorf, Karl-Marx-Platz (VEB Schöneiche-Rüdersdorf)",1964661_east,"52.47410985,13.71327932",,52.47410985,13.71327932,100.0,"Schöneiche, Grätzwalde",1965319_east,"['S-Bhf. Friedrichshagen <> Rüdersdorf, Karl-Marx-Platz (VEB Schöneiche-Rüdersdorf)']",
"Schöneiche, Jägerstr.",tram,"S-Bhf. Friedrichshagen <> Rüdersdorf, Karl-Marx-Platz (VEB Schöneiche-Rüdersdorf)",1964662_east,"52.47278763,13.73056629",,52.47278763,13.73056629,100.0,"Schöneiche, Jägerstr.",1965320_east,"['S-Bhf. Friedrichshagen <> Rüdersdorf, Karl-Marx-Platz (VEB Schöneiche-Rüdersdorf)']",
"Rüdersdorf, Berghof",tram,"S-Bhf. Friedrichshagen <> Rüdersdorf, Karl-Marx-Platz (VEB Schöneiche-Rüdersdorf)",1964663_east,"52.47364542,13.76110048",,52.47364542,13.76110048,100.0,"Rüdersdorf, Berghof",1965321_east,"['S-Bhf. Friedrichshagen <> Rüdersdorf, Karl-Marx-Platz (VEB Schöneiche-Rüdersdorf)']",
"Rüdersdorf, Thälmannstr.",tram,"S-Bhf. Friedrichshagen <> Rüdersdorf, Karl-Marx-Platz (VEB Schöneiche-Rüdersdorf)",1964664_east,"52.47449257,13.77360376",,52.47449257,13.77360376,100.0,"Rüdersdorf, Thälmannstr.",1965322_east,"['S-Bhf. Friedrichshagen <> Rüdersdorf, Karl-Marx-Platz (VEB Schöneiche-Rüdersdorf)']",
"Rüdersdorf, Heinitzstr.",tram,"S-Bhf. Friedrichshagen <> Rüdersdorf, Karl-Marx-Platz (VEB Schöneiche-Rüdersdorf)",1964665_east,"52.47300367,13.77654713",,52.47300367,13.77654713,100.0,"Rüdersdorf, Heinitzstr.",1965323_east,"['S-Bhf. Friedrichshagen <> Rüdersdorf, Karl-Marx-Platz (VEB Schöneiche-Rüdersdorf)']",
"Rüdersdorf, Post",tram,"S-Bhf. Friedrichshagen <> Rüdersdorf, Karl-Marx-Platz (VEB Schöneiche-Rüdersdorf)",1964666_east,"52.47029587,13.78653797",,52.47029587,13.78653797,100.0,"Rüdersdorf, Post",1965324_east,"['S-Bhf. Friedrichshagen <> Rüdersdorf, Karl-Marx-Platz (VEB Schöneiche-Rüdersdorf)']",
"Rüdersdorf, Schulstr.",tram,"S-Bhf. Friedrichshagen <> Rüdersdorf, Karl-Marx-Platz (VEB Schöneiche-Rüdersdorf)",1964667_east,"52.46997849,13.78702428",,52.46997849,13.78702428,100.0,"Rüdersdorf, Schulstr.",1965325_east,"['S-Bhf. Friedrichshagen <> Rüdersdorf, Karl-Marx-Platz (VEB Schöneiche-Rüdersdorf)']",
"Rüdersdorf, Karl-Marx-Platz",tram,"S-Bhf. Friedrichshagen <> Rüdersdorf, Karl-Marx-Platz (VEB Schöneiche-Rüdersdorf)",1964668_east,"52.46647403,13.80512773",,52.46647403,13.80512773,100.0,"Rüdersdorf, Karl-Marx-Platz",1965326_east,"['S-Bhf. Friedrichshagen <> Rüdersdorf, Karl-Marx-Platz (VEB Schöneiche-Rüdersdorf)']",
S-Bhf. Rahnsdorf,tram,S-Bhf. Rahnsdorf <> Woltersdorfer Schleuse (VEB Woltersdorf),1964669_east,"52.45142247,13.69304560",,52.45142247,13.6930456,100.0,S-Bhf. Rahnsdorf,1965327_east,['S-Bhf. Rahnsdorf <> Woltersdorfer Schleuse (VEB Woltersdorf)'],
Goethestr.,tram,S-Bhf. Rahnsdorf <> Woltersdorfer Schleuse (VEB Woltersdorf),1964670_east,"52.45554577,13.72637715",,52.45554577,13.72637715,100.0,Goethestr.,1965328_east,['S-Bhf. Rahnsdorf <> Woltersdorfer Schleuse (VEB Woltersdorf)'],
Eichendamm,tram,S-Bhf. Rahnsdorf <> Woltersdorfer Schleuse (VEB Woltersdorf),1964671_east,"52.45567448,13.73097129",,52.45567448,13.73097129,100.0,Eichendamm,1965329_east,['S-Bhf. Rahnsdorf <> Woltersdorfer Schleuse (VEB Woltersdorf)'],
Lerchenstr.,tram,S-Bhf. Rahnsdorf <> Woltersdorfer Schleuse (VEB Woltersdorf),1964672_east,"52.45516415,13.73440924",,52.45516415,13.73440924,100.0,Lerchenstr.,1965330_east,['S-Bhf. Rahnsdorf <> Woltersdorfer Schleuse (VEB Woltersdorf)'],
Fasanenstr.,tram,S-Bhf. Rahnsdorf <> Woltersdorfer Schleuse (VEB Woltersdorf),1964673_east,"52.45303126,13.74428068",,52.45303126,13.74428068,100.0,Fasanenstr.,1965331_east,['S-Bhf. Rahnsdorf <> Woltersdorfer Schleuse (VEB Woltersdorf)'],
Thälmannplatz,tram,S-Bhf. Rahnsdorf <> Woltersdorfer Schleuse (VEB Woltersdorf),1964674_east,"52.45059921,13.75244097",,52.45059921,13.75244097,100.0,Thälmannplatz,1965332_east,['S-Bhf. Rahnsdorf <> Woltersdorfer Schleuse (VEB Woltersdorf)'],
Blumenstr.,tram,S-Bhf. Rahnsdorf <> Woltersdorfer Schleuse (VEB Woltersdorf),1964675_east,"52.44907888,13.76010696",,52.44907888,13.76010696,100.0,Blumenstr.,1965333_east,['S-Bhf. Rahnsdorf <> Woltersdorfer Schleuse (VEB Woltersdorf)'],
"Woltersdorf, Krankenhaus",tram,S-Bhf. Rahnsdorf <> Woltersdorfer Schleuse (VEB Woltersdorf),1964676_east,"52.44726860,13.76152919",,52.4472686,13.76152919,100.0,"Woltersdorf, Krankenhaus",1965334_east,['S-Bhf. Rahnsdorf <> Woltersdorfer Schleuse (VEB Woltersdorf)'],
Woltersdorfer Schleuse,tram,S-Bhf. Rahnsdorf <> Woltersdorfer Schleuse (VEB Woltersdorf),1964677_east,"52.44331332,13.76395552",,52.44331332,13.76395552,100.0,Woltersdorfer Schleuse,1965335_east,['S-Bhf. Rahnsdorf <> Woltersdorfer Schleuse (VEB Woltersdorf)'],
Pankow (Vinetastr.),u-bahn,A,1964678_east,"52.55916667,13.41333333",,52.55916667,13.41333333,100.0,Pankow (Vinetastr.),19650_east,['A'],
Schönhauserallee,u-bahn,A,1964679_east,"52.54932889,13.41370611",,52.54932889,13.41370611,100.0,Schönhauserallee,19651_east,['A'],
Dimitroffstr.,u-bahn,A,1964680_east,"52.54166667,13.41222222",,52.54166667,13.41222222,100.0,Dimitroffstr.,19652_east,['A'],
Senefelderplatz,u-bahn,A,1964681_east,"52.53242000,13.41274300",,52.53242,13.412743,100.0,Senefelderplatz,19653_east,['A'],
Luxemburgplatz,u-bahn,A,1964682_east,"52.52833333,13.41027778",,52.52833333,13.41027778,100.0,Luxemburgplatz,19654_east,['A'],
Alexanderplatz,u-bahn,A,1964683_east,"52.52140000,13.41190000",Q17173458,,,,,,,196410.0
Klosterstr.,u-bahn,A,1964684_east,"52.51611111,13.41222222",,52.51611111,13.41222222,100.0,Klosterstr.,19656_east,['A'],
Märkisches Museum,u-bahn,A,1964685_east,"52.51194444,13.40888889",,52.51194444,13.40888889,100.0,Märkisches Museum,19657_east,['A'],
Spittelmarkt,u-bahn,A,1964686_east,"52.51111111,13.40361111",,52.51111111,13.40361111,100.0,Spittelmarkt,19658_east,['A'],
Hausvogteiplatz,u-bahn,A,1964687_east,"52.51305556,13.39666667",,52.51305556,13.39666667,100.0,Hausvogteiplatz,19659_east,['A'],
Stadtmitte,u-bahn,A,1964688_east,"52.51167000,13.38472000",,52.51167,13.38472,90.0,Stadtmitte (Mohrenstr.),196510_east,['A'],
Thälmannplatz,u-bahn,A,1964689_east,"52.51167000,13.38472000",,52.51167,13.38472,100.0,Thälmannplatz,196511_east,['A'],
Alexanderplatz,u-bahn,E,1964690_east,"52.52140000,13.41190000",,52.5214,13.4119,100.0,Alexanderplatz,196512_east,['E'],
Schillingstr.,u-bahn,E,1964691_east,"52.52027800,13.42166700",,52.520278,13.421667,100.0,Schillingstr.,196513_east,['E'],
Strausbergerplatz,u-bahn,E,1964692_east,"52.51805556,13.43083333",,52.51805556,13.43083333,100.0,Strausbergerplatz,196514_east,['E'],
Marchlewskistr.,u-bahn,E,1964693_east,"52.51679444,13.44499167",,52.51679444,13.44499167,100.0,Marchlewskistr.,196515_east,['E'],
Frankfurter Tor,u-bahn,E,1964694_east,"52.51583333,13.45416667",,52.51583333,13.45416667,100.0,Frankfurter Tor,196516_east,['E'],
Samariterstr.,u-bahn,E,1964695_east,"52.51472222,13.46444444",,52.51472222,13.46444444,100.0,Samariterstr.,196517_east,['E'],
Stalinallee (Ringbahn),u-bahn,E,1964696_east,"52.51416667,13.47472222",Q552872,,,,,,,19641192.0
Magdalenenstr.,u-bahn,E,1964697_east,"52.51250000,13.48638889",,52.5125,13.48638889,100.0,Magdalenenstr.,196519_east,['E'],
Bahnhof Lichtenberg (Zentralfriedhof),u-bahn,E,1964698_east,"52.51055600,13.49638900",,52.510556,13.496389,100.0,Bahnhof Lichtenberg (Zentralfriedhof),196520_east,['E'],
Friedrichsfelde (Tierpark),u-bahn,E,1964699_east,"52.50611111,13.51277778",,52.50611111,13.51277778,100.0,Friedrichsfelde (Tierpark),196521_east,['E'],
Invalidenstr. Ecke Chausseestr.,tram,1,19645_east,"52.53041580,13.38273020",Q65552697,,,,,,,
Holteistr. Ecke Boxhagenerstr.,tram,3,196413_east,"52.50882350,13.46596900",Q65675805,,,,,,,
Eberswalderstr. Ecke Oderbergerstr.,tram,4,196432_east,"52.54098900,13.40654900",Q65719051,,,,,,,
Brunnenstr. Ecke Invalidenstr.,tram,11,196437_east,"52.53245420,13.39742360",Q65691740,,,,,,,
"Niederschönhausen, Schillerstr.",tram,46,196464_east,"52.59230500,13.41088000",Q65032581,,,,,,,
"Hackescher Markt, Große Präsidentenstr.",tram,49,196490_east,"52.52326626,13.40092239",,,,,,,,
"Hohenschönhausen, Hauptstr.",tram,63,196493_east,"52.54885643,13.50479114",,,,,,,,
"Hohenschönhausen, Hauptstr.",tram,64,1964102_east,"52.54885643,13.50479114",,,,,,,,
"Johannisthal, Haeckelstr.",tram,69,1964112_east,"52.44029440,13.50526380",Q66225573,,,,,,,
"Johannisthal, Haeckelstr.",tram,69E,1964130_east,"52.44029440,13.50526380",Q66225573,,,,,,,
Hochschule für Ökonomie,tram,69E,1964134_east,"52.49276810,13.52660590",Q65952866,,,,,,,
"Hohenschönhausen, Falkenbergerstr.",tram,70,1964145_east,"52.55086720,13.50949940",Q65555882,,,,,,,
Prenzlauerallee Ecke Wisbyerstr.,tram,71,1964161_east,"52.55141100,13.42951300",Q65116994,,,,,,,
"Alexanderplatz, Grunerstr.",tram,71,1964166_east,"52.52008326,13.41408419",,,,,,,,
Lindenstr. Ecke Hegelschule,tram,82,1964202_east,"52.45050940,13.57268400",Q66095701,,,,,,,
Wilhelminenhofstr. Ecke Edisonstr.,tram,82,1964204_east,"52.46194960,13.51390490",Q65951882,,,,,,,
Friedrich-Junge-Str.,autobus,A82P,1964217_east,"52.49383540,13.47159314",,,,,,,,
Seelenbinderstr. Ecke Bahnhofstr.,tram,84,1964235_east,"52.45546300,13.57693000",Q66324934,,,,,,,
Lindenstr. Ecke Hegelschule,tram,85,1964244_east,"52.45050940,13.57268400",Q66095701,,,,,,,
Lindenstr. Ecke Bahnhofstr.,tram,86,1964256_east,"52.45050940,13.57268400",Q66095701,,,,,,,
Bahnhofstr. Ecke Lindenstr.,tram,87,1964265_east,"52.45050940,13.57268400",Q66095701,,,,,,,
"Hessenwinkel, Lindenstr.",autobus,A22,1964290_east,"52.42736951,13.73057264",,,,,,,,
"Wilhelmsruh, Fontanestr.",autobus,A45,1964350_east,"52.58985939,13.36119357",,,,,,,,
Strasse nach Wartenberg,autobus,A46,1964365_east,"52.56866269,13.52058210",,,,,,,,
"Malchow, Dorfstr.",autobus,A46,1964370_east,"52.58046227,13.48279758",,,,,,,,
"Wilhelmsruh, Fontanestr.",autobus,A55,1964390_east,"52.58046227,13.48279758",,,,,,,,
Hauptstr. Ecke Edelweißstr.,autobus,A55,1964391_east,"52.58637926,13.36752939",,,,,,,,
Gustav-Adolf-Str. Ecke Rennbahnstr.,autobus,A55,1964401_east,"52.56218648,13.45426704",,,,,,,,
Große Seestr. Ecke Klement-Gottwald-Allee,autobus,A55,1964402_east,"52.56000046,13.46705566",,,,,,,,
"Weißensee, Liebermannstr. Ecke Piesporterstr.",autobus,A55,1964403_east,"52.56056756,13.47755575",,,,,,,,
"Blankenfelde, Hauptstr.",autobus,A7E,1964442_east,"52.63002535,13.38262328",,,,,,,,
"Alt-Biesdorf, Oberfeldstr.",autobus,A8E,1964457_east,"52.50918607,13.55334706",,,,,,,,
"Bohnsdorf, Waldstr.",autobus,AD,1964473_east,"52.38939719,13.57066656",,,,,,,,
"Bohnsdorf, Waldstr.",autobus,A38,1964481_east,"52.38939719,13.57066656",,,,,,,,
Königstor,omnibus,O30,1964636_east,"52.52520269,13.41983499",,,,,,,,
Bhf. Lichtenberg,omnibus,O37,1964645_east,"52.54423460,13.46872150",,,,,,,,
Küstrinerplatz,omnibus,O40,1964647_east,"52.51324778,13.43933319",,,,,,,,
Stalinallee,omnibus,O40,1964648_east,"52.51715129,13.44064077",,,,,,,,
