stop_name,type,line_name,stop_id,location,identifier,latitude,longitude,match_score,matched_name,matched_stop_id,matched_historical_lines,location_from
Daimlerstr.,tram,15,19640_west,"52.42636276,13.37438168",,52.42636276,13.37438168,90.0,Großbeerenstr. Ecke Daimlerstr.,19651_west,['15'],
Großbeerenstr. Ecke Lankwitzerstr.,tram,15,19641_west,"52.43791017,13.38048153",,,,,,,,1964410.0
Körtingstr.,tram,15,19642_west,"52.43481353,13.37831564",,52.43481353,13.37831564,90.0,Körtingstr. Ecke Großbeerenstr.,19652_west,['15'],
Mariendorferdamm,tram,15,19643_west,"52.44016815,13.38730997",,52.44016815,13.38730997,90.0,Mariendorferdamm Ecke Alt-Mariendorf,19653_west,['15'],
Imbrosweg,tram,15,19644_west,"52.44352627,13.39862544",,52.44352627,13.39862544,90.0,Imbrosweg Ecke Rixdorferstr.,19654_west,['15'],
Mariendorfer Friedhof,tram,15,19645_west,"52.44953069,13.40475593",,,,,,,,1964776.0
Industriestr.,tram,15,19646_west,"52.45533607,13.40989571",,52.45533607,13.40989571,90.0,Industriestr. Ecke Gottlieb-Dunkel-Str.,19656_west,['15'],
Germaniastr.,tram,15,19647_west,"52.46053987,13.41805889",,52.46053987,13.41805889,90.0,Germaniastr. Ecke Gottlieb-Dunkel-Str.,19657_west,['15'],
Frauenklinik,tram,15,19648_west,"52.46394991,13.42750955",,52.46394991,13.42750955,90.0,"Frauenklinik, Mariendorferweg",19658_west,['15'],
Hermannstr.,tram,15,19649_west,"52.46638908,13.43610847",,52.466389076559096,13.436108467114586,90.0,Hermannstr./Britzerdamm,19659_west,['15'],
U-Bhf. Neukölln,tram,15,196410_west,"52.46965568,13.44161494",,52.46965568,13.44161494,100.0,U-Bhf. Neukölln,196510_west,['15'],
Richardstr.,tram,15,196411_west,"52.47098038,13.44634551",,52.47098038,13.44634551,90.0,Richardstr. Ecke Braunschweigerstr.,196511_west,['15'],
Saalestr. Ecke Sonnenallee,tram,15,196412_west,"52.47384843,13.45589857",,52.47384843,13.45589857,100.0,Saalestr. Ecke Sonnenallee,196512_west,['15'],
Dammweg,tram,15,196413_west,"52.47028918,13.46461967",,52.47028918,13.46461967,90.0,Dammweg Ecke Sonnenallee,196513_west,['15'],
Schulenburgpark,tram,15,196414_west,"52.46666061,13.47029259",,52.46666061,13.47029259,100.0,Schulenburgpark,196514_west,['15'],
Gradestr. Ecke Tempelhoferweg,tram,47,196415_west,"52.45253932,13.43305683",,52.45253932,13.43305683,100.0,Gradestr. Ecke Tempelhoferweg,196515_west,['47'],
U-Bhf. Blaschko-Allee,tram,47,196416_west,"52.45247429,13.44902591",,52.45247429,13.44902591,98.0,U-Bhf. Blaschkoallee,196516_west,['47'],
Buschkrug,tram,47,196417_west,"52.44543069,13.45497615",,52.44543069,13.45497615,90.0,Parchimerallee Ecke Buschkrugallee,196519_west,['47'],
Onkel-Herse-Str.,tram,47,196418_west,"52.44824572,13.45392578",,52.44824572,13.45392578,90.0,Onkel-Herse-Str. Ecke Buschkrugallee,196518_west,['47'],
Parachimerallee Ecke Buschkrugallee,tram,47,196419_west,"52.44543069,13.45497615",,52.44543069,13.45497615,99.0,Parchimerallee Ecke Buschkrugallee,196519_west,['47'],
Grünerweg Ecke Buschkrugallee,tram,47,196420_west,"52.44256249,13.45634565",,52.44256249,13.45634565,100.0,Grünerweg Ecke Buschkrugallee,196520_west,['47'],
Krankenhaus Neukölln,tram,47,196421_west,"52.43977054,13.45935906",,52.43977054,13.45935906,100.0,Krankenhaus Neukölln,196521_west,['47'],
Johannisthalerchaussee Ecke Rudowerstr.,tram,47,196422_west,"52.43431775,13.46904333",,52.43431775,13.46904333,99.0,Johannisthaler Chaussee Ecke Rudowerstr.,196522_west,['47'],
Wildmeisterdamm Ecke Neuköllnerstr.,tram,47,196423_west,"52.42577675,13.48323925",,52.42577675,13.48323925,100.0,Wildmeisterdamm Ecke Neuköllnerstr.,196523_west,['47'],
Stubenrauchstr.,tram,47,196424_west,"52.42416862,13.48544348",,52.42416862,13.48544348,90.0,Stubenrauchstr. Ecke Neuköllnerstr.,196524_west,['47'],
Köpenickerstr. Ecke Neuköllnerstr.,tram,47,196425_west,"52.41693184,13.49408867",,52.41693184,13.49408867,100.0,Köpenickerstr. Ecke Neuköllnerstr.,196525_west,['47'],
Große-Ziethenchaussee Ecke Waltersdorferchaussee,tram,47,196426_west,"52.40158343,13.51356283",,,,,,,,1964412.0
Richard-Wagner-Platz,tram,53,196427_west,"52.51757062,13.30624812",,,,,,,,19641005.0
Luisenplatz,tram,53,196428_west,"52.52039497,13.29942701",,52.52039497,13.29942701,100.0,Luisenplatz,196530_west,['53'],
Klausenerplatz,tram,53,196429_west,"52.51920201,13.29186737",,,,,,,,1964609.0
Königin-Elisabeth-Str.,tram,53,196430_west,"52.51841662,13.28018527",,,,,,,,1964670.0
Kirschenallee,tram,53,196431_west,"52.52038534,13.26714901",,52.52038534,13.26714901,90.0,Kirschenallee Ecke Spandauerdamm,196532_west,['53'],
Schloss Ruhwald,tram,53,196432_west,"52.52160139,13.26039647",,,,,,,,19641100.0
U-Bhf. Ruhleben,tram,53,196433_west,"52.52595777,13.24137187",,52.52595777,13.24137187,100.0,U-Bhf. Ruhleben,196534_west,['53'],
Teltowerstr.,tram,53,196434_west,"52.52649488,13.21644671",,52.52649488,13.21644671,90.0,Teltowerstr. Ecke Ruhlebenerstr.,196535_west,['53'],
Freiheit,tram,53,196435_west,"52.53269779,13.20751844",,,,,,,,1964345.0
"Spandau, Markt",tram,53,196436_west,"52.53784350,13.20413543",,,,,,,,19641172.0
Hafenplatz,tram,53,196437_west,"52.54229255,13.20620113",,,,,,,,1964441.0
Lynastr. Ecke Neuendorferstr.,tram,53,196438_west,"52.54898037,13.21025253",,52.54898037,13.21025253,98.0,Lynarstr. Ecke Neuendorferstr.,196539_west,['53'],
Hohenzollernring,tram,53,196439_west,"52.55534807,13.19865762",,,,,,,,1964522.0
Hakenfelde,tram,53,196440_west,"52.57886010,13.21005780",,,,,,,,1964444.0
Richard-Wagner-Platz,tram,54,196441_west,"52.51757062,13.30624812",,52.51757062,13.30624812,100.0,Richard-Wagner-Platz,196542_west,['54'],
Luisenplatz,tram,54,196442_west,"52.51951940,13.30002435",,,,,,,,1964740.0
Klausenerplatz,tram,54,196443_west,"52.51920201,13.29186737",,52.51920201,13.29186737,100.0,Klausenerplatz,196544_west,['54'],
Königin-Elisabeth-Str.,tram,54,196444_west,"52.51841662,13.28018527",,,,,,,,1964670.0
Kirschenallee,tram,54,196445_west,"52.52037354,13.26724155",,,,,,,,1964605.0
Schloss Ruhwald,tram,54,196446_west,"52.52160458,13.26039687",,52.52160458,13.26039687,93.0,Schloß Ruhwald,196546_west,['54'],
U-Bhf. Ruhleben,tram,54,196447_west,"52.52595777,13.24137187",,,,,,,,19641305.0
Teltowerstr.,tram,54,196448_west,"52.52691413,13.21598769",,,,,,,,19641242.0
Freiheit,tram,54,196449_west,"52.53269779,13.20751844",,52.53269779,13.20751844,100.0,Freiheit,196549_west,['54'],
"Spandau, Markt",tram,54,196450_west,"52.53784350,13.20413543",,,,,,,,19641172.0
Hafenplatz,tram,54,196451_west,"52.54229255,13.20620113",,,,,,,,1964441.0
Lynastr. Ecke Neuendorferstr.,tram,54,196452_west,"52.54898037,13.21019888",,,,,,,,1964746.0
Hohenzollernring,tram,54,196453_west,"52.55534807,13.19865762",,,,,,,,1964522.0
Johannesstift,tram,54,196454_west,"52.56762417,13.19178261",,,,,,,,1964564.0
Bhf. Zoo,tram,55,196455_west,"52.50719346,13.33262988",,52.50719346,13.33262988,100.0,Bhf. Zoo,196555_west,['55'],
U-Bhf. Ernst-Reuter-Platz,tram,55,196456_west,"52.51159182,13.32257153",,52.51159182,13.32257153,95.0,Ernst-Reuter-Platz,196556_west,['55'],
Richard-Wagner-Platz,tram,55,196457_west,"52.51757062,13.30624812",,,,,,,,19641005.0
Luisenplatz,tram,55,196458_west,"52.51951940,13.30002435",,,,,,,,1964740.0
Osnabrückerstr.,tram,55,196459_west,"52.52651985,13.29732033",,52.52651985,13.29732033,90.0,Osnabrückerstr. Ecke Tegelerweg,196560_west,['55'],
Jakob-Kaiser-Platz,tram,55,196460_west,"52.53674528,13.29357089",,52.53674528,13.29357089,100.0,Jakob-Kaiser-Platz,196561_west,['55'],
Quellweg,tram,55,196461_west,"52.53662795,13.26837045",,52.53662795,13.26837045,90.0,Quellweg Ecke Nonnendammallee,196562_west,['55'],
Paulsternstr.,tram,55,196462_west,"52.54412196,13.24701046",,52.54412196,13.24701046,90.0,Paulsternstr. Ecke Gartenfelderstr.,196563_west,['55'],
Zitadellenweg,tram,55,196463_west,"52.53777974,13.21728515",,52.53777974,13.21728515,90.0,Zitadellenweg Ecke Am Juliusturm,196564_west,['55'],
Carl-Schurz-Str. Ecke Am Juliusturm,tram,55,196464_west,"52.53954502,13.20555083",,52.53954502,13.20555083,100.0,Carl-Schurz-Str. Ecke Am Juliusturm,196565_west,['55'],
Hafenplatz,tram,55,196465_west,"52.54229255,13.20620113",,52.54229255,13.20620113,100.0,Hafenplatz,196566_west,['55'],
Hohenzollernring,tram,55,196466_west,"52.55534807,13.19865762",,,,,,,,1964522.0
Hakenfelde,tram,55,196467_west,"52.57886010,13.21005780",,,,,,,,1964444.0
"Bhf. Zoo, Kantstr.",tram,75,196468_west,"52.50540350,13.33036756",,,,,,,,1964150.0
Wilmersdorferstr.,tram,75,196469_west,"52.50669200,13.30669243",,,,,,,,19641408.0
Amtsgericht,tram,75,196470_west,"52.50682618,13.29739145",,,,,,,,196463.0
Messedamm,tram,75,196471_west,"52.50641939,13.28039244",,,,,,,,1964800.0
Theodor-Heuss-Platz,tram,75,196472_west,"52.50948066,13.27259770",,52.50948066,13.2725977,100.0,Theodor-Heuss-Platz,196574_west,['75'],
Preußenallee Ecke Heerstr.,tram,75,196473_west,"52.50859211,13.25931279",,52.50859211,13.25931279,100.0,Preußenallee Ecke Heerstr.,196575_west,['75'],
Reichssportfeldstr.,tram,75,196474_west,"52.50751473,13.24208670",,,,,,,,1964994.0
Stößenseebrücke,tram,75,196475_west,"52.50889437,13.21747597",,,,,,,,19641222.0
Pichelsdorferstr.,tram,75,196476_west,"52.51311471,13.19691856",,52.51311471,13.19691856,90.0,Pichelsdorferstr. Ecke Heerstr.,196578_west,['75'],
Seeburgerstr.,tram,75,196478_west,"52.52919075,13.19561328",,,,,,,,19641142.0
Rathaus Spandau,tram,75,196479_west,"52.53488082,13.19905885",,52.53488082,13.19905885,100.0,Rathaus Spandau,196580_west,['75'],
"Spandau, Markt",tram,75,196480_west,"52.53784350,13.20413543",,52.5378435,13.20413543,100.0,"Spandau, Markt",196581_west,['75'],
Hafenplatz,tram,75,196481_west,"52.54229255,13.20620113",,,,,,,,1964441.0
Hohenzollernring,tram,75,196482_west,"52.55571250,13.20754149",,52.5557125,13.20754149,90.0,Hohenzollernring Ecke Neuendorferstr.,196583_west,['75'],
Hakenfelde,tram,75,196483_west,"52.57051037,13.21251682",,52.57051036618898,13.212516818874322,100.0,Hakenfelde,196584_west,['75'],
"Bhf. Zoo, Kantstr.",tram,76,196484_west,"52.50528855,13.33160349",,52.50528855,13.33160349,95.0,"Zoo, Kantstr.",196585_west,['76'],
Wilmersdorferstr.,tram,76,196485_west,"52.50669450,13.30667544",,52.5066945,13.30667544,90.0,Wilmersdorferstr. Ecke Kantstr.,196587_west,['76'],
Amtsgericht,tram,76,196486_west,"52.50682618,13.29739145",,52.50682618,13.29739145,100.0,Amtsgericht,196588_west,['76'],
Messedamm,tram,76,196487_west,"52.50641939,13.28039244",,52.50641939,13.28039244,100.0,Messedamm,196589_west,['76'],
Theodor-Heuss-Platz,tram,76,196488_west,"52.50948066,13.27259770",,,,,,,,19641252.0
Preußenallee Ecke Heerstr.,tram,76,196489_west,"52.50860475,13.25942668",,,,,,,,1964947.0
Reichssportfeldstr.,tram,76,196490_west,"52.50751473,13.24208670",,52.50751473,13.2420867,90.0,Reichssportfeldstr. Ecke Heerstr.,196592_west,['76'],
Stößenseebrücke,tram,76,196491_west,"52.50889437,13.21747597",,52.50889437,13.21747597,100.0,Stößenseebrücke,196593_west,['76'],
Pichelsdorferstr.,tram,76,196492_west,"52.51307047,13.19687115",,,,,,,,1964918.0
Seeburgerstr.,tram,76,196494_west,"52.52914199,13.19558478",,52.52914199,13.19558478,90.0,Seeburgerstr. Ecke Klosterstr.,196595_west,['76'],
Rathaus Spandau,tram,76,196495_west,"52.53488082,13.19905885",,,,,,,,1964980.0
"Spandau, Markt",tram,76,196496_west,"52.53784350,13.20413543",,,,,,,,19641172.0
Hafenplatz,tram,76,196497_west,"52.54229255,13.20620113",,,,,,,,1964441.0
Hohenzollernring Ecke Schönwalderallee,tram,76,196498_west,"52.55534152,13.19859324",,,,,,,,1964524.0
Johannesstift,tram,76,196499_west,"52.56762417,13.19178261",,52.56762417,13.19178261,100.0,Johannesstift,1965100_west,['76'],
Mehringplatz,tram,95,1964100_west,"52.49792491,13.39108107",,,,,,,,1964798.0
Zossenerstr. Ecke Blücherstr.,tram,95,1964101_west,"52.49622054,13.39510681",,,,,,,,19641452.0
Baerwaldstr. Ecke Urbanstr.,tram,95,1964102_west,"52.49389984,13.40346009",,,,,,,,196483.0
Urban-Krankenhaus,tram,95,1964103_west,"52.49346936,13.40624512",,,,,,,,19641330.0
Hermannplatz,tram,95,1964104_west,"52.48708557,13.42475245",,,,,,,,1964487.0
Erkstr. Ecke Sonnenallee,tram,95,1964105_west,"52.48169988,13.44014370",,,,,,,,1964308.0
Hertzbergplatz,tram,95,1964106_west,"52.47737355,13.44884381",,,,,,,,1964496.0
Saalestr. Ecke Sonnenallee,tram,95,1964107_west,"52.47384843,13.45589857",,,,,,,,19641078.0
Dammweg Ecke Sonnenallee,tram,95,1964108_west,"52.47028918,13.46461967",,,,,,,,1964252.0
Schulenburgpark,tram,95,1964109_west,"52.46666061,13.47029259",,,,,,,,19641112.0
Lindenstr.,tram,96,1964111_west,"52.50708787,13.39827979",,52.50708787,13.39827979,90.0,Lindenstr. Ecke Kochstr.,1965101_west,['96'],
Mehringplatz,tram,96,1964112_west,"52.49792491,13.39108107",,52.49792491,13.39108107,100.0,Mehringplatz,1965102_west,['96'],
Yorckstr.,tram,96,1964113_west,"52.49288890,13.38767014",,52.4928889,13.38767014,90.0,Yorckstr. Ecke Mehringdamm,1965103_west,['96'],
U-Bhf. Flughafen,tram,96,1964114_west,"52.48477998,13.38596223",,52.48477998,13.38596223,100.0,U-Bhf. Flughafen,1965104_west,['96'],
Adolf-Scheidt-Platz,tram,96,1964115_west,"52.47819486,13.37836902",,52.47819486,13.37836902,100.0,Adolf-Scheidt-Platz,1965105_west,['96'],
Berlinickeplatz,tram,96,1964116_west,"52.46632968,13.37814469",,52.46632968,13.37814469,100.0,Berlinickeplatz,1965106_west,['96'],
Attilaplatz,tram,96,1964117_west,"52.45549834,13.37561964",,52.45549834,13.37561964,100.0,Attilaplatz,1965107_west,['96'],
Ringstr. Ecke Attilastr.,tram,96,1964118_west,"52.44731185,13.36209225",,52.44731185,13.36209225,100.0,Ringstr. Ecke Attilastr.,1965108_west,['96'],
"Lankwitz, Kirche",tram,96,1964119_west,"52.43629411,13.34577794",,52.43629411,13.34577794,100.0,"Lankwitz, Kirche",1965109_west,['96'],
Seydlitzstr. Ecke Kaiser-Wilhelm-Str.,tram,96,1964120_west,"52.43194429,13.33814378",,52.43194429,13.33814378,100.0,Seydlitzstr. Ecke Kaiser-Wilhelm-Str.,1965110_west,['96'],
Kranoldplatz,tram,96,1964121_west,"52.42782085,13.32657579",,52.42782085,13.32657579,100.0,Kranoldplatz,1965111_west,['96'],
Ostpreußendamm Ecke Morgensternstr.,tram,96,1964122_west,"52.42589579,13.31710731",,52.42589579,13.31710731,100.0,Ostpreußendamm Ecke Morgensternstr.,1965112_west,['96'],
Giesendorferstr. Ecke Ostpreußendamm,tram,96,1964123_west,"52.42400572,13.31441951",,52.42400572,13.31441951,99.0,Giesensdorferstr. Ecke Ostpreußendamm,1965113_west,['96'],
Wismarerstr. Ecke Ostpreußendamm,tram,96,1964124_west,"52.41786194,13.30519515",,,,,,,,19641416.0
Goerzallee,tram,96,1964125_west,"52.41785382,13.28703404",,52.41785382,13.28703404,90.0,"Lichterfelde, Goerzallee",1965114_west,['96'],
"Moabit, Waldstr. Ecke Turmstr.",autobus,A1,1964126_west,"52.52718533,13.33055251",,,,,,,,1964804.0
Otto-Suhr-Allee Ecke Cauerstr.,autobus,A1,1964127_west,"52.51467908,13.31513688",,52.51467908,13.31513688,100.0,Otto-Suhr-Allee Ecke Cauerstr.,1965118_west,['A1'],
Kurfürstendamm Ecke Konstanzerstr.,autobus,A1,1964128_west,"52.50061642,13.31303456",,,,,,,,1964657.0
U-Bhf. Fehrbellinerplatz,autobus,A1,1964129_west,"52.49039093,13.31417746",,,,,,,,19641281.0
Detmolderstr. Ecke Blissestr.,autobus,A1,1964130_west,"52.47879433,13.32028118",,52.47879433,13.32028118,100.0,Detmolderstr. Ecke Blissestr.,1965123_west,['A1'],
Breitenbachplatz,autobus,A1,1964131_west,"52.46721972,13.30947349",,,,,,,,1964184.0
Botanischer Garten,autobus,A1,1964132_west,"52.45859880,13.30343606",,,,,,,,1964177.0
Pacelli/Theilallee,autobus,A1,1964133_west,"52.45824695,13.28706661",,,,,,,,1964888.0
Clayallee Ecke Königin-Luise-Str.,autobus,A1,1964134_west,"52.46044681,13.27489827",,,,,,,,1964236.0
U-Bhf. Oskar-Helene-Heim,autobus,A1,1964135_west,"52.45027901,13.27036199",,,,,,,,19641300.0
Potsdamerstr. Ecke Clayallee,autobus,A1,1964136_west,"52.43505825,13.26045717",,,,,,,,1964928.0
Rathaus Zehlendorf,autobus,A1,1964137_west,"52.43320752,13.25953192",,,,,,,,1964985.0
Beeskowdamm Ecke Goerzallee,autobus,A1,1964138_west,"52.40988367,13.27352910",,,,,,,,196498.0
Wismarerstr. Ecke Lindenstr.,autobus,A1,1964139_west,"52.41787520,13.30520450",,,,,,,,19641415.0
Lindenstr. Ecke Müllerstr.,autobus,A1,1964140_west,"52.41754714,13.30666072",,,,,,,,1964731.0
Bhf. Zoo,autobus,A2,1964141_west,"52.50702953,13.33322012",,,,,,,,1964147.0
Spichernstr. Ecke Joachimstalerstr.,autobus,A2,1964142_west,"52.49631903,13.33076286",,,,,,,,19641179.0
Berlinerstr. Ecke Bundesallee,autobus,A2,1964143_west,"52.48735367,13.33100211",,,,,,,,1964111.0
Bundesplatz,autobus,A2,1964144_west,"52.47867899,13.32860278",,,,,,,,1964209.0
Friedrich-Wilhelm-Platz,autobus,A2,1964145_west,"52.47128806,13.32836213",,,,,,,,1964351.0
Schloßstr. Ecke Feuerbachstr.,autobus,A2,1964146_west,"52.46311733,13.32672483",,,,,,,,19641108.0
Bergstr. Ecke Bismarckstr.,autobus,A2,1964147_west,"52.45863817,13.33931462",,52.45863817,13.33931462,100.0,Bergstr. Ecke Bismarckstr.,1965142_west,['A2'],
Feuerbachstr. Ecke Bismarckstr.,autobus,A2,1964148_west,"52.46451344,13.33892787",,,,,,,,1964327.0
Steglitzerdamm Ecke Halskestr.,autobus,A2,1964149_west,"52.45002165,13.34670705",,52.45002165,13.34670705,100.0,Steglitzerdamm Ecke Halskestr.,1965143_west,['A2'],
Leonorenstr. Ecke Albrechstr.,autobus,A2,1964150_west,"52.44438797,13.33891588",,,,,,,,1964706.0
"Lankwitz, Kirche",autobus,A2,1964151_west,"52.43629187,13.34574539",,,,,,,,1964691.0
Havensteinstr. Ecke Gallwitzstr.,autobus,A2,1964152_west,"52.43194849,13.34634331",,52.43194849,13.34634331,88.0,Havensteinstr. Ecke Gallwitzallee,1965146_west,['A2'],
Lerbacherweg Ecke Tautenbergstr.,autobus,A2,1964153_west,"52.42568639,13.34759454",,52.42568639,13.34759454,90.0,Lerbacherweg,1965147_west,['A2'],
Trippsteinstr.,autobus,A2,1964154_west,"52.41708279,13.34765431",,52.41708279,13.34765431,90.0,Trippsteinstrase Ecke Frankenhauserstr.,1965148_west,['A2'],
Rathaus Zehlendorf,autobus,A3,1964155_west,"52.43320752,13.25953192",,,,,,,,1964985.0
Winifriedstr. Ecke Clayallee,autobus,A3,1964156_west,"52.43922923,13.26287138",,,,,,,,19641414.0
U-Bhf. Oskar-Helene-Heim,autobus,A3,1964157_west,"52.45027901,13.27036199",,,,,,,,19641300.0
U-Bhf. Onkel-Toms-Hütte,autobus,A3,1964158_west,"52.45007713,13.25127259",,,,,,,,19641299.0
U-Bhf. Krumme Lanke,autobus,A3,1964159_west,"52.44361298,13.24100643",,,,,,,,19641293.0
Bhf. Lindenthalerallee,autobus,A3,1964160_west,"52.43102571,13.22988168",,,,,,,,1964136.0
Benschallee Ecke Potsdamerchaussee,autobus,A3,1964161_west,"52.42963804,13.22393270",,,,,,,,1964103.0
Schopenhauer-Strasse Ecke Spanischeallee,autobus,A3,1964162_west,"52.43394923,13.21204795",,52.43394923,13.21204795,92.0,Schopenhauerstr. Ecke Spanischeallee,1965157_west,['A3'],
Borussenstr. Ecke Kronprizessinnenweg,autobus,A3,1964163_west,"52.42987973,13.18506013",,,,,,,,1964176.0
Am Beelitzhof,autobus,A3,1964164_west,"52.43221622,13.18668380",,52.43221622,13.1866838,90.0,Am Beelitzhof Ecke Kronprinzessinnenweg,1965159_west,['A3'],
Bhf. Wannsee,autobus,A3,1964165_west,"52.42151302,13.17810257",,,,,,,,1964144.0
Am Großen Wannsee Ecke Königstr.,autobus,A3,1964166_west,"52.42049658,13.16719297",,,,,,,,196448.0
Pfaueninsel-Chaussee Ecke Königstr.,autobus,A3,1964167_west,"52.41883990,13.15300828",,52.4188399,13.15300828,98.0,Pfaueninselchaussee Ecke Königstr.,1965162_west,['A3'],
Rathaus Wannsee,autobus,A3,1964168_west,"52.41844013,13.14887249",,,,,,,,1964984.0
"Stölpchensee, Wilhelmplatz",autobus,A3,1964169_west,"52.41240583,13.14164452",,,,,,,,19641220.0
"Haselhorst, Kirche",autobus,A10,1964170_west,"52.54682818,13.23706589",,52.54682818,13.23706589,100.0,"Haselhorst, Kirche",1965202_west,['A10'],
Paulsternstr.,autobus,A10,1964171_west,"52.54415774,13.24712613",,,,,,,,1964909.0
Verwaltungs-Gebäude,autobus,A10,1964172_west,"52.53706333,13.26228517",,52.53706333,13.26228517,94.0,Verwaltungs-Gebaüde,1965204_west,['A10'],
Spandauerdamm,autobus,A10,1964173_west,"52.51838421,13.28007696",,,,,,,,19641173.0
U-Bhf. Kaiserdamm,autobus,A10,1964174_west,"52.50999451,13.28180313",,,,,,,,19641290.0
Amtsgericht,autobus,A10,1964175_west,"52.50682618,13.29739145",,,,,,,,196462.0
Kurfürstendamm Ecke Joachimsthalerstr.,autobus,A10,1964176_west,"52.50383422,13.33125432",,,,,,,,1964656.0
Henriettenplatz,autobus,A10,1964177_west,"52.49701780,13.29033951",,,,,,,,1964485.0
Elsterplatz,autobus,A10,1964178_west,"52.47977983,13.28550761",,,,,,,,1964299.0
Hundekehlestr.,autobus,A10,1964179_west,"52.47548162,13.29030877",,,,,,,,1964537.0
Königin-Luise-Str.,autobus,A10,1964180_west,"52.45831795,13.28702748",,,,,,,,1964671.0
U-Bhf. Thielplatz,autobus,A10,1964181_west,"52.45104521,13.28173642",,52.45104521,13.28173642,100.0,U-Bhf. Thielplatz,1965215_west,['A10'],
Dahlemerweg,autobus,A10,1964182_west,"52.44179805,13.28269937",,,,,,,,1964247.0
Teltowerdamm,autobus,A10,1964183_west,"52.43504475,13.26044253",,,,,,,,19641240.0
Behring-Krankenhaus,autobus,A10,1964184_west,"52.42410895,13.25176454",,52.42410895,13.25176454,100.0,Behring-Krankenhaus,1965220_west,['A10'],
Lupsteinerweg,autobus,A10,1964185_west,"52.40951067,13.25160884",,52.40951067,13.25160884,90.0,Lupsteinerweg Ecke Sachtlebenstr.,1965221_west,['A10'],
Saargemünderstr.,autobus,A11,1964186_west,"52.45093246,13.27071876",,52.45093246,13.27071876,90.0,Saargemünderstr. Ecke Clayallee,1965222_west,['A11'],
U-Bhf. Oskar-Helene-Heim,autobus,A11,1964187_west,"52.45027901,13.27036199",,,,,,,,19641300.0
Ihnestr.,autobus,A11,1964188_west,"52.44831170,13.27633996",,52.4483117,13.27633996,90.0,Ihnestr. Ecke Garystr.,1965224_west,['A11'],
Corrensplatz,autobus,A11,1964189_west,"52.44601401,13.28426468",,52.44601401,13.28426468,100.0,Corrensplatz,1965225_west,['A11'],
Unter Den Eichen Ecke Habelschwerdter-Allee,autobus,A11,1964190_west,"52.44574706,13.29356835",,52.44574706,13.29356835,96.0,Unter den Eichen Ecke Habelschwendterallee,1965226_west,['A11'],
Bhf. Lichterfelde-West,autobus,A11,1964191_west,"52.44397676,13.29562870",,,,,,,,1964135.0
Ringstr.,autobus,A11,1964192_west,"52.43977281,13.30017508",,,,,,,,19641011.0
Wiesenbaude,autobus,A11,1964193_west,"52.43049524,13.31180861",,,,,,,,19641392.0
Ostpreußendamm Ecke Wilhelmstr.,autobus,A11,1964194_west,"52.43080143,13.31750364","nan, nan, nan",,,,,,,1964883.0
Marienstr.,autobus,A11,1964195_west,"52.42946322,13.32166308",,52.42946322,13.32166308,90.0,Marienstr. Ecke Königsbergerstr.,1965231_west,['A11'],
Morgensternstr. Ecke Wilhelmstr.,autobus,A11,1964196_west,"52.42808959,13.32549116",,,,,,,,1964809.0
Kranoldplatz,autobus,A11,1964197_west,"52.42777476,13.32647358",,52.42777476,13.32647358,100.0,Kranoldplatz,1965233_west,['A11'],
Langestr.,autobus,A11,1964198_west,"52.42401446,13.33313155",,52.42401446,13.33313155,90.0,Langestr. Ecke Lorenzstr.,1965234_west,['A11'],
Hildburghauserstr.,autobus,A11,1964199_west,"52.41661432,13.33818246",,52.41661432,13.33818246,90.0,Hildburghauserstr. Ecke Mariannenstr.,1965235_west,['A11'],
Stadtilmerweg,autobus,A11,1964200_west,"52.41507278,13.34597485",,52.41507278,13.34597485,100.0,Stadtilmerweg,1965236_west,['A11'],
"Marienfelde, Alt-Marienfelde",autobus,A11,1964201_west,"52.41210781,13.36273360",,52.41210781,13.3627336,98.0,"Marienelde, Alt-Marienfelde",1965237_west,['A11'],
Gartenstr. Ecke Bernauerstr.,autobus,A12,1964202_west,"52.53343698,13.38751889",,52.53343698,13.38751889,100.0,Gartenstr. Ecke Bernauerstr.,1965238_west,['A12'],
Grenzstr.,autobus,A12,1964203_west,"52.54182280,13.37814765",,,,,,,,1964406.0
U-Bhf. Leopold-Platz,autobus,A12,1964204_west,"52.54640033,13.35909680",,52.54640033,13.3590968,100.0,U-Bhf. Leopold-Platz,1965240_west,['A12'],
U-Bhf. Seestr.,autobus,A12,1964205_west,"52.55031541,13.35229850",,,,,,,,19641309.0
Bristolstr.,autobus,A12,1964206_west,"52.55830889,13.35117448",,52.55830889,13.35117448,90.0,Bristolstr. Ecke Barfusstr.,1965242_west,['A12'],
Emmentalerstr.,autobus,A12,1964207_west,"52.56753547,13.35124017",,,,,,,,1964301.0
Lindauerstr.,autobus,A12,1964208_west,"52.57337851,13.35902628",,,,,,,,1964725.0
Tessenowstr. Ecke Oranienburgerstr.,autobus,A12,1964209_west,"52.58146100,13.33387304",,,,,,,,19641249.0
Eichborndamm Ecke Alt-Wittenau,autobus,A12,1964210_west,"52.59182855,13.32639161",,,,,,,,1964287.0
Cyclopstr.,autobus,A12,1964211_west,"52.60208377,13.32483858",,,,,,,,1964242.0
Zabel-Krüger-Damm,autobus,A12,1964212_west,"52.60785215,13.32378976",,52.60785215,13.32378976,90.0,Zabel-Krüger-Damm Ecke Oraniendamm,1965248_west,['A12'],
Almutstr. Ecke Berlinerstr.,autobus,A12,1964213_west,"52.61486970,13.31706314",,52.6148697,13.31706314,100.0,Almutstr. Ecke Berlinerstr.,1965249_west,['A12'],
Hermsdorferdamm Ecke Berlinerstr.,autobus,A12,1964214_west,"52.62241093,13.31288776",,52.62241093,13.31288776,100.0,Hermsdorferdamm Ecke Berlinerstr.,1965250_west,['A12'],
Zeltingerplatz,autobus,A12,1964215_west,"52.63352257,13.29039813",,52.63352257,13.29039813,93.0,Zeitingerplatz,1965251_west,['A12'],
Donnersmarckplatz,autobus,A12,1964216_west,"52.62982465,13.28047497",,,,,,,,1964268.0
Hainbuchenstr. Ecke Kastanienallee,autobus,A12,1964217_west,"52.63439314,13.27475572",,,,,,,,1964443.0
Leopoldplatz,autobus,A12S,1964218_west,"52.54647397,13.35923348",,,,,,,,1964708.0
U-Bhf. Seestr.,autobus,A12S,1964219_west,"52.55031541,13.35229850",,,,,,,,19641309.0
Barfusstr.,autobus,A12S,1964220_west,"52.55831154,13.35118936",,,,,,,,196490.0
Emmentalerstr.,autobus,A12S,1964221_west,"52.56753547,13.35124017",,,,,,,,1964301.0
Lindauerstr.,autobus,A12S,1964222_west,"52.57337851,13.35902628",,,,,,,,1964725.0
Oranienburgerstr.,autobus,A12S,1964223_west,"52.59544416,13.33303737",,,,,,,,1964861.0
Rathaus Reinickendorf,autobus,A12S,1964224_west,"52.59178550,13.32637724",,,,,,,,1964977.0
Cyclopstr.,autobus,A12S,1964225_west,"52.60208377,13.32483858",,,,,,,,1964242.0
Zabel-Krüger-Damm,autobus,A12S,1964226_west,"52.60786611,13.32384580",,,,,,,,19641435.0
Schildowerstr.,autobus,A12S,1964227_west,"52.61770173,13.31578229",,,,,,,,19641094.0
Oswinsteig,autobus,A12S,1964229_west,"52.62619860,13.31169556",,,,,,,,1964884.0
Hohefeldstr.,autobus,A12S,1964230_west,"52.62626276,13.29937461",,,,,,,,1964510.0
Im Fischgrund,autobus,A12S,1964231_west,"52.62964256,13.29434661",,,,,,,,1964544.0
Zeltingerplatz,autobus,A12S,1964232_west,"52.63350167,13.29044705",,,,,,,,19641439.0
Alt-Heiligensee,autobus,A13,1964233_west,"52.60533994,13.20981483",,52.6053399377281,13.209814827820663,90.0,"Heiligensee, Alt-Heiligensee",1965254_west,['A13'],
Am Dachsbau,autobus,A13,1964234_west,"52.60656467,13.22982450",,52.60656467,13.2298245,90.0,Am Dachsbau Ecke Heiligenseestr.,1965255_west,['A13'],
Gabelung,autobus,A13,1964235_west,"52.59988613,13.25204129",,52.59988613,13.25204129,100.0,Gabelung,1965256_west,['A13'],
Ruppinerchaussee,autobus,A13,1964236_west,"52.59792775,13.27502724",,52.59792775,13.27502724,90.0,Ruppinerchaussee Ecke Heiligenseestr.,1965257_west,['A13'],
U-Bhf. Tegel,autobus,A13,1964237_west,"52.58950313,13.28363072",,,,,,,,19641313.0
Bernauerstr.,autobus,A13,1964238_west,"52.57629905,13.29469276",,,,,,,,1964117.0
Krankenhaus Tegel-Süd,autobus,A13,1964239_west,"52.57573398,13.27874933",,52.57573398,13.27874933,100.0,Krankenhaus Tegel-Süd,1965260_west,['A13'],
Strasse Nach Saatwinkel,autobus,A13,1964240_west,"52.56775987,13.25791205",,52.56775987,13.25791205,90.0,Strasse nach Saatwinkel Ecke Bernauerstr.,1965261_west,['A13'],
Paulsternstr.,autobus,A13,1964241_west,"52.54415774,13.24712613",,,,,,,,1964909.0
Daumstr.,autobus,A13,1964242_west,"52.53927882,13.23206301",,52.53927882,13.23206301,90.0,Daumstr. Ecke Am Juliusturm,1965263_west,['A13'],
Carl-Schurz-Str. Ecke Neuendorferstr.,autobus,A13,1964243_west,"52.54010263,13.20398746",,,,,,,,1964225.0
Rathaus Spandau,autobus,A13,1964244_west,"52.53457836,13.19949094",,,,,,,,1964979.0
Seebugerstr. Ecke Pichelsdorferstr.,autobus,A13,1964245_west,"52.52917051,13.19565126",,,,,,,,19641141.0
Päwesinerweg,autobus,A13,1964246_west,"52.52631959,13.18186001",,52.52631959,13.18186001,90.0,Päwesinerweg Ecke Seeburgerstr.,1965267_west,['A13'],
Heerstr. Ecke Wilhelmstr.,autobus,A13,1964247_west,"52.51662458,13.17902230",,52.51662458,13.1790223,100.0,Heerstr. Ecke Wilhelmstr.,1965268_west,['A13'],
Weinmeisterhornweg,autobus,A13,1964248_west,"52.50924682,13.18031485",,,,,,,,19641370.0
Alt-Heiligensee,autobus,A14,1964249_west,"52.60616921,13.21064686",,,,,,,,196424.0
Mattenbuder Pfadchaussee Ecke Hennigsdorferstr.,autobus,A14,1964250_west,"52.61696711,13.22053385",,52.61696711,13.22053385,89.0,Mattenbuder Pfad Ecke Henningsdorferstr.,1965271_west,['A14'],
Ruppinerchaussee Ecke Hennigsdorferstr.,autobus,A14,1964251_west,"52.62646800,13.22755031",,52.626468,13.22755031,99.0,Ruppinerchaussee Ecke Henningsdorferstr.,1965272_west,['A14'],
Ruppinerchaussee & Schulzendorferstr.,autobus,A14,1964252_west,"52.61441645,13.24489068",,52.61441645,13.24489068,95.0,Schulzendorferstr. Ecke Ruppinerchaussee,1965273_west,['A14'],
Heiligenseestr. Ecke Ruppinerchaussee,autobus,A14,1964253_west,"52.59794913,13.27508128",,,,,,,,1964476.0
U-Bhf. Tegel,autobus,A14,1964254_west,"52.58950313,13.28363072",,,,,,,,19641313.0
Ziekowstr. Ecke Gorkistr.,autobus,A14,1964255_west,"52.59058636,13.29210637",,52.59058636,13.29210637,100.0,Ziekowstr. Ecke Gorkistr.,1965276_west,['A14'],
Alt-Wittenau Ecke Eichborndamm,autobus,A14,1964256_west,"52.59187978,13.32645958",,,,,,,,196438.0
Tessenowstr. Ecke Roedernallee,autobus,A14,1964257_west,"52.58314996,13.34369472",,52.58314996,13.34369472,100.0,Tessenowstr. Ecke Roedernallee,1965278_west,['A14'],
Aroserallee,autobus,A14,1964258_west,"52.57376245,13.35197071",,,,,,,,196473.0
Kopenhagenerstr.,autobus,A14,1964259_west,"52.57426046,13.35915474",,,,,,,,1964628.0
Pankowerallee,autobus,A14,1964260_west,"52.56466791,13.37808764",,,,,,,,1964895.0
Pankstr.,autobus,A14,1964261_west,"52.55229408,13.38145935",,,,,,,,1964898.0
U-Bhf. Gesundbrunnen,autobus,A14,1964262_west,"52.54866076,13.38787363",,,,,,,,19641285.0
Rügenerstr.,autobus,A14,1964263_west,"52.54479128,13.39106762",,,,,,,,19641039.0
Lübarserstr. Ecke Eichhorsterweg,autobus,A15,1964264_west,"52.60279735,13.33575475",,52.60279735,13.33575475,98.0,Lübarserstr. Ecke Eichorsterweg,1965287_west,['A15'],
Cyclopstr. Ecke Oranienburgerstr.,autobus,A15,1964265_west,"52.59750985,13.33255807",,52.59750985,13.33255807,100.0,Cyclopstr. Ecke Oranienburgerstr.,1965288_west,['A15'],
Alt-Wittenau Ecke Eichborndamm,autobus,A15,1964266_west,"52.59187978,13.32645958",,,,,,,,196438.0
Breitenbachstr. Ecke Eichborndamm,autobus,A15,1964267_west,"52.57783790,13.31483743",,,,,,,,1964186.0
Holzhauserstr.,autobus,A15,1964268_west,"52.58199553,13.30545455",,52.58199553,13.30545455,90.0,Holzhauserstr. Ecke Breitenbachstr.,1965291_west,['A15'],
Borsigwalderweg,autobus,A15,1964269_west,"52.58481078,13.29793830",,52.58481078,13.2979383,90.0,Borsigwalderweg Ecke Ecke Conradstr.,1965292_west,['A15'],
Gorkistr.,autobus,A15,1964270_west,"52.59059426,13.29201115",,,,,,,,1964392.0
U-Bhf. Tegel,autobus,A15,1964271_west,"52.58950313,13.28363072",,52.58950313,13.28363072,100.0,U-Bhf. Tegel,1965294_west,['A15'],
Hermsdorferdamm Ecke Karolinenstr.,autobus,A15,1964272_west,"52.59996370,13.28132933",,52.5999637,13.28132933,100.0,Hermsdorferdamm Ecke Karolinenstr.,1965295_west,['A15'],
Schulzendorferstr.,autobus,A15,1964273_west,"52.61058699,13.29550843",,52.61058699,13.29550843,90.0,Schulzendorferstr. Ecke Hermsdorferdamm,1965296_west,['A15'],
Bhf. Hermsdorf,autobus,A15,1964274_west,"52.61953939,13.30416069",,,,,,,,1964129.0
Dominikus-Krankenhaus,autobus,A15,1964275_west,"52.62619652,13.29449567",,52.62619652,13.29449567,100.0,Dominikus Krankenhaus,1965297_west,['A15'],
Donnersmarckplatz,autobus,A15,1964276_west,"52.63015050,13.28045133",,52.6301505,13.28045133,100.0,Donnersmarckplatz,1965298_west,['A15'],
Zeltingerplatz,autobus,A15,1964277_west,"52.63350167,13.29044705",,,,,,,,19641439.0
Am Pilz,autobus,A15,1964278_west,"52.64251497,13.30090805",,52.64251497,13.30090805,100.0,Am Pilz,1965300_west,['A15'],
"Frohnau, Invalidensiedlung",autobus,A15,1964279_west,"52.65521617,13.28482837",,52.65521617413404,13.28482837029238,90.0,Invalidensiedlung,1965301_west,['A15'],
Osloerstr.,autobus,A16,1964280_west,"52.55587670,13.38424421",,,,,,,,1964870.0
Louise-Schroeder-Platz,autobus,A16,1964281_west,"52.55713317,13.36551369",,,,,,,,1964735.0
U-Bhf. Seestr.,autobus,A16,1964282_west,"52.55031541,13.35229850",,,,,,,,19641309.0
Virchow-Krankenhaus,autobus,A16,1964283_west,"52.54371513,13.33931792",,,,,,,,19641341.0
Fennstr. Ecke Tegelerstr.,autobus,A16,1964284_west,"52.53794452,13.36161806",,52.53794452,13.36161806,100.0,Fennstr. Ecke Tegelerstr.,1965306_west,['A16'],
Wilsnackerstr. Ecke Turmstr.,autobus,A16,1964285_west,"52.52642383,13.35170542",,,,,,,,19641412.0
Hansaplatz,autobus,A16,1964286_west,"52.51793433,13.34203819",,,,,,,,1964452.0
Großer Stern,autobus,A16,1964287_west,"52.51452472,13.34993319",,,,,,,,1964413.0
Lützowplatz,autobus,A16,1964288_west,"52.50502902,13.35182287",,,,,,,,1964749.0
Nollendorfplatz,autobus,A16,1964289_west,"52.49968844,13.35308644",,,,,,,,1964839.0
Rathaus Schöneberg,autobus,A16,1964290_west,"52.48515474,13.34508660",,,,,,,,1964978.0
Innsbruckerplatz,autobus,A16,1964291_west,"52.47854551,13.34405869",,,,,,,,1964549.0
Bundesplatz,autobus,A16,1964292_west,"52.47867899,13.32860278",,,,,,,,1964209.0
Wiesbadenerstr.,autobus,A16,1964293_west,"52.47164317,13.31958712",,52.47164317,13.31958712,90.0,Wiesbadenerstr. Ecke Südwestkorso,1965315_west,['A16'],
Breitenbachplatz,autobus,A16,1964294_west,"52.46721972,13.30947349",,,,,,,,1964184.0
Englerallee,autobus,A16,1964295_west,"52.46361923,13.30489502",,52.46361923,13.30489502,100.0,Englerallee,1965317_west,['A16'],
"Grunewald, Fontanestr.",autobus,A17,1964296_west,"52.48728923,13.26380017",,52.48728923,13.26380017,100.0,"Grunewald, Fontanestr.",1965318_west,['A17'],
Hagenplatz,autobus,A17,1964297_west,"52.48338297,13.26581870",,,,,,,,1964442.0
Roseneck,autobus,A17,1964298_west,"52.47580090,13.28241127",,,,,,,,19641020.0
Warnemünderstr.,autobus,A17,1964299_west,"52.47539404,13.29031330",,,,,,,,19641358.0
U-Bhf. Rüdesheimerplatz,autobus,A17,1964300_west,"52.47292404,13.31439017",,52.47292404,13.31439017,100.0,U-Bhf. Rüdesheimerplatz,1965322_west,['A17'],
Friedrich-Wilhelm-Platz,autobus,A17,1964301_west,"52.47128806,13.32836213",,,,,,,,1964351.0
Bundesallee Ecke Rheinstr.,autobus,A17,1964302_west,"52.46493424,13.32843851",,,,,,,,1964207.0
Rathaus Steglitz,autobus,A17,1964303_west,"52.45563378,13.32105078",,,,,,,,1964981.0
Stadtpark,autobus,A17,1964304_west,"52.44890556,13.33882767",,52.44890556,13.33882767,100.0,Stadtpark,1965326_west,['A17'],
Leonorenstr.,autobus,A17,1964305_west,"52.44442573,13.33891260",,,,,,,,1964705.0
Stadion Lichterfelde,autobus,A17,1964306_west,"52.43867923,13.32505044",,52.43867923,13.32505044,100.0,Stadion Lichterfelde,1965328_west,['A17'],
Ostpreußendamm Ecke Wilhelmstr.,autobus,A17,1964307_west,"52.43080143,13.31750364","nan, nan, nan",,,,,,,1964883.0
Morgensternstr. Ecke Wilhelmstr.,autobus,A17,1964308_west,"52.42808959,13.32549116",,,,,,,,1964809.0
Oberhoferplatz,autobus,A17,1964309_west,"52.42410259,13.32817043",,,,,,,,1964847.0
Saaleckplatz,autobus,A17,1964310_west,"52.41629158,13.32394196",,52.41629158,13.32394196,100.0,Saaleckplatz,1965332_west,['A17'],
Saargemünderstr.,autobus,A18,1964311_west,"52.45091808,13.27092249",nan+ nan,,,,,,,19641081.0
U-Bhf. Oskar-Helene-Heim,autobus,A18,1964312_west,"52.45027901,13.27036199",,,,,,,,19641300.0
Sophie-Charlotten-Str.,autobus,A18,1964313_west,"52.44594955,13.26778841",,,,,,,,19641166.0
Scharfestr.,autobus,A18,1964314_west,"52.43826689,13.26228604",,52.43826689,13.26228604,90.0,Scharfestr. Ecke Clayallee,1965336_west,['A18'],
Potsdamerstr. Ecke Berlinerstr.,autobus,A18,1964315_west,"52.43501768,13.26048142",,,,,,,,1964927.0
Mittelstr.,autobus,A18,1964316_west,"52.43473692,13.24926053",,52.43473692,13.24926053,90.0,Mittelstr. Ecke Potsdamerstr.,1965338_west,['A18'],
Wolzogenstr.,autobus,A18,1964317_west,"52.43228424,13.23570972",,52.43228424,13.23570972,90.0,Wolzogenstr. Ecke Potsdamerchaussee,1965339_west,['A18'],
Benschallee,autobus,A18,1964318_west,"52.42959262,13.22400013",,,,,,,,1964102.0
Waldfriedhof,autobus,A18,1964319_west,"52.42599573,13.20924605",,52.42599573,13.20924605,100.0,Waldfriedhof,1965341_west,['A18'],
Quantzstr.,autobus,A18,1964320_west,"52.42315874,13.20222949",,52.42315874,13.20222949,90.0,Quantzstr. Ecke Potsdamerchaussee,1965342_west,['A18'],
Kronprinzessinenweg,autobus,A18,1964321_west,"52.41994047,13.17530095",,,,,,,,1964648.0
Am Grossen Wannsee,autobus,A18,1964322_west,"52.42049658,13.16719297",,,,,,,,196446.0
Pfaueninsel-Chaussee,autobus,A18,1964323_west,"52.41883762,13.15303919",,,,,,,,1964914.0
Rathaus Wannsee,autobus,A18,1964324_west,"52.41844013,13.14887249",,,,,,,,1964984.0
Stölpchensee,autobus,A18,1964325_west,"52.40943024,13.14381795",,52.40943024,13.14381795,100.0,Stölpchensee,1965347_west,['A18'],
Kohlhasenbrück,autobus,A18,1964326_west,"52.39938685,13.14140115",,,,,,,,1964625.0
Roseneck,autobus,A19,1964327_west,"52.47580090,13.28241127",,,,,,,,19641020.0
Hagenplatz,autobus,A19,1964328_west,"52.48338297,13.26581870",,52.48338297,13.2658187,100.0,Hagenplatz,1965350_west,['A19'],
Erdenerstr.,autobus,A19,1964329_west,"52.49053761,13.27635675",,52.49053761,13.27635675,90.0,Erdenerstr. Ecke Königsallee,1965351_west,['A19'],
Henriettenplatz,autobus,A19,1964330_west,"52.49701780,13.29033951",,,,,,,,1964485.0
Wilmersdorferstr.,autobus,A19,1964331_west,"52.49996766,13.30698784",,,,,,,,19641407.0
Olivaerplatz,autobus,A19,1964332_west,"52.50060276,13.31311062",,,,,,,,1964854.0
Joachimstalerstr. Ecke Kurfürstendamm,autobus,A19,1964333_west,"52.50384853,13.33128219",,,,,,,,1964562.0
Breitscheidplatz,autobus,A19,1964334_west,"52.50443806,13.33564616",,,,,,,,1964187.0
Wittenbergplatz,autobus,A19,1964335_west,"52.50188939,13.34269788",,,,,,,,19641420.0
Nollendorfplatz,autobus,A19,1964336_west,"52.49968844,13.35308644",,52.49968844,13.35308644,100.0,Nollendorfplatz,1965358_west,['A19'],
Bülowstr. Ecke Potsdamerstr.,autobus,A19,1964337_west,"52.49785436,13.36201088","nan, nan",,,,,,,1964220.0
Bautzenerstr. Ecke Yorckstr.,autobus,A19,1964338_west,"52.49266114,13.37093569",,52.49266114,13.37093569,100.0,Bautzenerstr. Ecke Yorckstr.,1965360_west,['A19'],
Katzbachstr.,autobus,A19,1964339_west,"52.49158428,13.37672546",,,,,,,,1964595.0
Mehringdamm,autobus,A19,1964340_west,"52.49293918,13.38772030",,52.49293918,13.3877203,100.0,Mehringdamm,1965362_west,['A19'],
Flughafen,autobus,A19,1964341_west,"52.47096514,13.38564146",,,,,,,,1964332.0
Tegelort,autobus,A20,1964342_west,"52.57056042,13.23019256",,52.57056042,13.23019256,90.0,"Tegelort, Almazeile",1965364_west,['A20'],
Gerlindeweg Ecke Friederikestr.,autobus,A20,1964343_west,"52.57564386,13.22896485",,52.57564386,13.22896485,100.0,Gerlindeweg Ecke Friederikestr.,1965365_west,['A20'],
Falkenplatz,autobus,A20,1964344_west,"52.58490938,13.22761993",,52.58490938,13.22761993,100.0,Falkenplatz,1965366_west,['A20'],
Mühlenstr.,autobus,A20,1964345_west,"52.59350029,13.24886269",,,,,,,,1964821.0
Heiligenseestr.,autobus,A20,1964346_west,"52.59796194,13.27509889",,,,,,,,1964475.0
Karolinenstr.,autobus,A20,1964347_west,"52.59678679,13.27666137",,52.59678679,13.27666137,90.0,Karolinenstr. Ecke Hermsdorferdamm,1965369_west,['A20'],
U-Bhf. Tegel,autobus,A20,1964348_west,"52.58950313,13.28363072",,,,,,,,19641313.0
Hatzfeldtallee,autobus,A20,1964349_west,"52.59193118,13.28613645",,52.59193118,13.28613645,90.0,Hatzfeldtallee Ecke Buddestr.,1965371_west,['A20'],
Martin-Luther-Friedhof,autobus,A20,1964350_west,"52.59837048,13.29834314",,52.59837048,13.29834314,89.0,Martin-Luther-Friedhaus,1965372_west,['A20'],
Freie Scholle,autobus,A20,1964351_west,"52.59985154,13.30173616",,52.59985154,13.30173616,100.0,Freie Scholle,1965373_west,['A20'],
Waldhornstr.,autobus,A20,1964352_west,"52.60286060,13.30810524",,52.6028606,13.30810524,90.0,Waldhornstr. Ecke Waidmannslusterdamm,1965374_west,['A20'],
Cyclopstr. Ecke Waidmannslusterdamm,autobus,A20,1964353_west,"52.60700630,13.31976899",,52.6070063,13.31976899,100.0,Cyclopstr. Ecke Waidmannslusterdamm,1965375_west,['A20'],
Oraniendamm Ecke Zabel-Krüger-Damm,autobus,A20,1964354_west,"52.60786095,13.32381017",,,,,,,,1964865.0
Am Vierrutenberg Ecke Zabel-Krüger-Damm,autobus,A20,1964355_west,"52.61351518,13.34383031",,52.61351518,13.34383031,100.0,Am Vierrutenberg Ecke Zabel-Krüger-Damm,1965377_west,['A20'],
"Lübars, Dorfaue",autobus,A20,1964356_west,"52.62036688,13.35560142",,52.62036688,13.35560142,96.0,Lübars Dorfaue,1965378_west,['A20'],
Wentowsteig,autobus,A21,1964357_west,"52.59669616,13.35675334",,52.59669616,13.35675334,90.0,Wilhelmsruherdamm/Wentowsteig,1965379_west,['A21'],
Oranienburgerstr. Ecke Wilhelmsruherdamm,autobus,A21,1964358_west,"52.59547232,13.33299542",,52.59547232,13.33299542,100.0,Oranienburgerstr. Ecke Wilhelmsruherdamm,1965380_west,['A21'],
Alt-Wittenau Ecke Eichborndamm,autobus,A21,1964359_west,"52.59187978,13.32645958",,52.59187978,13.32645958,100.0,Alt-Wittenau Ecke Eichborndamm,1965381_west,['A21'],
Kienhorststr.,autobus,A21,1964360_west,"52.57465956,13.31439977",,,,,,,,1964600.0
Scharnweberstr.,autobus,A21,1964361_west,"52.56789124,13.31193030",,,,,,,,19641092.0
Kurt-Schumacher-Platz,autobus,A21,1964362_west,"52.56343825,13.32713029",,,,,,,,1964666.0
Kaserne Südtor,autobus,A21,1964363_west,"52.55685970,13.30843424",,52.5568597,13.30843424,100.0,Kaserne Südtor,1965385_west,['A21'],
Heckerdamm,autobus,A21,1964364_west,"52.53962817,13.29504845",,,,,,,,1964466.0
Olbersstr.,autobus,A21,1964365_west,"52.52929599,13.29633950",,,,,,,,1964853.0
Luisenplatz,autobus,A21,1964366_west,"52.52005409,13.29951339",,,,,,,,1964739.0
Kantstr.,autobus,A21,1964367_west,"52.50678795,13.30232027",,52.50678795,13.30232027,100.0,Kantstr.,1965389_west,['A21'],
Stuttgarterplatz,autobus,A21,1964368_west,"52.50551611,13.30292330",,,,,,,,19641218.0
Amtsgericht Charlottenburg,autobus,A21,1964369_west,"52.50571854,13.29534740",,,,,,,,196464.0
Kurfürstendamm Ecke Joachimsthalerstr.,autobus,A21,1964370_west,"52.50383422,13.33125432",,,,,,,,1964656.0
Bhf. Hohenzollerndamm,autobus,A21,1964371_west,"52.48841117,13.30204168",,,,,,,,1964130.0
U-Bhf. Fehrbellinerplatz,autobus,A21,1964372_west,"52.49039093,13.31417746",,,,,,,,19641281.0
Wiebestr.,autobus,A24,1964373_west,"52.53119513,13.31906377",,,,,,,,19641387.0
Gotzkowskystr.,autobus,A24,1964374_west,"52.52718721,13.33055093",,,,,,,,1964397.0
Stromstr.,autobus,A24,1964375_west,"52.52631690,13.34314632",,,,,,,,19641213.0
Rathenowerstr.,autobus,A24,1964376_west,"52.52673251,13.35527561",,,,,,,,1964987.0
Alt-Moabit,autobus,A24,1964377_west,"52.52407846,13.35706914",,,,,,,,196432.0
John-Foster-Dulles-Allee,autobus,A24,1964378_west,"52.51708521,13.35460920",,,,,,,,1964568.0
Tiergartenstr.,autobus,A24,1964379_west,"52.50960312,13.35132089",,,,,,,,19641262.0
Lützowplatz,autobus,A24,1964380_west,"52.50502902,13.35182287",,,,,,,,1964749.0
Potsdamerstr. Ecke Schöneberger Ufer,autobus,A24,1964381_west,"52.50581887,13.36824810",,52.50581887,13.3682481,100.0,Potsdamerstr. Ecke Schöneberger Ufer,1965403_west,['A24'],
Hafenplatz,autobus,A24,1964382_west,"52.50392084,13.37547988",,,,,,,,1964439.0
Askanischerplatz,autobus,A24,1964383_west,"52.50447897,13.38229547",,,,,,,,196476.0
U-Bhf. Hallesches Tor,autobus,A24,1964384_west,"52.49791002,13.39130767",,52.49791002,13.39130767,100.0,U-Bhf. Hallesches Tor,1965406_west,['A24'],
Alexandrinenstr. Ecke Neuenburgerstr.,autobus,A24,1964385_west,"52.49946450,13.40038294",,52.4994645,13.40038294,100.0,Alexandrinenstr. Ecke Neuenburgerstr.,1965407_west,['A24'],
Gneisenaustr. Ecke Zossenerstr.,autobus,A24,1964386_west,"52.49156620,13.39439538",,52.4915662,13.39439538,100.0,Gneisenaustr. Ecke Zossenerstr.,1965408_west,['A24'],
Columbiadamm Ecke Friesenstr.,autobus,A24,1964387_west,"52.48396787,13.39436897",,52.48396787,13.39436897,100.0,Columbiadamm Ecke Friesenstr.,1965409_west,['A24'],
Flughafen,autobus,A24,1964388_west,"52.48430845,13.38587202",,52.48430845,13.38587202,90.0,Flughafen Tempelhof,1965410_west,['A24'],
Unionplatz,autobus,A25,1964389_west,"52.53305940,13.33727881",,,,,,,,19641327.0
Gotzkowskybrücke,autobus,A25,1964390_west,"52.52381238,13.32972912",,,,,,,,1964396.0
Hansaplatz,autobus,A25,1964391_west,"52.51793433,13.34203819",,52.51793433,13.34203819,100.0,Hansaplatz,1965413_west,['A25'],
U-Bhf. Ernst-Reuter-Platz,autobus,A25,1964392_west,"52.51164603,13.32229086",,,,,,,,19641279.0
Bhf. Zoo,autobus,A25,1964393_west,"52.50702953,13.33322012",,,,,,,,1964147.0
Pariserstr. Ecke Joachimstalerstr.,autobus,A25,1964394_west,"52.49606236,13.33054139",,,,,,,,1964906.0
Berlinerstr. Ecke Bundesallee,autobus,A25,1964395_west,"52.48735367,13.33100211",,,,,,,,1964111.0
Bundesplatz,autobus,A25,1964396_west,"52.47867899,13.32860278",,,,,,,,1964209.0
Kaisereiche,autobus,A25,1964397_west,"52.46896806,13.33261489",,,,,,,,1964577.0
Grazerplatz,autobus,A25,1964398_west,"52.46731774,13.34764981",,52.46731774,13.34764981,100.0,Grazerplatz,1965422_west,['A25'],
Attilaplatz,autobus,A25,1964399_west,"52.45590180,13.37651250",,,,,,,,196477.0
Tempelhoferdamm Ecke Ordensmeisterstr.,autobus,A25,1964400_west,"52.45579861,13.38396352",,52.45579861,13.38396352,100.0,Tempelhoferdamm Ecke Ordensmeisterstr.,1965424_west,['A25'],
Gottlieb-Dunkel-Str. Ecke Germaniastr.,autobus,A25,1964401_west,"52.46056888,13.41797540",,,,,,,,1964394.0
Britzerdamm Ecke Tempelhoferweg,autobus,A25,1964402_west,"52.44889761,13.43620385",,52.44889761,13.43620385,100.0,Britzerdamm Ecke Tempelhoferweg,1965426_west,['A25'],
U-Bhf. Parchimerallee,autobus,A25,1964403_west,"52.44570961,13.44989755",,52.44570961,13.44989755,100.0,U-Bhf. Parchimerallee,1965427_west,['A25'],
Loewenhardtdamm,autobus,A28,1964405_west,"52.48165790,13.37445329",,52.4816579,13.37445329,100.0,Loewenhardtdamm,1965429_west,['A28'],
Dudenstr.,autobus,A28,1964406_west,"52.48503402,13.37659343",,52.48503402,13.37659343,90.0,Dudenstr. Ecke Katzbachstr.,1965430_west,['A28'],
Kreuzbergstr.,autobus,A28,1964407_west,"52.48940625,13.37669525",,52.48940625,13.37669525,90.0,Kreuzbergstr. Ecke Katzbachstr.,1965431_west,['A28'],
Yorckstr.,autobus,A28,1964408_west,"52.49358813,13.38496756",,,,,,,,19641433.0
Mehringdamm,autobus,A28,1964409_west,"52.49293918,13.38772030",,,,,,,,1964795.0
Zossenerstr.,autobus,A28,1964410_west,"52.49160677,13.39444390",,,,,,,,19641451.0
Südstern,autobus,A28,1964411_west,"52.48895865,13.40781380",,52.48895865,13.4078138,100.0,Südstern,1965435_west,['A28'],
Urban-Krankenhaus,autobus,A28,1964412_west,"52.49346936,13.40624512",,,,,,,,19641329.0
U-Bhf. Prinzenstr.,autobus,A28,1964413_west,"52.49844154,13.40664384",,52.49844154,13.40664384,100.0,U-Bhf. Prinzenstr.,1965437_west,['A28'],
U-Bhf Kottbusser Tor,autobus,A28,1964414_west,"52.49905126,13.41835901",,,,,,,,19641274.0
Oranienstr.,autobus,A28,1964415_west,"52.50131071,13.41922461",,,,,,,,1964867.0
Waldemarstr.,autobus,A28,1964416_west,"52.50326280,13.42063142",,,,,,,,19641345.0
Mariannenplatz,autobus,A28,1964417_west,"52.50228674,13.42408623",,52.50228674,13.42408623,100.0,Mariannenplatz,1965440_west,['A28'],
Manteuffelstr. Ecke Köpenickerstr.,autobus,A28,1964418_west,"52.50575155,13.43197089",,52.50575155,13.43197089,93.0,Köpenickerstr. Ecke Manteufelstr.,1965441_west,['A28'],
U-Bhf. Schlesisches Tor,autobus,A28,1964419_west,"52.50108420,13.44197126",,52.5010842,13.44197126,100.0,U-Bhf. Schlesisches Tor,1965442_west,['A28'],
Heckmannufer,autobus,A28,1964420_west,"52.49753811,13.44837791",,52.49753811,13.44837791,90.0,Heckmannufer Ecke Schlesischestr.,1965443_west,['A28'],
Roseneck,autobus,A29,1964421_west,"52.47580090,13.28241127",,,,,,,,19641020.0
Berkaerstr.,autobus,A29,1964422_west,"52.48211530,13.28118174",,52.4821153,13.28118174,90.0,Berkaerstr. Ecke Teplitzerstr.,1965445_west,['A29'],
Bismarckplatz,autobus,A29,1964423_west,"52.49206454,13.28493897",,52.49206454,13.28493897,100.0,Bismarckplatz,1965447_west,['A29'],
Henriettenplatz,autobus,A29,1964424_west,"52.49701780,13.29033951",,,,,,,,1964485.0
Joachim-Friedrich-Str.,autobus,A29,1964425_west,"52.49796466,13.29627094",,,,,,,,1964559.0
Wilmersdorferstr.,autobus,A29,1964426_west,"52.49996766,13.30698784",,,,,,,,19641407.0
Olivaerplatz,autobus,A29,1964427_west,"52.50060276,13.31311062",,,,,,,,1964854.0
Uhlandstr.,autobus,A29,1964428_west,"52.49368292,13.32361138",,,,,,,,19641321.0
Joachimstalerstr.,autobus,A29,1964429_west,"52.50380705,13.33128157",,,,,,,,1964561.0
Breitscheidplatz,autobus,A29,1964430_west,"52.50443806,13.33564616",,,,,,,,1964187.0
Wittenbergplatz,autobus,A29,1964431_west,"52.50188939,13.34269788",,,,,,,,19641420.0
Lutherstr.,autobus,A29,1964432_west,"52.50104544,13.34692194",,,,,,,,1964742.0
Lützowstr.,autobus,A29,1964433_west,"52.50307891,13.36561127",,,,,,,,1964750.0
Lützowstr. Ecke Potsdamerstr.,autobus,A29,1964434_west,"52.50309850,13.36569710","nan, nan",,,,,,,1964752.0
Askanischerplatz,autobus,A29,1964435_west,"52.50447897,13.38229547",,,,,,,,196476.0
U-Bhf. Kochstr.,autobus,A29,1964436_west,"52.50669824,13.39050322",,,,,,,,19641291.0
Oranienplatz,autobus,A29,1964437_west,"52.50232371,13.41551013",,,,,,,,1964866.0
Machandelweg,autobus,A31,1964438_west,"52.52483520,13.24567178",,,,,,,,1964753.0
U-Bhf. Ruhleben,autobus,A31,1964439_west,"52.52596833,13.24147858",,,,,,,,19641304.0
Friedhof Ruhleben,autobus,A31,1964440_west,"52.52773587,13.23178832",,,,,,,,1964349.0
Kinderheim Ruhleben,autobus,A31,1964441_west,"52.52796709,13.23071328",,,,,,,,1964603.0
Teltowerstr.,autobus,A31,1964442_west,"52.52691808,13.21580707",,,,,,,,19641241.0
Grenadierstr.,autobus,A31,1964443_west,"52.53098193,13.20537176",,,,,,,,1964404.0
Stresowplatz,autobus,A31,1964444_west,"52.53362878,13.20678183",,52.53362878,13.20678183,100.0,Stresowplatz,1965468_west,['A31'],
Breitestr. Ecke Charlottenstr.,autobus,A31,1964445_west,"52.53613613,13.20450630",,,,,,,,1964183.0
Rathaus Spandau,autobus,A31,1964446_west,"52.53457836,13.19949094",,,,,,,,1964979.0
Nauenerstr.,autobus,A31,1964447_west,"52.53404430,13.18167584",,,,,,,,1964824.0
Egelpfuhlstr.,autobus,A31,1964448_west,"52.53353984,13.16941693",,,,,,,,1964285.0
Magistratsweg,autobus,A31,1964449_west,"52.53312014,13.15806721",,,,,,,,1964756.0
Spandauerstr.,autobus,A31,1964450_west,"52.53594092,13.15679343",,,,,,,,19641176.0
Hackbuschstr.,autobus,A31,1964451_west,"52.53959925,13.15022902",,52.53959925,13.15022902,90.0,Hackbuschstr. Ecke Torweg,1965473_west,['A31'],
Heidebergplan,autobus,A31,1964452_west,"52.54107413,13.14733873",,52.54107413,13.14733873,100.0,Heidebergplan,1965474_west,['A31'],
Breitenbachplatz,autobus,A32,1964453_west,"52.46721972,13.30947349",,52.46721972,13.30947349,100.0,Breitenbachplatz,1965475_west,['A32'],
Gritznerstr.,autobus,A32,1964454_west,"52.46432401,13.31648845",,52.46432401,13.31648845,90.0,Gritznerstr. Ecke Schildhornstr.,1965476_west,['A32'],
Schlossstr. Ecke Albrechtstr.,autobus,A32,1964455_west,"52.45690701,13.32064225",,,,,,,,19641102.0
Rathaus Steglitz,autobus,A32,1964456_west,"52.45563378,13.32105078",,,,,,,,1964981.0
Kuhligkshofstr. Ecke Albrechtstr.,autobus,A32,1964457_west,"52.45647464,13.32266025",,52.45647464,13.32266025,100.0,Kuhligkshofstr. Ecke Albrechtstr.,1965479_west,['A32'],
Sedanstr.,autobus,A32,1964458_west,"52.45143415,13.33535514",,52.45143415,13.33535514,90.0,Sedanstr. Ecke Albrechtstr.,1965480_west,['A32'],
Stindestr.,autobus,A32,1964459_west,"52.44812942,13.34011389",,52.44812942,13.34011389,90.0,Stindestr. Ecke Albrechtstr.,1965481_west,['A32'],
Leonorenstr.,autobus,A32,1964460_west,"52.44442573,13.33891260",,,,,,,,1964705.0
"Lankwitz, Kirche",autobus,A32,1964461_west,"52.43629187,13.34574539",,,,,,,,1964691.0
Malteserstr. Ecke Belßstr.,autobus,A32,1964462_west,"52.42914551,13.35460407",,,,,,,,1964763.0
Marchandstr.,autobus,A32,1964463_west,"52.42301789,13.35749781",,52.42301789,13.35749781,90.0,Marchandstraasse Ecke Malteserstr.,1965486_west,['A32'],
Marienfelderallee,autobus,A32,1964464_west,"52.41372773,13.36191679",,52.41372773,13.36191679,90.0,Marienfelderallee Ecke Malteserstr.,1965487_west,['A32'],
Stegerwaldstr.,autobus,A32,1964465_west,"52.42072124,13.36926660",,52.42072124,13.3692666,90.0,Stegerwaldstr. Ecke Marienfelderallee,1965488_west,['A32'],
Bhf. Marienfelde,autobus,A32,1964466_west,"52.42342247,13.37466418",,,,,,,,1964137.0
Berlinickestr. Ecke Albrechtstr.,autobus,A33,1964467_west,"52.45613384,13.32388935",,52.45613384,13.32388935,100.0,Berlinickestr. Ecke Albrechtstr.,1965490_west,['A33'],
Klingsorstr.,autobus,A33,1964468_west,"52.45309022,13.33121104",,,,,,,,1964614.0
Sedanstr.,autobus,A33,1964469_west,"52.45143022,13.33528925",,,,,,,,19641140.0
Bismarckstr. Ecke Steglitzerdamm,autobus,A33,1964470_west,"52.45103871,13.33794952","nan, nan",,,,,,,1964157.0
Halskestr. Ecke Attilastr. Ecke Steglitzerdamm,autobus,A33,1964471_west,"52.45003699,13.34668141",,,,,,,,1964448.0
Kaiserstr./Ringstr.,autobus,A33,1964472_west,"52.44448052,13.37222908",,52.44448052,13.37222908,91.0,Kaiser-/Ringstr.,1965495_west,['A33'],
Rathaus Mariendorf,autobus,A33,1964473_west,"52.44527454,13.37949238",,,,,,,,1964975.0
"Mariendorf, Kaiserstr.",autobus,A33,1964474_west,"52.44556793,13.38578369",,,,,,,,1964771.0
"Spandau, Friedhof",autobus,A34,1964475_west,"52.55313629,13.17967445",,52.55313629,13.17967445,100.0,"Spandau, Friedhof",1965498_west,['A34'],
Askanierring Ecke Falkenhagenerstr.,autobus,A34,1964476_west,"52.54892650,13.19348270",,52.5489265,13.1934827,100.0,Askanierring Ecke Falkenhagenerstr.,1965500_west,['A34'],
Hafenplatz,autobus,A34,1964477_west,"52.50392084,13.37547988",,,,,,,,1964439.0
Rathaus Spandau,autobus,A34,1964478_west,"52.53457836,13.19949094",,,,,,,,1964979.0
Wilhelmstr. Ecke Pichelsdorferstr.,autobus,A34,1964479_west,"52.51306304,13.19689712",,52.51306304,13.19689712,89.0,Heerstr. Ecke Pichelsdorferstr.,1965505_west,['A34'],
Adamstr.,autobus,A34,1964480_west,"52.52107038,13.19779651",,52.52107038,13.19779651,90.0,Adamstr. Ecke Pichelsdorferstr.,1965504_west,['A34'],
Heerstr. Ecke Gatowerstr.,autobus,A34,1964481_west,"52.51550448,13.18456806",,,,,,,,1964469.0
Gatowerstr.,autobus,A34,1964482_west,"52.50926294,13.18033740",,52.50926294,13.1803374,90.0,Weinmeisterhornweg Ecke Gatowerstr.,1965506_west,['A34'],
Weinmeisterhornweg,autobus,A34,1964483_west,"52.50926294,13.18033740",,52.50926294,13.1803374,90.0,Weinmeisterhornweg Ecke Gatowerstr.,1965506_west,['A34'],
Ortsgrenze Gatow,autobus,A34,1964484_west,"52.49816017,13.18001442",,52.49816017,13.18001442,100.0,Ortsgrenze Gatow,1965507_west,['A34'],
"Gatow, Kirche",autobus,A34,1964485_west,"52.48684681,13.18215148",,52.48684681,13.18215148,100.0,"Gatow, Kirche",1965508_west,['A34'],
Großglienickerweg,autobus,A34,1964486_west,"52.48314881,13.18263056",,,,,,,,1964414.0
Krankenhaus Hohengatow,autobus,A34,1964487_west,"52.47044988,13.16939160",,52.47044988,13.1693916,100.0,Krankenhaus Hohengatow,1965510_west,['A34'],
Krankenhaus Havelhöhe,autobus,A34,1964488_west,"52.46291933,13.15899083",,52.46291933,13.15899083,100.0,Krankenhaus Havelhöhe,1965511_west,['A34'],
Alt-Kladow,autobus,A34,1964489_west,"52.45459141,13.14448804",,,,,,,,196426.0
Schwiezerhaus,autobus,A34,1964490_west,"52.46175022,13.13357880",,52.46175022,13.1335788,92.0,Schweizerhaus,1965513_west,['A34'],
Gutshof,autobus,A34,1964491_west,"52.47510904,13.12071054",,52.47510904,13.12071054,100.0,Gutshof,1965514_west,['A34'],
"Spandau, Friedhof",autobus,A35,1964492_west,"52.55313629,13.17967445",,,,,,,,19641171.0
Askanierring Ecke Falkenseerchaussee,autobus,A35,1964493_west,"52.54567997,13.19426733",,,,,,,,196475.0
Rathaus Spandau,autobus,A35,1964494_west,"52.53457836,13.19949094",,,,,,,,1964979.0
Wilhelmstr. Ecke Pichelsdorferstr.,autobus,A35,1964495_west,"52.52797851,13.19530185",,,,,,,,19641405.0
Adamstr.,autobus,A35,1964496_west,"52.52102912,13.19780699",,,,,,,,19642.0
Heerstr. Ecke Gatowerstr.,autobus,A35,1964497_west,"52.51550448,13.18456806",,,,,,,,1964469.0
Gatowerstr.,autobus,A35,1964498_west,"52.48943626,13.18038759",,,,,,,,1964373.0
Weinmeisterhornweg,autobus,A35,1964499_west,"52.50924682,13.18031485",,,,,,,,19641370.0
Ortsgrenze Gatow,autobus,A35,1964500_west,"52.49816017,13.18001442",,,,,,,,1964868.0
"Gatow, Kirche",autobus,A35,1964501_west,"52.48684681,13.18215148",,,,,,,,1964372.0
Großglienickerweg,autobus,A35,1964502_west,"52.48314881,13.18263056",,,,,,,,1964414.0
Krankenhaus Hohengatow,autobus,A35,1964503_west,"52.47044988,13.16939160",,,,,,,,1964639.0
Krankenhaus Havelhöhe,autobus,A35,1964504_west,"52.46291933,13.15899083",,,,,,,,1964637.0
Alt-Kladow,autobus,A35,1964505_west,"52.45345793,13.14387535",,52.45345793,13.14387535,90.0,Alt-Kladow Ecke Kladowerdamm,1965532_west,['A35'],
Krampnitzerweg,autobus,A35,1964506_west,"52.45227343,13.13842230",,,,,,,,1964636.0
Hottengrund,autobus,A35,1964507_west,"52.44597765,13.12625139",,,,,,,,1964532.0
Altenheim Hottengrund,autobus,A35E,1964508_west,"52.44892367,13.11423775",,52.44892367,13.11423775,100.0,Altenheim Hottengrund,1965540_west,['A35E'],
Pottensteinerweg Ecke Selbitzerstr.,autobus,A35E,1964509_west,"52.45051486,13.12165202",,52.45051486,13.12165202,100.0,Pottensteinerweg Ecke Selbitzerstr.,1965538_west,['A35E'],
Selbitzerstr. Ecke Krampnitzerweg,autobus,A35E,1964510_west,"52.45315522,13.12204007",,,,,,,,19641152.0
Sakrowerstr. Ecke Landstr.,autobus,A35E,1964511_west,"52.44931864,13.13008109",,,,,,,,19641085.0
Alt-Kladow Ecke Kladowerdamm,autobus,A35E,1964512_west,"52.45345696,13.14393050",,,,,,,,196427.0
Brixplatz,autobus,A4,1964513_west,"52.51950863,13.25638651",,52.51950863,13.25638651,90.0,"Neu-Westend, Brixplatz",1965165_west,['A4'],
Theodor-Heuss-Platz,autobus,A4,1964514_west,"52.50937134,13.27256472",,52.50937134,13.27256472,100.0,Theodor-Heuss-Platz,1965166_west,['A4'],
Messedamm,autobus,A4,1964515_west,"52.50446815,13.27941210",,52.50446815,13.2794121,100.0,Messedamm,1965167_west,['A4'],
Henriettenplatz,autobus,A4,1964516_west,"52.49701780,13.29033951",,,,,,,,1964485.0
Hochmeisterplatz,autobus,A4,1964517_west,"52.49468638,13.30125468",,52.49468638,13.30125468,100.0,Hochmeisterplatz,1965169_west,['A4'],
U-Bhf. Fehrbellinerplatz,autobus,A4,1964518_west,"52.49039093,13.31417746",,,,,,,,19641281.0
Bundesallee Ecke Badenischestr.,autobus,A4,1964519_west,"52.48612222,13.33105202",,52.48612222,13.33105202,98.0,Bundesallee Ecke Badenschestr.,1965172_west,['A4'],
Rathaus Schöneberg,autobus,A4,1964520_west,"52.48515474,13.34508660",,,,,,,,1964978.0
Innsbruckerplatz,autobus,A4,1964521_west,"52.47854551,13.34405869",,,,,,,,1964549.0
Kaiser-Wilhelm-Platz,autobus,A4,1964522_west,"52.48632925,13.35655627",,,,,,,,1964575.0
U-Bhf. Flughafen,autobus,A4,1964523_west,"52.48488596,13.38599655",,52.48488596,13.38599655,100.0,U-Bhf. Flughafen,1965178_west,['A4'],
Columbiadamm,autobus,A4,1964524_west,"52.48398172,13.39441875",,,,,,,,1964239.0
Kienitzerstr.,autobus,A4,1964525_west,"52.47761763,13.43849396",,52.47761763,13.43849396,90.0,Kienitzerstr. Ecke Karl-Marx-Str.,1965181_west,['A4'],
Sonnenallee Ecke Erkstr.,autobus,A4,1964526_west,"52.48167462,13.44010366",,52.48167462,13.44010366,100.0,Sonnenallee Ecke Erkstr.,1965182_west,['A4'],
Harzerstr.,autobus,A4,1964527_west,"52.48508524,13.44890845",,52.48508524,13.44890845,90.0,Harzerstr. Ecke Elsenstr.,1965183_west,['A4'],
Potsdamerstr. Ecke Fischerhüttenstr.,autobus,A48,1964528_west,"52.43574406,13.25604513",,52.43574406,13.25604513,95.0,"Zehlendorf, Potsdamerstr. Ecke Fischerhüttenstr.",1965541_west,['A48'],
Teltowerdamm,autobus,A48,1964529_west,"52.43504475,13.26044253",,,,,,,,19641240.0
Sundgauerstr.,autobus,A48,1964530_west,"52.43838201,13.27144796",,,,,,,,19641226.0
Dahlemerweg,autobus,A48,1964531_west,"52.44179805,13.28269937",,,,,,,,1964247.0
Drakestr.,autobus,A48,1964532_west,"52.44573369,13.29372237",,,,,,,,1964271.0
Hindenburgdamm,autobus,A48,1964533_west,"52.45352508,13.31567149",,,,,,,,1964501.0
Rathaus Steglitz,autobus,A48,1964534_west,"52.45563378,13.32105078",,,,,,,,1964981.0
Bundesallee Ecke Rheinstr.,autobus,A48,1964535_west,"52.46493424,13.32843851",,,,,,,,1964207.0
Kaisereiche,autobus,A48,1964536_west,"52.46896806,13.33261489",,,,,,,,1964577.0
Innsbruckerplatz,autobus,A48,1964537_west,"52.47854551,13.34405869",,,,,,,,1964549.0
Kaiser-Wilhelm-Platz,autobus,A48,1964538_west,"52.48632925,13.35655627",,,,,,,,1964575.0
U-Bhf. Bülowstr.,autobus,A48,1964540_west,"52.49787470,13.36212460",,,,,,,,19641276.0
Lützowstr.,autobus,A48,1964541_west,"52.50307891,13.36561127",,,,,,,,1964750.0
"Philharmonie, Tiergartenstr.",autobus,A48,1964542_west,"52.51075589,13.36887626",,52.51075589,13.36887626,95.0,Tiergartenstr./Philharmonie,1965554_west,['A48'],
Machandelweg,autobus,A5,1964543_west,"52.52483520,13.24567178",,,,,,,,1964753.0
U-Bhf. Ruhleben,autobus,A5,1964544_west,"52.52596833,13.24147858",,,,,,,,19641304.0
Friedhof Ruhleben,autobus,A5,1964545_west,"52.52773587,13.23178832",,,,,,,,1964349.0
Teltowerstr. Ecke Charlottenburgerchaussee,autobus,A5,1964546_west,"52.52689235,13.21608710",,,,,,,,19641243.0
Stresowplatz,autobus,A5,1964547_west,"52.53362878,13.20678183",,,,,,,,19641212.0
Breitestr. Ecke Charlottenstr.,autobus,A5,1964548_west,"52.53613613,13.20450630",,,,,,,,1964183.0
Rathaus Spandau,autobus,A5,1964549_west,"52.53457836,13.19949094",,,,,,,,1964979.0
Falkenseerchaussee,autobus,A5,1964550_west,"52.54753513,13.18466337",,52.54753513,13.18466337,90.0,Falkenseerchaussee Ecke Zeppelinstr.,1965191_west,['A5'],
Viersenerstr.,autobus,A5,1964551_west,"52.54020418,13.17462661",,,,,,,,19641337.0
Wolburgsweg,autobus,A5,1964552_west,"52.55061601,13.16810722",,,,,,,,19641423.0
Stadtrandstr.,autobus,A5,1964553_west,"52.55342700,13.15358543",,,,,,,,19641190.0
Waldkrankenhaus,autobus,A5,1964554_west,"52.56214543,13.15834009",,52.56214543,13.15834009,100.0,Waldkrankenhaus,1965192_west,['A5'],
Nervenklinik,autobus,A5,1964555_west,"52.56341330,13.15430729",,52.5634133,13.15430729,90.0,"Spandau, Landesnervenklinik",1965193_west,['A5'],
Roseneck,autobus,A50,1964556_west,"52.47580090,13.28241127",,,,,,,,19641020.0
Elsterplatz,autobus,A50,1964557_west,"52.47977983,13.28550761",,,,,,,,1964299.0
Forckenbeckstr.,autobus,A50,1964558_west,"52.48221132,13.29002747",,52.48221132,13.29002747,90.0,Forckenbeckstr. Ecke Hohenzollerndamm,1965556_west,['A50'],
Flinsbergerplatz,autobus,A50,1964559_west,"52.48368994,13.29268112",,,,,,,,1964330.0
Seesenerstr. Ecke Hohenzollerndamm,autobus,A50,1964560_west,"52.48840467,13.30216846",,,,,,,,19641147.0
U-Bhf. Fehrbellinerplatz,autobus,A50,1964561_west,"52.49039093,13.31417746",,,,,,,,19641281.0
Emserplatz,autobus,A50,1964562_west,"52.49207289,13.31925139",,,,,,,,1964303.0
Uhlandstr. Ecke Güntzelstr.,autobus,A50,1964563_west,"52.49152711,13.32321130",,52.49152711,13.3232113,100.0,Uhlandstr. Ecke Güntzelstr.,1965559_west,['A50'],
Bundesallee Ecke Tratenaustr.,autobus,A50,1964564_west,"52.49318663,13.33084843",,,,,,,,1964208.0
Pragerplatz,autobus,A50,1964565_west,"52.49295457,13.33315040",,52.49295457,13.3331504,100.0,Pragerplatz,1965560_west,['A50'],
Bhf. Wannsee,autobus,A51,1964566_west,"52.42151302,13.17810257",,,,,,,,1964144.0
Königstr./Kronprinzessinnenweg,autobus,A51,1964567_west,"52.41993325,13.17531239",,52.41993325,13.17531239,95.0,Königstr. Ecke Kronprinzessinnenweg,1965562_west,['A51'],
Am Grossen Wannsee,autobus,A51,1964568_west,"52.42049658,13.16719297",,,,,,,,196446.0
Koblanckstr.,autobus,A51,1964569_west,"52.42616031,13.16143704",,,,,,,,1967584.0
Colomierstr.,autobus,A51,1964570_west,"52.42928676,13.16409030",,,,,,,,1964238.0
Krankenhaus Wannsee,autobus,A51,1964571_west,"52.43102765,13.16496452",,,,,,,,1964644.0
Zum Heckeshorn,autobus,A51,1964572_west,"52.43498873,13.16171669",,52.43498873,13.16171669,86.0,Krankenhaus Heckeshorn,1965564_west,['A51'],
Krankenhaus Heckeshorn,autobus,A51,1964573_west,"52.43498873,13.16171669",,52.43498873,13.16171669,100.0,Krankenhaus Heckeshorn,1965564_west,['A51'],
"Marienfelde, Stadtrandsiedlung",autobus,A52,1964574_west,"52.40262128,13.35330799",,52.40262128,13.35330799,100.0,"Marienfelde, Stadtrandsiedlung",1965565_west,['A52'],
Alt-Marienfelde,autobus,A52,1964575_west,"52.41341610,13.36332925",,52.4134161,13.36332925,90.0,Alt-Marienfelde Ecke Merienfelderallee,1965566_west,['A52'],
Kettingerstr. Ecke Alt-Marienfelde,autobus,A52,1964576_west,"52.41325553,13.39547436",,,,,,,,1964598.0
Bühlerweg,autobus,A52,1964578_west,"52.41733641,13.41295295",,52.41733641,13.41295295,100.0,Bühlerweg,1965569_west,['A52'],
Buckower Friedhof,autobus,A52,1964579_west,"52.42151537,13.43036951",,,,,,,,1964204.0
Buckowerdamm,autobus,A52,1964580_west,"52.42368330,13.43663873",,,,,,,,1964203.0
Grünerweg,autobus,A52,1964581_west,"52.42955864,13.45359073",,,,,,,,1964424.0
Triftweg,autobus,A52,1964582_west,"52.43169737,13.45951197",,52.43169737,13.45951197,90.0,Triftweg Ecke Johannisthalerchaussee,1965573_west,['A52'],
Rudowerstr.,autobus,A52,1964583_west,"52.42964562,13.47798792",,52.42964562,13.47798792,90.0,Efeuweg Ecke Rudowerstr.,1965575_west,['A52'],
Efeuweg,autobus,A52,1964584_west,"52.42964562,13.47798792",,52.42964562,13.47798792,90.0,Efeuweg Ecke Rudowerstr.,1965575_west,['A52'],
Wildmeisterdamm,autobus,A52,1964585_west,"52.42576178,13.48322598",,52.42576178,13.48322598,90.0,Wildmeisterdamm Ecke Neuköllnerstr.,1965576_west,['A52'],
Köpenickerstr.,autobus,A52,1964586_west,"52.42288858,13.50912841",,52.42288858,13.50912841,90.0,Mimosenweg Ecke Köpenickerstr.,1965579_west,['A52'],
Friedhof Rudow,autobus,A52,1964587_west,"52.42113122,13.50319915",,52.42113122,13.50319915,100.0,Friedhof Rudow,1965578_west,['A52'],
Kanalstr.,autobus,A52,1964588_west,"52.43167573,13.49524803",,52.43167573,13.49524803,90.0,Stubenraustr. Ecke Kanalstr.,1965580_west,['A52'],
Mimosenweg,autobus,A52,1964589_west,"52.42288858,13.50912841",,52.42288858,13.50912841,90.0,Mimosenweg Ecke Köpenickerstr.,1965579_west,['A52'],
Stubenrauchstr. Ecke Kanalstr.,autobus,A52,1964590_west,"52.43167573,13.49524803",,52.43167573,13.49524803,96.0,Stubenraustr. Ecke Kanalstr.,1965580_west,['A52'],
Dreilindenstr.,autobus,A53,1964591_west,"52.42046329,13.18332357",,,,,,,,1964273.0
"Zehlendorf, Hohenzollernplatz",autobus,A53,1964592_west,"52.43077157,13.19403289",,,,,,,,19641438.0
Krottnaurerstr. Ecke Alemannenstr.,autobus,A53,1964593_west,"52.43405201,13.20663634",,,,,,,,1964649.0
Waldemarplatz,autobus,A53,1964594_west,"52.43775537,13.22018978",,52.43775537,13.22018978,100.0,Waldemarplatz,1965583_west,['A53'],
Argentinischeallee Ecke Fischerhüttenstr.,autobus,A53,1964595_west,"52.44271134,13.24015364",,,,,,,,196471.0
U-Bhf. Krumme Lanke,autobus,A53,1964596_west,"52.44361298,13.24100643",,52.44361298,13.24100643,100.0,U-Bhf. Krumme Lanke,1965585_west,['A53'],
Hartmannsweilerweg,autobus,A53,1964597_west,"52.43871188,13.24883384",,,,,,,,1964456.0
Potsdamerstr. Ecke Fischerhüttenstr.,autobus,A53,1964598_west,"52.43577515,13.25602800",,,,,,,,1964929.0
Teltowerdamm,autobus,A53,1964599_west,"52.43504475,13.26044253",,,,,,,,19641240.0
Rathaus Zehlendorf,autobus,A53,1964600_west,"52.43320752,13.25953192",,,,,,,,1964985.0
Knesebeckstr.,autobus,A53,1964601_west,"52.42892135,13.26769723",,52.42892135,13.26769723,90.0,Knesebeckstr. Ecke Seehofstr.,1965588_west,['A53'],
Jänickestr.,autobus,A53,1964602_west,"52.42721394,13.27165945",,,,,,,,1964571.0
Dahlemerweg,autobus,A53,1964603_west,"52.42634636,13.27683264",,52.42634636,13.27683264,100.0,Dahlemerweg,1965589_west,['A53'],
Osteweg,autobus,A53,1964604_west,"52.42102198,13.28113580",,,,,,,,1964879.0
4. Ring,autobus,A53,1964605_west,"52.42250631,13.28694906",,52.42250631,13.28694906,100.0,4. Ring,1965590_west,['A53'],
Luzernerstr.,autobus,A53,1964606_west,"52.42403869,13.29291061",,52.42403869,13.29291061,100.0,Luzernerstr.,1965591_west,['A53'],
Thunerplatz,autobus,A53,1964607_west,"52.42375897,13.29618487",,,,,,,,19641256.0
Wiesenbaude,autobus,A53,1964608_west,"52.43049524,13.31180861",,,,,,,,19641392.0
Ostpreußendamm Ecke Wilhelmstr.,autobus,A53,1964609_west,"52.43080143,13.31750364","nan, nan, nan",,,,,,,1964883.0
Jungfernstieg,autobus,A53,1964610_west,"52.42812725,13.32528548",,,,,,,,1964570.0
Bhf. Wannsee,autobus,A6,1964611_west,"52.42151302,13.17810257",,,,,,,,1964144.0
Königstr.,autobus,A6,1964612_west,"52.41987226,13.17533294",,,,,,,,1964677.0
Pfaueninsel-Chaussee,autobus,A6,1964613_west,"52.41883762,13.15303919",,,,,,,,1964914.0
Rathaus Wannsee,autobus,A6,1964614_west,"52.41844013,13.14887249",,,,,,,,1964984.0
Friedenstr.,autobus,A6,1964615_west,"52.41722225,13.13897505",,52.41722225,13.13897505,90.0,Friedenstr. Ecke Königstr.,1965198_west,['A6'],
Schäferberg,autobus,A6,1964616_west,"52.41562662,13.12630868",,52.41562662,13.12630868,100.0,Schäferberg,1965199_west,['A6'],
Nikolskoerweg,autobus,A6,1964617_west,"52.41402767,13.10923663",,52.41402767,13.10923663,90.0,Nikolskoerweg Ecke Königstr.,1965200_west,['A6'],
Glienicker Brücke,autobus,A6,1964618_west,"52.41347409,13.09123588",,52.41347409,13.09123588,100.0,Glienicker Brücke,1965201_west,['A6'],
"Roseneck, Hundekehl",autobus,A60,1964619_west,"52.47640251,13.28161127",,,,,,,,19641021.0
Warnemünder/Berkaerstr.,autobus,A60,1964620_west,"52.47543626,13.29028844",,,,,,,,19641359.0
Zappoter/Oeynhauserstr.,autobus,A60,1964621_west,"52.47331133,13.29866929",,,,,,,,19641436.0
"Hamburgerstr., Rudolf-Mosse-Platz",autobus,A60,1964622_west,"52.47537517,13.30356645",,,,,,,,1964450.0
U-Bhf. Heidelbergerplatz,autobus,A60,1964623_west,"52.48045045,13.31283560",,52.48045045,13.3128356,100.0,U-Bhf. Heidelbergerplatz,1965601_west,['A60'],
Brabanterplatz,autobus,A60,1964624_west,"52.48197504,13.31612866",,52.48197504,13.31612866,100.0,Brabanterplatz,1965602_west,['A60'],
Am Volkspark,autobus,A60,1964625_west,"52.48322207,13.32036834",,52.48322207,13.32036834,100.0,Am Volkspark,1965603_west,['A60'],
Berlinerstr. Ecke Brandenburgischestr.,autobus,A60,1964626_west,"52.48646559,13.32038849",,,,,,,,1964110.0
Postamt,autobus,A60,1964627_west,"52.48905066,13.32277037",,52.48905066,13.32277037,100.0,Postamt,1965605_west,['A60'],
Güntzelstr.,autobus,A60,1964628_west,"52.49152414,13.32320274",,52.49152414,13.32320274,90.0,Güntzelstr. Ecke Uhlandstr.,1965606_west,['A60'],
Ludwigkirchstr./Pariserstr.,autobus,A60,1964629_west,"52.49753547,13.32432807",,,,,,,,1964736.0
Kurfürstendamm Ecke Uhlandstr.,autobus,A60,1964630_west,"52.50251711,13.32521539",,52.50251711,13.32521539,100.0,Kurfürstendamm Ecke Uhlandstr.,1965608_west,['A60'],
Kurfürstendamm Ecke Joachimstalerstr.,autobus,A60,1964631_west,"52.50386159,13.33136802",,,,,,,,1964653.0
Breitscheidplatz,autobus,A60,1964632_west,"52.50443806,13.33564616",,52.50443806,13.33564616,100.0,Breitscheidplatz,1965610_west,['A60'],
Wittenbergplatz,autobus,A60,1964633_west,"52.50188939,13.34269788",,,,,,,,19641420.0
Zobeltitzstr.,autobus,A61,1964634_west,"52.56961198,13.31256257",,52.56961198,13.31256257,90.0,Zobeltitzstr. Ecke Eichborndamm,1965612_west,['A61'],
"U-Bhf. Scharnweberstr., Sportplatz",autobus,A61,1964635_west,"52.56792223,13.31194981",,,,,,,,19641307.0
Schillingstr.,autobus,A61,1964636_west,"52.56595210,13.32024014",,52.5659521,13.32024014,90.0,Schillingstr. Ecke Scharnweberstr.,1965614_west,['A61'],
U-Bhf. Kurt-Schumacher-Platz,autobus,A61,1964637_west,"52.56343825,13.32713029",,52.56343825,13.32713029,95.0,Kurt-Schumacher-Platz,1965615_west,['A61'],
Humboldtstr.,autobus,A61,1964638_west,"52.56924651,13.32987792",,52.56924651,13.32987792,90.0,Humboldtstr. Ecke Ollenhauerstr.,1965616_west,['A61'],
Sebastianfriedhof,autobus,A61,1964639_west,"52.57100250,13.33636094",,52.5710025,13.33636094,100.0,Sebastianfriedhof,1965617_west,['A61'],
Teichstr.,autobus,A61,1964640_west,"52.57438307,13.34770098",,52.57438307,13.34770098,90.0,Teichstr. Ecke Lindauerallee,1965618_west,['A61'],
Aroserallee,autobus,A61,1964641_west,"52.57378753,13.35197104",,52.57378753,13.35197104,90.0,Aroserallee Ecke Lindauerallee,1965619_west,['A61'],
Pankowerallee Ecke Residenzstr.,autobus,A61,1964642_west,"52.56383592,13.36428766",,,,,,,,1964897.0
Osloerstr. Ecke Schwedenstr.,autobus,A61,1964643_west,"52.55669670,13.37382769","nan, nan",,,,,,,1964872.0
Exerzierstr. Ecke Badstr.,autobus,A61,1964644_west,"52.55379747,13.37714659",,52.55379747,13.37714659,100.0,Exerzierstr. Ecke Badstr.,1965622_west,['A61'],
Pankstr. Ecke Badstr.,autobus,A61,1964645_west,"52.55227404,13.38138720",,52.55227404,13.3813872,100.0,Pankstr. Ecke Badstr.,1965623_west,['A61'],
Bhf. Gesundbrunnen,autobus,A61,1964646_west,"52.54873860,13.38774585",,,,,,,,1964128.0
Usedomerstr. Ecke Brunnenstr.,autobus,A61,1964647_west,"52.54112092,13.39378151",,52.54112092,13.39378151,100.0,Usedomerstr. Ecke Brunnenstr.,1965625_west,['A61'],
Bernauerstr. Ecke Brunnenstr.,autobus,A61,1964648_west,"52.53829557,13.39602377",,,,,,,,1964118.0
"Gartenplatz, Feldstr.",autobus,A61,1964649_west,"52.53856590,13.38400528",,52.5385659,13.38400528,90.0,Gartenplatz,1965627_west,['A61'],
Wittenau,autobus,A62,1964650_west,"52.59725578,13.33260500",,52.59725578,13.332605,90.0,"Wittenau, Cyclopstr.",1965628_west,['A62'],
Alt-Wittenau,autobus,A62,1964651_west,"52.58969313,13.33418093",,52.58969313,13.33418093,90.0,Alt-Wittenau Ecke Oranienburgerstr.,1965629_west,['A62'],
Bonhoeffer-Heim,autobus,A62,1964652_west,"52.57940413,13.33327468",,52.57940413,13.33327468,100.0,Bonhoeffer-Heim,1965630_west,['A62'],
Auguste-Viktoria-Allee,autobus,A62,1964653_west,"52.56926850,13.32980135",,,,,,,,196480.0
U-Bhf. Kurt-Schumacher-Platz,autobus,A62,1964654_west,"52.56338157,13.32719916",,,,,,,,19641294.0
Saatwinklerdamm,autobus,A62,1964655_west,"52.54802939,13.30056946",,,,,,,,19641082.0
Heckerdamm,autobus,A62,1964656_west,"52.53961523,13.29537519",,52.53961523,13.29537519,90.0,Heckerdamm Ecke Kurt-Schumacherdamm,1965634_west,['A62'],
Bhf. Jungfernheide,autobus,A62,1964657_west,"52.53013879,13.29601882",,,,,,,,1964131.0
Luisenplatz,autobus,A62,1964658_west,"52.52005409,13.29951339",,,,,,,,1964739.0
Richard-Wagner-Platz,autobus,A62,1964659_west,"52.51749099,13.30639710",,,,,,,,19641004.0
Leibnizstr. Ecke Otto-Suhr-Allee,autobus,A62,1964660_west,"52.51466736,13.31516095",,52.51466736,13.31516095,100.0,Leibnizstr. Ecke Otto-Suhr-Allee,1965638_west,['A62'],
U-Bhf. Ernst-Reuter-Platz,autobus,A62,1964661_west,"52.51164603,13.32229086",,,,,,,,19641279.0
Bhf. Zoo,autobus,A62,1964662_west,"52.50702953,13.33322012",,,,,,,,1964147.0
Marburgerstr.,autobus,A62,1964663_west,"52.50374577,13.33767470",,52.50374577,13.3376747,90.0,Marburgerstr. Ecke Tauentzstr.,1965641_west,['A62'],
Wittenbergplatz,autobus,A62,1964664_west,"52.50188939,13.34269788",,,,,,,,19641420.0
Radelandstr. Ecke Niederheideweg,autobus,A63,1964665_west,"52.56621908,13.15706778",,52.56621908,13.15706778,100.0,Radelandstr. Ecke Niederheideweg,1965643_west,['A63'],
Bötzowbahn,autobus,A63,1964666_west,"52.56094229,13.17176326",,,,,,,,1964218.0
Kisselnallee Ecke Pionierstr.,autobus,A63,1964667_west,"52.55650106,13.18867087",,,,,,,,1964606.0
Zweibrückerstr.,autobus,A63,1964668_west,"52.54677033,13.18877220",,52.54677033,13.1887722,90.0,Falkenseerchausee Ecke Zweibrückerstr.,1965645_west,['A63'],
Askanierring Ecke Falkenseerchaussee,autobus,A63,1964669_west,"52.54567997,13.19426733",,,,,,,,196475.0
Bezirksamt,autobus,A63,1964670_west,"52.54146443,13.20085016",,,,,,,,1964124.0
Rathaus Spandau,autobus,A63,1964671_west,"52.53457836,13.19949094",,,,,,,,1964979.0
Bhf. Spandau-West,autobus,A63,1964672_west,"52.53497194,13.19846033",,,,,,,,1964142.0
Staakenerstr.,autobus,A63,1964673_west,"52.53648708,13.19082357",,,,,,,,19641184.0
Hochgerichtstr. Ecke Seegefelderstr.,autobus,A63,1964674_west,"52.53843535,13.18239370",,,,,,,,1964507.0
Viersenerstr.,autobus,A63,1964675_west,"52.54020418,13.17462661",,,,,,,,19641337.0
Dyotzerstr.,autobus,A63,1964676_west,"52.54151357,13.16880676",,,,,,,,1964276.0
Leuthingerweg,autobus,A63,1964677_west,"52.54180681,13.16372710",,,,,,,,1964714.0
Strasse 393,autobus,A63,1964678_west,"52.54346134,13.15633311",,,,,,,,19641204.0
Seegefelderweg,autobus,A63,1964679_west,"52.54437753,13.15213716",,52.54437752617027,13.152137163906785,90.0,Seegefelderweg (Stadtgrenze),1965650_west,['A63'],
Bernauerstr. Ecke Wollinerstr.,autobus,A64,1964680_west,"52.53982575,13.40152299",,,,,,,,1964119.0
Demminerstr. Ecke Brunnenstr.,autobus,A64,1964681_west,"52.54111761,13.39374567",,52.54111761,13.39374567,100.0,Demminerstr. Ecke Brunnenstr.,1965652_west,['A64'],
Ramlerstr. Ecke Brunnenstr.,autobus,A64,1964682_west,"52.54710870,13.38914654",,,,,,,,1964971.0
U-Bhf. Gesundbrunnen,autobus,A64,1964683_west,"52.54866076,13.38787363",,,,,,,,19641285.0
Prinzenallee Ecke Exerzierstr.,autobus,A64,1964684_west,"52.55227906,13.38146302",,,,,,,,1964952.0
Schwedenstr. Ecke Exerzierstr.,autobus,A64,1964685_west,"52.55396009,13.37150078",,52.55396009,13.37150078,87.0,Schulstr. Ecke Exerzierstr.,1965657_west,['A64'],
Schulstr. Ecke Exerzierstr.,autobus,A64,1964686_west,"52.55396009,13.37150078",,52.55396009,13.37150078,100.0,Schulstr. Ecke Exerzierstr.,1965657_west,['A64'],
Reinickendorferstr. Ecke Schulstr.,autobus,A64,1964687_west,"52.55154135,13.36738562",,,,,,,,1964998.0
Leopoldplatz,autobus,A64,1964688_west,"52.54647397,13.35923348",,52.54647397,13.35923348,100.0,Leopoldplatz,1965659_west,['A64'],
Antwerpenerstr. Ecke Luxemburgerstr.,autobus,A64,1964689_west,"52.54411217,13.35493853",,52.54411217,13.35493853,100.0,Antwerpenerstr. Ecke Luxemburgerstr.,1965660_west,['A64'],
Virchow Krankenhaus,autobus,A64,1964690_west,"52.54371513,13.33931792",,52.54371513,13.33931792,100.0,Virchow-Krankenhaus,1965661_west,['A64'],
Seestr.,autobus,A64,1964691_west,"52.54629362,13.34397818",,,,,,,,19641150.0
Otawistr.,autobus,A64,1964692_west,"52.55252523,13.33695423",,52.55252523,13.33695423,90.0,Otawistr. Ecke Afrikanischestr.,1965663_west,['A64'],
Müllerstr. Ecke Londonerstr.,autobus,A64,1964693_west,"52.55872875,13.33740151",,,,,,,,1964822.0
Höllenderstr. Ecke Septimerstr.,autobus,A64,1964694_west,"52.56428064,13.33860259",,52.56428064,13.33860259,97.0,Holländerstr. Ecke Septimerstr.,1965665_west,['A64'],
Goebelplatz,autobus,A65,1964695_west,"52.53812718,13.27991415",,52.53812718,13.27991415,100.0,Goebelplatz,1965666_west,['A65'],
Kurt-Schumacher-Damm,autobus,A65,1964696_west,"52.53963663,13.29506456",,,,,,,,1964665.0
Jakob-Kaiser-Platz,autobus,A65,1964697_west,"52.53673970,13.29360488",,,,,,,,1964555.0
Spandauerdamm Ecke Stadtautobahn,autobus,A65,1964698_west,"52.51857668,13.28324220",,52.51857668,13.2832422,100.0,Spandauerdamm Ecke Stadtautobahn,1965669_west,['A65'],
Messedamm,autobus,A65,1964699_west,"52.50446815,13.27941210",,,,,,,,1964799.0
Rathenauplatz,autobus,A65,1964700_west,"52.49561135,13.28657375",,52.49561135,13.28657375,100.0,Rathenauplatz,1965671_west,['A65'],
Hohenzollerndamm Ecke Stadtautobahn,autobus,A65,1964701_west,"52.48792296,13.30056111",,52.48792296,13.30056111,100.0,Hohenzollerndamm Ecke Stadtautobahn,1965672_west,['A65'],
Bundesplatz,autobus,A65,1964702_west,"52.47867899,13.32860278",,,,,,,,1964209.0
Innsbruckerplatz,autobus,A65,1964703_west,"52.47854551,13.34405869",,,,,,,,1964549.0
Ebersstr. Ecke Dominicusstr.,autobus,A65,1964704_west,"52.48014768,13.35214638",,,,,,,,1964279.0
Oberlandstr. Ecke Germaniastr.,autobus,A65,1964706_west,"52.46346249,13.40208263",,52.46346249,13.40208263,100.0,Oberlandstr. Ecke Germaniastr.,1965681_west,['A65'],
Hermannstr. Ecke Silbersteinstr.,autobus,A65,1964707_west,"52.46642674,13.43196471",,52.46642674,13.43196471,98.0,Hermannstr. Ecke Silberstreinstr.,1965682_west,['A65'],
Karl-Marx-Str. Ecke Saalestr.,autobus,A65,1964708_west,"52.46972817,13.44159100",,52.46972817,13.441591,100.0,Karl-Marx-Str. Ecke Saalestr.,1965683_west,['A65'],
Schulenburgpark,autobus,A65,1964709_west,"52.46654457,13.47034123",,,,,,,,19641111.0
"Doppel-Süd, Berlepschstr.",autobus,A66,1964710_west,"52.42123797,13.22684635",,52.42123797,13.22684635,86.0,Düppel-Süd,1965685_west,['A66'],
Elsheimerstr. Ecke Berlepschstr.,autobus,A66,1964711_west,"52.42335989,13.23473134",,52.42335989,13.23473134,87.0,Fercherstr. Ecke Berlepschstr.,1965686_west,['A66'],
Andreezeile,autobus,A66,1964712_west,"52.41045731,13.26713203",,52.41045731,13.26713203,90.0,Andreezeile Ecke Teltowerdamm,1965687_west,['A66'],
Machnowerstr. Ecke Berlepschstr.,autobus,A66,1964713_west,"52.42335989,13.23473134",,52.42335989,13.23473134,87.0,Fercherstr. Ecke Berlepschstr.,1965686_west,['A66'],
Rathaus Zehlendorf,autobus,A66,1964714_west,"52.43320752,13.25953192",,,,,,,,1964985.0
Clayallee Ecke Berlinerstr.,autobus,A66,1964715_west,"52.43506128,13.26046905",,,,,,,,1964235.0
Schützallee Ecke Onkel-Tom-Str.,autobus,A66,1964716_west,"52.44062659,13.25520351",,52.44062659,13.25520351,100.0,Schützallee Ecke Onkel-Tom-Str.,1965690_west,['A66'],
U-Bhf. Onkel-Toms-Hütte,autobus,A66,1964717_west,"52.45007713,13.25127259",,52.45007713,13.25127259,100.0,U-Bhf. Onkel-Toms-Hütte,1965691_west,['A66'],
"Jerusalems-Kirche, Lindenstr.",autobus,A67,1964718_west,"52.50708066,13.39834914",,,,,,,,1964558.0
Moritzplatz,autobus,A67,1964719_west,"52.50382794,13.41018325",,52.50382794,13.41018325,100.0,Moritzplatz,1965693_west,['A67'],
Oranienplatz,autobus,A67,1964720_west,"52.50232371,13.41551013",,52.50232371,13.41551013,100.0,Oranienplatz,1965694_west,['A67'],
U-Bhf. Kottbusser Tor,autobus,A67,1964721_west,"52.49912276,13.41824117",,52.49912276,13.41824117,100.0,U-Bhf. Kottbusser Tor,1965695_west,['A67'],
Kottbusser Brücke,autobus,A67,1964722_west,"52.49603084,13.42007040",,52.49603084,13.4200704,100.0,Kottbusser Brücke,1965696_west,['A67'],
Hohenstaufenplatz,autobus,A67,1964723_west,"52.49085481,13.42342000",,,,,,,,1964518.0
Hermannplatz,autobus,A67,1964724_west,"52.48778873,13.42539348",,,,,,,,1964486.0
Reuterstr.,autobus,A67,1964725_west,"52.48654241,13.42897774",,,,,,,,19641003.0
Fuldastr.,autobus,A67,1964726_west,"52.48380251,13.43588439",,,,,,,,1964360.0
Erkstr.,autobus,A67,1964727_west,"52.48167228,13.44005205",,,,,,,,1964307.0
Hertzbergplatz,autobus,A67,1964728_west,"52.47748711,13.44859816",,,,,,,,1964495.0
Bhf. Sonnenallee,autobus,A67,1964729_west,"52.47386161,13.45587412",,,,,,,,1964141.0
Dammweg,autobus,A67,1964730_west,"52.47029083,13.46468826",,,,,,,,1964250.0
Neuköllnischeallee,autobus,A67,1964731_west,"52.46815207,13.46062059",,,,,,,,1964835.0
Am Oberhafen,autobus,A67,1964732_west,"52.46501730,13.45059418",,52.4650173,13.45059418,100.0,Am Oberhafen,1965702_west,['A67'],
U-Bhf. Grenzallee,autobus,A67,1964733_west,"52.46369510,13.44423173",,52.4636951,13.44423173,100.0,U-Bhf. Grenzallee,1965703_west,['A67'],
Onkel-Herse-Str. Ecke Buschkrugallee,autobus,A67,1964734_west,"52.44826580,13.45393194",,52.4482658,13.45393194,99.0,Onkel-Herse-Str. Eke Buschkrugallee,1965705_west,['A67'],
Parchimerallee Ecke Buschkrugallee,autobus,A67,1964735_west,"52.44508591,13.45520007",,52.44508591,13.45520007,100.0,Parchimerallee Ecke Buschkrugallee,1965706_west,['A67'],
Otto-Wels-Ring,autobus,A67,1964736_west,"52.43499737,13.45373288",,52.43499737,13.45373288,90.0,Otto-Wels-Ring Ecke Str. 454,1965707_west,['A67'],
Clayallee Ecke Königin-Luise-Str.,autobus,A68,1964737_west,"52.46044681,13.27489827",,52.46044681,13.27489827,100.0,Clayallee Ecke Königin-Luise-Str.,1965708_west,['A68'],
Thielallee/Pacelliallee,autobus,A68,1964738_west,"52.45816150,13.28707255",,,,,,,,19641254.0
U-Bhf. Dahlem-Dorf,autobus,A68,1964739_west,"52.45807070,13.28970695",,52.4580707,13.28970695,100.0,U-Bhf. Dahlem-Dorf,1965710_west,['A68'],
Arnimallee,autobus,A68,1964740_west,"52.45776572,13.29858724",,52.45776572,13.29858724,90.0,Arnimallee Ecke Königin-Luise-Str.,1965711_west,['A68'],
Botanischer Garten,autobus,A68,1964741_west,"52.45859880,13.30343606",,52.4585988,13.30343606,100.0,Botanischer Garten,1965712_west,['A68'],
Lepsiusstr.,autobus,A68,1964742_west,"52.45878275,13.31560706",,52.45878275,13.31560706,90.0,Lepsiusstr. Ecke Grunewaldstr.,1965713_west,['A68'],
Rathaus Steglitz,autobus,A68,1964743_west,"52.45563378,13.32105078",,,,,,,,1964981.0
Breitestr. Ecke Albrechtstr.,autobus,A68,1964744_west,"52.45436072,13.32829610",,52.45436072,13.3282961,100.0,Breitestr. Ecke Albrechtstr.,1965715_west,['A68'],
Bismarckstr. Ecke Bergstr.,autobus,A68,1964745_west,"52.45863794,13.33929802",,52.45863794,13.33929802,100.0,Bismarckstr. Ecke Bergstr.,1965716_west,['A68'],
Munsterdamm Ecke Bergstr.,autobus,A68,1964746_west,"52.45910801,13.34873117",,52.45910801,13.34873117,100.0,Munsterdamm Ecke Bergstr.,1965717_west,['A68'],
Alboinstr. Ecke Prellerweg,autobus,A68,1964747_west,"52.45573170,13.36992334",,,,,,,,19647.0
Attilaplatz,autobus,A68,1964748_west,"52.45590180,13.37651250",,,,,,,,196477.0
Tempehoferdamm Ecke Friedrich-Karl-Str.,autobus,A68,1964749_west,"52.45579853,13.38396054",,52.45579853,13.38396054,99.0,Tempelhoferdamm Ecke Friedrich-Karl-Str.,1965720_west,['A68'],
Kaiserin-Augusta-Str. Ecke Tempelhoferdamm,autobus,A68,1964750_west,"52.45936602,13.38446422",,52.45936602,13.38446422,90.0,Kaiserin-Augusta-Str.,1965721_west,['A68'],
Alt-Tempelhof Ecke Tempelhoferdamm,autobus,A68,1964751_west,"52.46596431,13.38558298",nan+ nan+ nan,,,,,,,196436.0
Bhf. Tempelhof,autobus,A68,1964752_west,"52.47084694,13.38563812",,,,,,,,1964143.0
Eichkamp,autobus,A69,1964753_west,"52.48991827,13.25954128",,52.48991827,13.25954128,100.0,Eichkamp,1965724_west,['A69'],
Trabenerstr.,autobus,A69,1964754_west,"52.49735494,13.28272174",,52.49735494,13.28272174,90.0,Trabenerstr. Ecke Halenseestr.,1965725_west,['A69'],
Henriettenplatz,autobus,A69,1964755_west,"52.49701780,13.29033951",,52.4970178,13.29033951,100.0,Henriettenplatz,1965726_west,['A69'],
Joachim-Friedrich-Str. Ecke Kurfürstendamm,autobus,A69,1964756_west,"52.49799091,13.29617608",,,,,,,,1964560.0
Wilmersdorferstr. Ecke Kurfürstendamm,autobus,A69,1964757_west,"52.50011662,13.30701429",,52.50011662,13.30701429,100.0,Wilmersdorferstr. Ecke Kurfürstendamm,1965728_west,['A69'],
Leibnizstr. Ecke Kurfürstendamm,autobus,A69,1964758_west,"52.50064789,13.31304055",,,,,,,,1964697.0
Bleibtreustr. Ecke Kurfürstendamm,autobus,A69,1964759_west,"52.50160348,13.31946411",,52.50160348,13.31946411,100.0,Bleibtreustr. Ecke Kurfürstendamm,1965730_west,['A69'],
Uhlandstr. Ecke Kurfürstendamm,autobus,A69,1964760_west,"52.50253243,13.32528045",,52.50253243,13.32528045,100.0,Uhlandstr. Ecke Kurfürstendamm,1965731_west,['A69'],
Joachimstalerstr. Ecke Kurfürstendamm,autobus,A69,1964761_west,"52.50384853,13.33128219",,,,,,,,1964562.0
Nürnbergerstr. Ecke Kurfürstenstr.,autobus,A69,1964762_west,"52.50512043,13.34120096",,52.50512043,13.34120096,100.0,Nürnbergerstr. Ecke Kurfürstenstr.,1965733_west,['A69'],
An Der Urania,autobus,A69,1964763_west,"52.50313264,13.34990933",,52.50313264,13.34990933,100.0,An der Urania,1965734_west,['A69'],
Lützowplatz,autobus,A69,1964764_west,"52.50502902,13.35182287",,52.50502902,13.35182287,100.0,Lützowplatz,1965735_west,['A69'],
Tiergartenstr.,autobus,A69,1964765_west,"52.50956693,13.35136665",,52.50956693,13.35136665,90.0,Tiergartenstr. Ecke Klingelhöferstr.,1965736_west,['A69'],
Großer Stern,autobus,A69,1964766_west,"52.51452472,13.34993319",,52.51452472,13.34993319,100.0,Großer Stern,1965737_west,['A69'],
Kongreßhalle,autobus,A69,1964767_west,"52.51763253,13.36319698",,52.51763253,13.36319698,100.0,Kongreßhalle,1965738_west,['A69'],
Moltkebrücke,autobus,A69,1964768_west,"52.52163755,13.36922927",,52.52163755,13.36922927,100.0,Moltkebrücke,1965740_west,['A69'],
Bhf. Wollankstr.,autobus,A70,1964769_west,"52.56453849,13.39342027",,,,,,,,1964146.0
Osloerstr.,autobus,A70,1964770_west,"52.55587670,13.38424421",,,,,,,,1964870.0
Badstr.,autobus,A70,1964771_west,"52.55228041,13.38139428",,,,,,,,196481.0
Wiesenstr.,autobus,A70,1964772_west,"52.54760177,13.37388377",,52.54760177,13.37388377,90.0,Wiesenstr. Ecke Pankstr.,1965745_west,['A70'],
Ravenestr. Ecke Reinickdorferstr.,autobus,A70,1964773_west,"52.54285307,13.36977037",,52.54285307,13.36977037,95.0,Ravenéstr. Ecke Reinickendorferstr.,1965746_west,['A70'],
Weddingplatz,autobus,A70,1964774_west,"52.54113612,13.36850103",,,,,,,,19641369.0
Am Nordhafen,autobus,A70,1964775_west,"52.53868316,13.36324841",,,,,,,,196451.0
Rathenowerstr.,autobus,A70,1964776_west,"52.52673251,13.35527561",,,,,,,,1964987.0
Turmstr./Rathenowerstr.,autobus,A70,1964777_west,"52.52677998,13.35518347",,,,,,,,19641273.0
Krankenhaus Moabit,autobus,A70,1964778_west,"52.52631364,13.34776241",,52.52631364,13.34776241,100.0,Krankenhaus Moabit,1965751_west,['A70'],
Stromstr.,autobus,A70,1964779_west,"52.52631690,13.34314632",,,,,,,,19641213.0
Rathaus Tiergarten,autobus,A70,1964780_west,"52.52649086,13.33835898",,52.52649086,13.33835898,100.0,Rathaus Tiergarten,1965753_west,['A70'],
Waldstr./Gotzkowskystr.,autobus,A70,1964781_west,"52.52721622,13.33052451",,,,,,,,19641352.0
Reuchlinstr.,autobus,A70,1964782_west,"52.52780798,13.32484278",,,,,,,,19641002.0
Bhf. Wilhelmsruh,autobus,A71,1964784_west,"52.58102922,13.36363507",,,,,,,,1964145.0
Lindauerstr.,autobus,A71,1964785_west,"52.57337851,13.35902628",,,,,,,,1964725.0
Emmentalerstr.,autobus,A71,1964786_west,"52.56753547,13.35124017",,,,,,,,1964301.0
"Schäfersee, Pankowerallee",autobus,A71,1964787_west,"52.56412403,13.36412797",,52.56412403,13.36412797,90.0,Schäfersee,1965760_west,['A71'],
Provinzstr./Pankowerallee,autobus,A71,1964788_west,"52.56468577,13.37805639",,52.56468577,13.37805639,95.0,Provinzstr. Ecke Pankowerallee,1965762_west,['A71'],
Ritterlandweg,autobus,A71,1964789_west,"52.56075604,13.37703412",,52.56075604,13.37703412,90.0,Ritterlandweg Ecke Soldinerstr.,1965763_west,['A71'],
Prinzenallee/Soldinerstr.,autobus,A71,1964790_west,"52.55868935,13.38625549",,52.55868935,13.38625549,95.0,Prinzenallee Ecke Soldinerstr.,1965764_west,['A71'],
Osloerstr.,autobus,A71,1964791_west,"52.55587670,13.38424421",,,,,,,,1964870.0
Badstr./Prinzenallee,autobus,A71,1964792_west,"52.55231378,13.38141317",,,,,,,,196482.0
Bhf. Gesundbrunnen,autobus,A71,1964793_west,"52.54873860,13.38774585",,,,,,,,1964128.0
Ramlerstr.,autobus,A71,1964794_west,"52.54710870,13.38914654",,52.5471087,13.38914654,90.0,Ramlerstr. Ecke Brunnenstr.,1965768_west,['A71'],
Rügenerstr.,autobus,A71,1964795_west,"52.54479128,13.39106762",,,,,,,,19641039.0
Usedomerstr.,autobus,A71,1964796_west,"52.54112050,13.39376957",,,,,,,,19641331.0
Bernauerstr. Ecke Brunnenstr.,autobus,A71,1964797_west,"52.53825329,13.39598562",,52.53825329,13.39598562,100.0,Bernauerstr. Ecke Brunnenstr.,1965771_west,['A71'],
Bernauerstr. Ecke Wollinerstr.,autobus,A71,1964798_west,"52.53982575,13.40152299",,,,,,,,1964119.0
Alt-Reinickendorf Ecke Rödernallee,autobus,A72,1964799_west,"52.57586051,13.34776598",,,,,,,,196434.0
Lindauerstr. Ecke Residenzstr.,autobus,A72,1964800_west,"52.57332806,13.35899004",,,,,,,,1964726.0
Pankowerallee Ecke Residenzstr.,autobus,A72,1964801_west,"52.56383592,13.36428766",,,,,,,,1964897.0
Luise-Schröder-Platz,autobus,A72,1964802_west,"52.55757020,13.36547078",,,,,,,,1964737.0
Nauenerplatz,autobus,A72,1964803_west,"52.55155262,13.36737073",,52.55155262,13.36737073,100.0,Nauenerplatz,1965777_west,['A72'],
Weddingplatz,autobus,A72,1964804_west,"52.54113612,13.36850103",,,,,,,,19641369.0
Rathenowerstr. Ecke Perlebergerstr.,autobus,A72,1964805_west,"52.53247559,13.35058625",,52.53247559,13.35058625,100.0,Rathenowerstr. Ecke Perlebergerstr.,1965781_west,['A72'],
Turmstr. Ecke Stromstr.,autobus,A72,1964806_west,"52.52631574,13.34320006",,52.52631574,13.34320006,100.0,Turmstr. Ecke Stromstr.,1965783_west,['A72'],
Waldstr. Ecke Turmstr.,autobus,A72,1964807_west,"52.52720084,13.33052493",,,,,,,,19641351.0
Wiebestr. Ecke Kaiserin-Augusta-Allee,autobus,A72,1964808_west,"52.52580214,13.31797917",,,,,,,,19641388.0
Tauroggenerstr. Ecke Osnabrückerstr.,autobus,A72,1964809_west,"52.52583874,13.30185206",,,,,,,,19641235.0
Landgericht,autobus,A72,1964810_west,"52.52698926,13.29716765",,52.52698926,13.29716765,100.0,Landgericht,1965787_west,['A72'],
Jakob-Kaiser-Platz,autobus,A72,1964811_west,"52.53673970,13.29360488",,,,,,,,1964555.0
Quellweg Ecke Nonnendammallee,autobus,A72,1964812_west,"52.53666858,13.26843643",,,,,,,,1964963.0
Paulsternstr. Ecke Gartenfelderstr.,autobus,A72,1964813_west,"52.54412196,13.24701046",,,,,,,,1964911.0
Gartenfeld,autobus,A72,1964814_west,"52.54719055,13.24779333",,52.54719055,13.24779333,100.0,Gartenfeld,1965791_west,['A72'],
Bhf. Zoo,autobus,A73,1964815_west,"52.50702953,13.33322012",,,,,,,,1964147.0
Wittenbergplatz,autobus,A73,1964816_west,"52.50188939,13.34269788",,,,,,,,19641420.0
Motzstr.,autobus,A73,1964817_west,"52.49717708,13.34607592",,,,,,,,1964812.0
Grunewaldstr.,autobus,A73,1964818_west,"52.48907804,13.34500025",,,,,,,,1964418.0
Rathaus Schöneberg,autobus,A73,1964819_west,"52.48515474,13.34508660",,,,,,,,1964978.0
Hauptstr. Ecke Dominicusstr.,autobus,A73,1964820_west,"52.48178378,13.34841821",nan+ nan,,,,,,,1964461.0
Ebersstr. Ecke Dominicusstr.,autobus,A73,1964821_west,"52.48014768,13.35214638",,52.48014768,13.35214638,100.0,Ebersstr. Ecke Dominicusstr.,1965799_west,['A73'],
Suadicanistr. Ecke Sachsendamm,autobus,A73,1964822_west,"52.47327903,13.36555013",,,,,,,,19641223.0
Tempelhoferdamm Ecke Alt-Tempelhof,autobus,A73,1964823_west,"52.46591642,13.38560642",,52.46591642,13.38560642,100.0,Tempelhoferdamm Ecke Alt-Tempelhof,1965802_west,['A73'],
Rohdestr. Ecke Germaniastr.,autobus,A73,1964824_west,"52.46205027,13.40440412",,52.46205027,13.40440412,100.0,Rohdestr. Ecke Germaniastr.,1965803_west,['A73'],
Gottlieb-Dunkel-Str. Ecke Tempelhoferweg,autobus,A73,1964825_west,"52.46048678,13.41798392",,,,,,,,1964395.0
Britzerdamm Ecke Gradestr.,autobus,A73,1964826_west,"52.45263536,13.43855969",,52.45263536,13.43855969,100.0,Britzerdamm Ecke Gradestr.,1965805_west,['A73'],
Buschkrug Alle Ecke Blaschko-Allee,autobus,A73,1964827_west,"52.45254400,13.45216035",,,,,,,,1964216.0
Königin-Elisabeth-Str.,autobus,A74,1964828_west,"52.51839539,13.28021270",,52.51839539,13.2802127,90.0,Spandauerdamm Ecke Königin-Elisabeth-Str.,1965809_west,['A74'],
Spandauerdamm,autobus,A74,1964829_west,"52.51838421,13.28007696",,,,,,,,19641173.0
Klausenerplatz,autobus,A74,1964830_west,"52.51924427,13.29194874",,52.51924427,13.29194874,100.0,Klausenerplatz,1965810_west,['A74'],
Schlossstr. Ecke Seelingstr.,autobus,A74,1964831_west,"52.51566300,13.29654868",,52.515663,13.29654868,96.0,Schloßstr. Ecke Seelingstr.,1965811_west,['A74'],
Sophie-Charlotten-Platz,autobus,A74,1964832_west,"52.51083333,13.29666667",,52.51083333,13.29666667,98.0,Sophie-Charlotte-Platz,1965812_west,['A74'],
Kaiser-Friedrich-Str.,autobus,A74,1964833_west,"52.50678591,13.30232482",,52.50678591,13.30232482,90.0,Kaiser-Friedrich-Str. Ecke Kantstr.,1965813_west,['A74'],
Stuttgarterplatz,autobus,A74,1964834_west,"52.50551611,13.30292330",,52.50551611,13.3029233,100.0,Stuttgarterplatz,1965814_west,['A74'],
Kurfürstendamm Ecke Wilmersdorferstr.,autobus,A74,1964835_west,"52.50000560,13.30703748",,,,,,,,1964659.0
Fehrbellinerplatz,autobus,A74,1964836_west,"52.49040639,13.31420422",,52.49040639,13.31420422,100.0,Fehrbellinerplatz,1965816_west,['A74'],
Bundesallee Ecke Berlinerstr.,autobus,A74,1964837_west,"52.48732100,13.33101283",,,,,,,,1964206.0
Martin-Luther-Str.,autobus,A74,1964838_west,"52.48902652,13.34500524",,,,,,,,1964787.0
Rathaus Schöneberg,autobus,A74,1964839_west,"52.48515474,13.34508660",,52.48515474,13.3450866,100.0,Rathaus Schöneberg,1965819_west,['A74'],
Suadicanistr. Ecke Sachsendamm,autobus,A74,1964841_west,"52.47327903,13.36555013",,,,,,,,19641223.0
Egelingzeile,autobus,A74,1964842_west,"52.46359357,13.37006890",,52.46359357,13.3700689,100.0,Egelingzeile,1965822_west,['A74'],
Eythstr.,autobus,A74,1964843_west,"52.45972284,13.36642830",,52.45972284,13.3664283,90.0,"Lindenhof, Eythstr.",1965823_west,['A74'],
Munsterdamm Ecke Steglitzerdamm,autobus,A75,1964844_west,"52.45000526,13.34672202",,52.45000526,13.34672202,100.0,Munsterdamm Ecke Steglitzerdamm,1965824_west,['A75'],
Bismarckstr. Ecke Bergstr.,autobus,A75,1964845_west,"52.45863794,13.33929802",,,,,,,,1964156.0
Lauenburgerplatz,autobus,A75,1964846_west,"52.46159988,13.33932524",,52.46159988,13.33932524,100.0,Lauenburgerplatz,1965826_west,['A75'],
Kaisereiche,autobus,A75,1964847_west,"52.46896806,13.33261489",,52.46896806,13.33261489,100.0,Kaisereiche,1965827_west,['A75'],
Innsbruckerplatz,autobus,A75,1964848_west,"52.47854551,13.34405869",,,,,,,,1964549.0
Dominicusstr. Ecke Hauptstr.,autobus,A75,1964849_west,"52.48180072,13.34837800",,,,,,,,1964266.0
Kaiser-Wilhelm-Platz,autobus,A75,1964850_west,"52.48632925,13.35655627",,,,,,,,1964575.0
U-Bhf. Bülowstr.,autobus,A75,1964851_west,"52.49787470,13.36212460",,52.4978747,13.3621246,100.0,U-Bhf. Bülowstr.,1965831_west,['A75'],
Am Karlsbad,autobus,A75,1964852_west,"52.50551053,13.36801582",,52.50551053,13.36801582,100.0,Am Karlsbad,1965832_west,['A75'],
Askanischerplatz,autobus,A75,1964853_west,"52.50447897,13.38229547",,52.50447897,13.38229547,100.0,Askanischerplatz,1965833_west,['A75'],
U-Bhf. Kochstr.,autobus,A75,1964854_west,"52.50669824,13.39050322",,52.50669824,13.39050322,100.0,U-Bhf. Kochstr.,1965834_west,['A75'],
Oranienstr.,autobus,A75,1964855_west,"52.50709133,13.39827714",,52.50709133,13.39827714,90.0,Oranienstr. Ecke Kochstr.,1965835_west,['A75'],
U-Bhf. Moritzplatz,autobus,A75,1964856_west,"52.50366900,13.41055755",,52.503669,13.41055755,100.0,U-Bhf. Moritzplatz,1965836_west,['A75'],
Spreewaldplatz,autobus,A75,1964857_west,"52.49746663,13.43173833",,52.49746663,13.43173833,100.0,Spreewaldplatz,1965837_west,['A75'],
Sonnenallee Ecke Pannierstr.,autobus,A75,1964858_west,"52.48609620,13.43021786",,52.4860962,13.43021786,100.0,Sonnenallee Ecke Pannierstr.,1965838_west,['A75'],
Hermannplatz,autobus,A75,1964859_west,"52.48778873,13.42539348",,52.48778873,13.42539348,100.0,Hermannplatz,1965839_west,['A75'],
Blohmstr. Ecke Wünsdorferstr.,autobus,A76,1964860_west,"52.38869310,13.39432897",,,,,,,,1964165.0
Bhf. Lichtenrade,autobus,A76,1964861_west,"52.38668330,13.39550693",,,,,,,,1964134.0
Marienfelderstr. Ecke Lichtenraderdamm,autobus,A76,1964862_west,"52.39246195,13.40672267",,52.39246195,13.40672267,100.0,Marienfelderstr. Ecke Lichtenraderdamm,1965842_west,['A76'],
Potsdamerstr. Ecke Lichtenraderdamm,autobus,A76,1964863_west,"52.40438189,13.40614479",,,,,,,,1964931.0
Buckowerchaussee Ecke Lichtenraderdamm,autobus,A76,1964864_west,"52.41457113,13.40120395",,,,,,,,1964201.0
Rennbahn,autobus,A76,1964866_west,"52.43151989,13.39150823",,,,,,,,19641000.0
Alt-Mariendorf Ecke Mariendorferdamm,autobus,A76,1964867_west,"52.44019477,13.38731753","nan, nan",,,,,,,196429.0
Kaiserstr. Ecke Lichtenraderdamm,autobus,A76,1964868_west,"52.44557090,13.38575692",,,,,,,,1964579.0
Burgemeisterstr. Ecke Tempelhoferdamm,autobus,A76,1964869_west,"52.45701293,13.38391541",,,,,,,,1964211.0
Alt-Tempelhof Ecke Tempelhoferdamm,autobus,A76,1964870_west,"52.46596431,13.38558298",nan+ nan+ nan,,,,,,,196436.0
U-Bhf. Tempelhof,autobus,A76,1964871_west,"52.46987510,13.38558706",,,,,,,,19641314.0
Thuyring Ecke Tempelhoferdamm,autobus,A76,1964872_west,"52.47484354,13.38575516",,,,,,,,19641258.0
Bayernring Ecke Tempelhoferdamm,autobus,A76,1964873_west,"52.48163487,13.38585840",,,,,,,,196497.0
Daimlerstr.,autobus,A77,1964875_west,"52.42632723,13.37438167",,52.42632723,13.37438167,90.0,Großbeerenstr. Ecke Daimlerstr.,1965854_west,['A77'],
Bhf. Marienfelde,autobus,A77,1964876_west,"52.42342247,13.37466418",,,,,,,,1964137.0
Körtingstr.,autobus,A77,1964877_west,"52.43481353,13.37831564",,52.43481353,13.37831564,90.0,Körtingstr. Ecke Großbeerenstr.,1965855_west,['A77'],
Mariendorferdamm,autobus,A77,1964878_west,"52.44560447,13.38581655",,,,,,,,1964772.0
Kaiserstr. Ecke Mariendorferdamm,autobus,A77,1964879_west,"52.44557177,13.38576291",nan+ nan,,,,,,,1964580.0
Markgrafenstr. Ecke Mariendorferdamm,autobus,A77,1964880_west,"52.45018182,13.38492769",,52.45018182,13.38492769,100.0,Markgrafenstr. Ecke Mariendorferdamm,1965858_west,['A77'],
Burgemeisterstr. Ecke Tempelhoferdamm,autobus,A77,1964881_west,"52.45702094,13.38394001",,52.45702094,13.38394001,100.0,Burgemeisterstr. Ecke Tempelhoferdamm,1965859_west,['A77'],
Rathaus Tempelhof,autobus,A77,1964882_west,"52.46300094,13.38534224",,52.46300094,13.38534224,100.0,Rathaus Tempelhof,1965860_west,['A77'],
Alt-Tempelhof Ecke Tempelhoferdamm,autobus,A77,1964883_west,"52.46596431,13.38558298",nan+ nan+ nan,,,,,,,196436.0
U-Bhf. Tempelhof,autobus,A77,1964884_west,"52.46987510,13.38558706",,52.4698751,13.38558706,100.0,U-Bhf. Tempelhof,1965862_west,['A77'],
Thuyring Ecke Tempelhoferdamm,autobus,A77,1964885_west,"52.47484354,13.38575516",,,,,,,,19641258.0
Paradestr. Ecke Tempelhoferdamm,autobus,A77,1964886_west,"52.47819508,13.38582477",,52.47819508,13.38582477,100.0,Paradestr. Ecke Tempelhoferdamm,1965864_west,['A77'],
Bayernring Ecke Tempelhoferdamm,autobus,A77,1964887_west,"52.48163487,13.38585840",,,,,,,,196497.0
Platz Der Luftbrücke,autobus,A77,1964888_west,"52.48500811,13.38598451",,52.48500811,13.38598451,100.0,Platz der Luftbrücke,1965866_west,['A77'],
Tropfsteinweg Ecke Quarz-Weg,autobus,A78,1964889_west,"52.42357623,13.41467087",,52.42357623,13.41467087,98.0,Tropfsteinweg Ecke Quarzweg,1965867_west,['A78'],
Tauernallee Ecke Grünsteinweg,autobus,A78,1964890_west,"52.42778804,13.40526139",,,,,,,,19641232.0
Mariendorferdamm Ecke Tauernallee,autobus,A78,1964891_west,"52.42330592,13.39614258",,52.42330592,13.39614258,100.0,Mariendorferdamm Ecke Tauernallee,1965869_west,['A78'],
Rennbahn,autobus,A78,1964892_west,"52.43151989,13.39150823",,52.43151989,13.39150823,100.0,Rennbahn,1965870_west,['A78'],
Alt-Mariendorf Ecke Mariendorferdamm,autobus,A78,1964893_west,"52.44019477,13.38731753","nan, nan",,,,,,,196429.0
Kaiserstr. Ecke Mariendorferdamm,autobus,A78,1964894_west,"52.44556286,13.38580057",,52.44556286,13.38580057,100.0,Kaiserstr. Ecke Mariendorferdamm,1965872_west,['A78'],
Burgemeisterstr. Ecke Tempelhoferdamm,autobus,A78,1964895_west,"52.45701293,13.38391541",,,,,,,,1964211.0
Alt-Tempelhof Ecke Tempelhoferdamm,autobus,A78,1964896_west,"52.46601300,13.38558828",,52.466013,13.38558828,100.0,Alt-Tempelhof Ecke Tempelhoferdamm,1965874_west,['A78'],
U-Bhf. Tempelhof,autobus,A78,1964897_west,"52.46987510,13.38558706",,,,,,,,19641314.0
Thuyring Ecke Tempelhofer,autobus,A78,1964898_west,"52.47485480,13.38574214",,52.4748548,13.38574214,93.0,Thuyring Ecke Tempelhoferdamm,1965876_west,['A78'],
Bayernring Ecke Tempelhofer,autobus,A78,1964899_west,"52.48160551,13.38587377",,52.48160551,13.38587377,93.0,Bayernring Ecke Tempelhoferdamm,1965877_west,['A78'],
Leopoldplatz,autobus,A79,1964901_west,"52.54647397,13.35923348",,,,,,,,1964708.0
Nazarethkirchstr. Ecke Turinerstr.,autobus,A79,1964902_west,"52.54855700,13.36054430",,,,,,,,1964826.0
Prinz-Eugen-Str.,autobus,A79,1964903_west,"52.54883041,13.36301712",,,,,,,,1964950.0
Reinickendorferstr. Ecke Schulstr.,autobus,A79,1964904_west,"52.55156918,13.36734986",,52.55156918,13.36734986,100.0,Reinickendorferstr. Ecke Schulstr.,1965880_west,['A79'],
Exerzierstr. Ecke Schulstr.,autobus,A79,1964905_west,"52.55394745,13.37151585",,,,,,,,1964312.0
Osloerstr. Ecke Schwedenstr.,autobus,A79,1964906_west,"52.55665602,13.37386300",,52.55665602,13.373863,100.0,Osloerstr. Ecke Schwedenstr.,1965881_west,['A79'],
Ritterlandweg,autobus,A79,1964907_west,"52.56036400,13.36907950",,,,,,,,19641015.0
Pankowerallee Ecke Markstr.,autobus,A79,1964908_west,"52.56383533,13.36427946",,,,,,,,1964896.0
Letteplatz,autobus,A79,1964909_west,"52.56412189,13.37110479",,,,,,,,1964713.0
Schwabstr. Ecke Reginhardstr.,autobus,A79,1964910_west,"52.56575232,13.37314864",,,,,,,,19641117.0
Hausotterstr. Ecke Reginhardstr.,autobus,A79,1964911_west,"52.56824258,13.37256899",,52.56824258,13.37256899,100.0,Hausotterstr. Ecke Reginhardstr.,1965884_west,['A79'],
Raschdorffstr. Ecke Reginhardstr.,autobus,A79,1964912_west,"52.57027526,13.36991258",,,,,,,,1964974.0
Sommerstr. Ecke Klemkestr.,autobus,A79,1964913_west,"52.57476725,13.37353054",,52.57476725,13.37353054,98.0,Somerstr. Ecke Klemkestr.,1965886_west,['A79'],
"Spandau, Breitestr.",autobus,A80,1964914_west,"52.53613707,13.20442057",,,,,,,,19641170.0
Rathaus Spandau,autobus,A80,1964915_west,"52.53457836,13.19949094",,,,,,,,1964979.0
Seegefelderstr. Ecke Carl-Schurz-Str.,autobus,A80,1964916_west,"52.53470102,13.19952530",,,,,,,,19641145.0
Klosterstr. Ecke Carl-Schurz-Str.,autobus,A80,1964917_west,"52.53290603,13.19843579",,,,,,,,1964619.0
Nauenerstr. Ecke Brunsbüttelerdamm,autobus,A80,1964918_west,"52.53406507,13.18169672",,52.53406507,13.18169672,100.0,Nauenerstr. Ecke Brunsbüttelerdamm,1965889_west,['A80'],
Egelpfuhlstr.,autobus,A80,1964919_west,"52.53353493,13.16940853",,52.53353493,13.16940853,90.0,Egelpfuhlstr. Ecke Brunsbüttelerdamm,1965890_west,['A80'],
Magistratsweg Ecke Brunsbüttelerdamm,autobus,A80,1964920_west,"52.53310161,13.15797587",,52.53310161,13.15797587,100.0,Magistratsweg Ecke Brunsbüttelerdamm,1965891_west,['A80'],
Nennhauserdamm Ecke Brunsbüttelerdamm,autobus,A80,1964921_west,"52.53251629,13.14156536",,52.53251629,13.14156536,100.0,Nennhauserdamm Ecke Brunsbüttelerdamm,1965892_west,['A80'],
"Bhf. Zoo, Hardenbergplatz",autobus,A81,1964922_west,"52.50696177,13.33308096",,,,,,,,1964149.0
U-Bhf. Spichernstr.,autobus,A81,1964923_west,"52.49666209,13.33063500","nan, nan",,,,,,,19641310.0
Berlinerstr. Ecke Joachimstalerstr.,autobus,A81,1964924_west,"52.48734759,13.33099029",,,,,,,,1964112.0
Bundesplatz,autobus,A81,1964925_west,"52.47867899,13.32860278",,,,,,,,1964209.0
Schlossstr. Ecke Feuerbachstr.,autobus,A81,1964926_west,"52.46311733,13.32672483",,52.46311733,13.32672483,96.0,Schloßstr. Ecke Feuerbachstr.,1965898_west,['A81'],
Feuerbachstr. Ecke Bismarckstr.,autobus,A81,1964927_west,"52.46451344,13.33892787",,52.46451344,13.33892787,100.0,Feuerbachstr. Ecke Bismarckstr.,1965899_west,['A81'],
Bergstr. Ecke Bismarckstr.,autobus,A81,1964928_west,"52.45863817,13.33931462",nan+ nan,,,,,,,1964105.0
Bismarckstr. Ecke Steglitzerdamm,autobus,A81,1964929_west,"52.45103871,13.33794952","nan, nan",,,,,,,1964157.0
"Lankwitz, Kirche",autobus,A81,1964930_west,"52.43629187,13.34574539",,52.43629187,13.34574539,100.0,"Lankwitz, Kirche",1965902_west,['A81'],
"Alt-Lankwitz, Dorfaue",autobus,A81,1964931_west,"52.43908383,13.35441775",,52.43908383,13.35441775,98.0,Alt-Lankwitz Dorfaue,1965903_west,['A81'],
Alt-Mariendorf Ecke Mariendorferdamm,autobus,A81,1964932_west,"52.44019477,13.38731753","nan, nan",,,,,,,196429.0
Imbrosweg Ecke Goldenes Horn,autobus,A81,1964933_west,"52.44211197,13.40451586",,,,,,,,1964547.0
Imbrosweg Ecke Dardanellenweg,autobus,A81,1964934_west,"52.44483855,13.41082837",,,,,,,,1964546.0
Nettelbeckplatz,autobus,A83,1964935_west,"52.54464512,13.37015454",,,,,,,,1964829.0
Weddingplatz,autobus,A83,1964936_west,"52.54113612,13.36850103",,,,,,,,19641369.0
Heidestr. Ecke Fennstr.,autobus,A83,1964937_west,"52.53731772,13.36029323",,52.53731772,13.36029323,100.0,Heidestr. Ecke Fennstr.,1965909_west,['A83'],
Washingtonplatz,autobus,A83,1964938_west,"52.52421576,13.37059958",,52.52421576,13.37059958,100.0,Washingtonplatz,1965910_west,['A83'],
Potsdamerstr. Ecke Verbindungsstr.,autobus,A83,1964939_west,"52.50917801,13.37176335",,52.50917801,13.37176335,95.0,Potsdamerstr. Ecke Neue Verbindungsstr.,1965911_west,['A83'],
Reichpietsch-Ufer Ecke Potsdamerstr.,autobus,A83,1964940_west,"52.50626666,13.36847203",,52.50626666,13.36847203,100.0,Reichpietsch Ufer Ecke Potsdamerstr.,1965912_west,['A83'],
Lützowstr. Ecke Potsdamerstr.,autobus,A83,1964941_west,"52.50309427,13.36566995",,52.50309427,13.36566995,100.0,Lützowstr. Ecke Potsdamerstr.,1965914_west,['A83'],
Bülowstr. Ecke Potsdamerstr.,autobus,A83,1964942_west,"52.49780937,13.36202312",,52.49780937,13.36202312,100.0,Bülowstr. Ecke Potsdamerstr.,1965915_west,['A83'],
Kaiser-Wilhelm-Platz,autobus,A83,1964943_west,"52.48632925,13.35655627",,52.48632925,13.35655627,100.0,Kaiser-Wilhelm-Platz,1965917_west,['A83'],
Innsbruckerplatz,autobus,A83,1964944_west,"52.47854551,13.34405869",,52.47854551,13.34405869,100.0,Innsbruckerplatz,1965920_west,['A83'],
Grazerplatz,autobus,A83,1964945_west,"52.46763699,13.34756581",,,,,,,,1964399.0
Bergstr. Ecke Thorwaldstr.,autobus,A83,1964946_west,"52.45916615,13.34768499",,52.45916615,13.34768499,94.0,Bergstr. Ecke Thorwaldsenstr.,1965922_west,['A83'],
Steglitzerdamm Ecke Munsterdamm,autobus,A83,1964947_west,"52.45000608,13.34672706",,52.45000608,13.34672706,100.0,Steglitzerdamm Ecke Munsterdamm,1965923_west,['A83'],
"Lankwitz, Kirche",autobus,A83,1964948_west,"52.43629187,13.34574539",,,,,,,,1964691.0
Malteserstr. Ecke Paul-Schneider-Str.,autobus,A83,1964949_west,"52.43332587,13.35301874",,,,,,,,1964764.0
Preysingstr. Ecke Malteserstr.,autobus,A83,1964950_west,"52.42459385,13.35671085",,52.42459385,13.35671085,92.0,Preysingstresse Ecke Malteserstr.,1965928_west,['A83'],
Belßstr.,autobus,A83,1964951_west,"52.42825963,13.36268315",,52.42825963,13.36268315,90.0,Belßstr. Ecke Wichurastr.,1965929_west,['A83'],
Ringstr. Ecke Pestalozziplatz,autobus,A84,1964952_west,"52.43272276,13.28707174",,52.43272276,13.28707174,89.0,Ringstr. Ecke Pestalozzistr.,1965930_west,['A84'],
Kadettenweg Ecke Finckensteinallee,autobus,A84,1964953_west,"52.43244907,13.29922143",,52.43244907,13.29922143,100.0,Kadettenweg Ecke Finckensteinallee,1965931_west,['A84'],
Wiesenbaude,autobus,A84,1964954_west,"52.43049524,13.31180861",,52.43049524,13.31180861,100.0,Wiesenbaude,1965932_west,['A84'],
Krahmerstr. Ecke Hindenburgdamm,autobus,A84,1964955_west,"52.43785561,13.31567297",,52.43785561,13.31567297,100.0,Krahmerstr. Ecke Hindenburgdamm,1965933_west,['A84'],
Klingsorstr. Ecke Hindenburgdamm,autobus,A84,1964956_west,"52.44312155,13.31569756",,52.44312155,13.31569756,97.0,Klingsorstr. Ecke Hindenburgerdamm,1965934_west,['A84'],
Händelplatz,autobus,A84,1964957_west,"52.45066566,13.31587443",,,,,,,,1964539.0
Schlossstr. Ecke Albrechtstr.,autobus,A84,1964958_west,"52.45690701,13.32064225",,,,,,,,19641102.0
Rathaus Steglitz,autobus,A84,1964959_west,"52.45563378,13.32105078",,,,,,,,1964981.0
Florastr.,autobus,A84,1964960_west,"52.46144282,13.32517793",,52.46144282,13.32517793,90.0,Florastr. Ecke Schloßstr.,1965939_west,['A84'],
Bundesallee Ecke Rheinstr.,autobus,A84,1964961_west,"52.46493424,13.32843851",,52.46493424,13.32843851,100.0,Bundesallee Ecke Rheinstr.,1965940_west,['A84'],
Kaisereiche,autobus,A84,1964962_west,"52.46896806,13.33261489",,,,,,,,1964577.0
Innsbruckerplatz,autobus,A84,1964963_west,"52.47854551,13.34405869",,,,,,,,1964549.0
Martin-Luther-Str. Ecke Hauptstr.,autobus,A84,1964964_west,"52.47919735,13.34495863",,,,,,,,1964789.0
Dominicusstr. Ecke Hauptstr.,autobus,A84,1964965_west,"52.48180072,13.34837800",,52.48180072,13.348378,100.0,Dominicusstr. Ecke Hauptstr.,1965944_west,['A84'],
Kaiser-Wilhelm-Platz,autobus,A84,1964966_west,"52.48632925,13.35655627",,,,,,,,1964575.0
Gotenstr. Ecke Torgauerstr.,autobus,A84,1964967_west,"52.47978047,13.36019236",,52.47978047,13.36019236,100.0,Gotenstr. Ecke Torgauerstr.,1965946_west,['A84'],
"Bhf. Zoo, Hardenbergplatz",autobus,A85,1964968_west,"52.50696177,13.33308096",,,,,,,,1964149.0
Wittenbergplatz,autobus,A85,1964969_west,"52.50188939,13.34269788",,52.50188939,13.34269788,100.0,Wittenbergplatz,1965948_west,['A85'],
Grunewaldstr. Ecke Martin-Luther-Str.,autobus,A85,1964970_west,"52.48905218,13.34501538",,52.48905218,13.34501538,100.0,Grunewaldstr. Ecke Martin-Luther-Str.,1965950_west,['A85'],
Bundesallee Ecke Berlinerstr.,autobus,A85,1964971_west,"52.48732100,13.33101283",,,,,,,,1964206.0
Bundesplatz,autobus,A85,1964972_west,"52.47867899,13.32860278",,,,,,,,1964209.0
Friedrich-Wilhelm-Platz,autobus,A85,1964973_west,"52.47128806,13.32836213",,,,,,,,1964351.0
Schloßstr. Ecke Bundesallee,autobus,A85,1964974_west,"52.46494077,13.32851361",,,,,,,,19641107.0
Rathaus Steglitz,autobus,A85,1964975_west,"52.45563378,13.32105078",,52.45563378,13.32105078,100.0,Rathaus Steglitz,1965958_west,['A85'],
Hindenburgdamm Ecke Gardeschützweg,autobus,A85,1964976_west,"52.44955389,13.31529961",,,,,,,,1964502.0
Händelplatz,autobus,A85,1964977_west,"52.45066566,13.31587443",,52.45066566,13.31587443,100.0,Händelplatz,1965960_west,['A85'],
Moltkestr.,autobus,A85,1964978_west,"52.44677332,13.30673860",,52.44677332,13.3067386,90.0,Moltkestr. Ecke Gardeschützenweg,1965961_west,['A85'],
Drakestr. Ecke Ringstr.,autobus,A85,1964979_west,"52.43979507,13.30019117",,,,,,,,1964272.0
Rittberg-Krankenhaus,autobus,A85,1964980_west,"52.42987952,13.28896146",,52.42987952,13.28896146,100.0,Rittberg-Krankenhaus,1965963_west,['A85'],
Thunerplatz,autobus,A85,1964981_west,"52.42375897,13.29618487",,52.42375897,13.29618487,100.0,Thunerplatz,1965964_west,['A85'],
Ostpreußendamm Ecke Dorstenerstr.,autobus,A85,1964982_west,"52.41274954,13.30051775",,,,,,,,1964881.0
Holtheimerweg,autobus,A85,1964983_west,"52.40993905,13.30336414",,52.40993905,13.30336414,90.0,Holtheimerweg Ecke Wormbacherweg,1965967_west,['A85'],
Invalidenstr.,autobus,A86,1964984_west,"52.52731343,13.37206043",,52.52731343,13.37206043,90.0,Invalidenstr. (Sektorengrenze),1965968_west,['A86'],
Stromstr. Ecke Alt-Moabit,autobus,A86,1964985_west,"52.52539702,13.34278622",,52.52539702,13.34278622,100.0,Stromstr. Ecke Alt-Moabit,1965970_west,['A86'],
Alt-Moabit Ecke Gotzkowskystr.,autobus,A86,1964986_west,"52.52377876,13.32973510","nan, nan",,,,,,,196433.0
Ernst-Reuter-Platz,autobus,A86,1964987_west,"52.51159182,13.32257153",,,,,,,,1964309.0
Cauerstr. Ecke Wilmersdorferstr.,autobus,A86,1964988_west,"52.51468804,13.31517213",,,,,,,,1964228.0
Richard-Wagner-Platz,autobus,A86,1964989_west,"52.51749099,13.30639710",,,,,,,,19641004.0
Kantstr. Ecke Wilmersdorferstr.,autobus,A86,1964990_west,"52.50670639,13.30668035",,,,,,,,1964585.0
Kurfürstendamm Ecke Wilmersdorferstr.,autobus,A86,1964991_west,"52.50000560,13.30703748",,,,,,,,1964659.0
Fehrbellinerplatz,autobus,A86,1964992_west,"52.49040639,13.31420422",,,,,,,,1964322.0
Hildegardstr.,autobus,A86,1964993_west,"52.48185906,13.32039144",,,,,,,,1964500.0
Bundesplatz,autobus,A86,1964994_west,"52.47867899,13.32860278",,,,,,,,1964209.0
Schloßstr. Ecke Bundesallee,autobus,A86,1964995_west,"52.46494077,13.32851361",,,,,,,,19641107.0
Rathaus Steglitz,autobus,A86,1964996_west,"52.45563378,13.32105078",,,,,,,,1964981.0
Hindenburgdamm,autobus,A86,1964997_west,"52.45352508,13.31567149",,,,,,,,1964501.0
Klingsorstr.,autobus,A86,1964998_west,"52.44752909,13.32632316",,52.44752909,13.32632316,90.0,Klingsorstr. Ecke Birkbuschstr.,1965990_west,['A86'],
Birkbuschstr. Ecke Siemensstr.,autobus,A86,1964999_west,"52.44243904,13.33208217",,52.44243904,13.33208217,100.0,Birkbuschstr. Ecke Siemensstr.,1965991_west,['A86'],
"Richard-Wagner-Platz, Wintersteinstr.",autobus,A87,19641000_west,"52.51740014,13.30657053",,,,,,,,19641007.0
Richard-Wagner-Platz,autobus,A87,19641001_west,"52.51749099,13.30639710",,,,,,,,19641004.0
Wilmersdorferstr. Ecke Otto-Suhr-Allee,autobus,A87,19641002_west,"52.51811241,13.30443482",,52.51811241,13.30443482,100.0,Wilmersdorferstr. Ecke Otto-Suhr-Allee,1965993_west,['A87'],
Luisenplatz,autobus,A87,19641003_west,"52.52005409,13.29951339",,,,,,,,1964739.0
Schlossstr. Ecke Spandauerdamm,autobus,A87,19641004_west,"52.51945635,13.29594131",,52.51945635,13.29594131,97.0,Schloßstr. Ecke Spandauerdamm,1965995_west,['A87'],
Spandauerdamm Ecke Sophie-Charlotten-Str.,autobus,A87,19641005_west,"52.51877597,13.28665640",,52.51877597,13.2866564,95.0,Sophie-Charlotten-Str. Ecke Spandauerdamm,1965996_west,['A87'],
Sophie-Charlotten-Str. Ecke Pulsstr.,autobus,A87,19641006_west,"52.52421632,13.28505878",,52.52421632,13.28505878,95.0,Pulsstr. Ecke Sophie-Charlotten-Str.,1965997_west,['A87'],
U-Bhf. Kaiserdamm,autobus,A88,19641007_west,"52.50999451,13.28180313",,52.50999451,13.28180313,100.0,U-Bhf. Kaiserdamm,1965998_west,['A88'],
Neue-Kant-Str. Ecke Messedamm,autobus,A88,19641008_west,"52.50645040,13.28034752",,52.5064504,13.28034752,98.0,Neue-Kantstr. Ecke Messedamm,1965999_west,['A88'],
Halenseestr. Ecke Messedamm,autobus,A88,19641009_west,"52.50358004,13.27899377",,52.50358004,13.27899377,100.0,Halenseestr. Ecke Messedamm,19651000_west,['A88'],
Deutschland Halle,autobus,A88,19641010_west,"52.49876605,13.27206768",,52.49876605,13.27206768,100.0,Deutschland-Halle,19651001_west,['A88'],
Eichkampstr. Ecke Alteallee,autobus,A88,19641011_west,"52.49185763,13.26346312",,,,,,,,1964294.0
Drontheimerstr. Ecke Osloerstr.,autobus,A89,19641013_west,"52.55646891,13.37700824",,,,,,,,1964274.0
Osloerstr. Ecke Schwedenstr.,autobus,A89,19641014_west,"52.55669670,13.37382769","nan, nan",,,,,,,1964872.0
Reinickendorferstr. Ecke Osloerstr.,autobus,A89,19641015_west,"52.55695941,13.36559908",,52.55695941,13.36559908,100.0,Reinickendorferstr. Ecke Osloerstr.,19651007_west,['A89'],
U-Bhf. Seestr.,autobus,A89,19641016_west,"52.55031541,13.35229850",,52.55031541,13.3522985,100.0,U-Bhf. Seestr.,19651008_west,['A89'],
Huttenstr. Ecke Beusselstr.,autobus,A89,19641018_west,"52.52740013,13.32867332",,52.52740013,13.32867332,100.0,Huttenstr. Ecke Beusselstr.,19651012_west,['A89'],
Tauroggenerstr. Ecke Meriendorffstr.,autobus,A89,19641019_west,"52.52254099,13.30046404",,,,,,,,19641234.0
Luisenplatz,autobus,A89,19641020_west,"52.52005409,13.29951339",,52.52005409,13.29951339,100.0,Luisenplatz,19651016_west,['A89'],
Kantstr. Ecke Wilmersdorferstr.,autobus,A89,19641021_west,"52.50670639,13.30668035",,52.50670639,13.30668035,100.0,Kantstr. Ecke Wilmersdorferstr.,19651018_west,['A89'],
Kurfürstendamm Ecke Wilmersdorferstr.,autobus,A89,19641022_west,"52.50001126,13.30714351",,52.50001126,13.30714351,100.0,Kurfürstendamm Ecke Wilmersdorferstr.,19651019_west,['A89'],
U-Bhf. Fehrbellinerplatz,autobus,A89,19641023_west,"52.49039093,13.31417746",,52.49039093,13.31417746,100.0,U-Bhf. Fehrbellinerplatz,19651021_west,['A89'],
Brandenburgischestr. Ecke Blissestr.,autobus,A89,19641024_west,"52.48651073,13.32032803",,52.48651073,13.32032803,95.0,Blissestr. Ecke Brandenburgischestr.,19651022_west,['A89'],
Bundesallee Ecke Berlinerstr.,autobus,A89,19641025_west,"52.48732558,13.33098413",,52.48732558,13.33098413,100.0,Bundesallee Ecke Berlinerstr.,19651024_west,['A89'],
Martin-Luther-Str. Ecke Grunewaldstr.,autobus,A89,19641026_west,"52.48910174,13.34492201",,52.48910174,13.34492201,100.0,Martin-Luther-Str. Ecke Grunewaldstr.,19651026_west,['A89'],
Potsdamerstr. Ecke Pallasstr.,autobus,A89,19641027_west,"52.49431875,13.36100643",,52.49431875,13.36100643,100.0,Potsdamerstr. Ecke Pallasstr.,19651027_west,['A89'],
Mehringdamm,autobus,A89,19641028_west,"52.49293918,13.38772030",,,,,,,,1964795.0
U-Bhf. Gneisenaustr.,autobus,A89,19641029_west,"52.49122659,13.39632791",,52.49122659,13.39632791,100.0,U-Bhf. Gneisenaustr.,19651031_west,['A89'],
Mehringplatz,autobus,A89,19641030_west,"52.49827538,13.39190927",,,,,,,,1964797.0
"Bhf. Zoo, Hardenbergplatz",autobus,A90,19641031_west,"52.50696177,13.33308096",,52.50696177,13.33308096,100.0,"Bhf. Zoo, Hardenbergplatz",19651034_west,['A90'],
Ernst-Reuter-Platz,autobus,A90,19641032_west,"52.51159182,13.32257153",,52.51159182,13.32257153,100.0,Ernst-Reuter-Platz,19651035_west,['A90'],
Alt-Moabit Ecke Gotzkowskystr.,autobus,A90,19641033_west,"52.52377876,13.32973510",,52.52377876,13.3297351,100.0,Alt-Moabit Ecke Gotzkowskystr.,19651037_west,['A90'],
U-Bhf. Turmstr.,autobus,A90,19641034_west,"52.52562203,13.34119684",,52.52562203,13.34119684,90.0,"U-Bhf. Turmstr., Alt-Moabit",19651038_west,['A90'],
Rathenowerstr. Ecke Alt-Moabit,autobus,A90,19641035_west,"52.52363005,13.35684871",,52.52363005,13.35684871,100.0,Rathenowerstr. Ecke Alt-Moabit,19651040_west,['A90'],
Perlebergerstr. Ecke Rathenowerstr.,autobus,A90,19641036_west,"52.53251179,13.35056076",,52.53251179,13.35056076,100.0,Perlebergerstr. Ecke Rathenowerstr.,19651042_west,['A90'],
Am Nordhafen Ecke Tegelerstr.,autobus,A90,19641037_west,"52.53868316,13.36324841",,52.53868316,13.36324841,90.0,Am Nordhafen,19651043_west,['A90'],
Weddingplatz,autobus,A90,19641038_west,"52.54113612,13.36850103",,52.54113612,13.36850103,100.0,Weddingplatz,19651044_west,['A90'],
Gartenstr. Ecke Grenzstr.,autobus,A90,19641039_west,"52.54181102,13.37807511",,52.54181102,13.37807511,95.0,Gartenstr. & Grenzstr.,19651045_west,['A90'],
Wattstr. Ecke Usedomerstr.,autobus,A90,19641040_west,"52.54025184,13.39064471",,52.54025184,13.39064471,100.0,Wattstr. Ecke Usedomerstr.,19651046_west,['A90'],
Vinetaplatz,autobus,A90,19641041_west,"52.54113780,13.39842130",,52.5411378,13.3984213,100.0,Vinetaplatz,19651047_west,['A90'],
U-Bhf. Leinestr.,autobus,A91,19641042_west,"52.47263483,13.42855206",,52.47263483,13.42855206,100.0,U-Bhf. Leinestr.,19651048_west,['A91'],
Siegfriedstr. Ecke Hermannstr.,autobus,A91,19641043_west,"52.46787567,13.43109511",,52.46787567,13.43109511,100.0,Siegfriedstr. Ecke Hermannstr.,19651049_west,['A91'],
Silbersteinstr. Ecke Hermannstr.,autobus,A91,19641044_west,"52.46644283,13.43193802",,,,,,,,19641158.0
Mariendorferweg Ecke Hermannstr.,autobus,A91,19641045_west,"52.46469159,13.43289078",,52.46469159,13.43289078,100.0,Mariendorferweg Ecke Hermannstr.,19651050_west,['A91'],
Germaniapromenade Ecke Hermannstr.,autobus,A91,19641046_west,"52.46089744,13.43506282",,,,,,,,1964375.0
Franz-Körner-Str. Ecke Britzerdamm,autobus,A91,19641047_west,"52.45591015,13.43724797",,52.45591015,13.43724797,98.0,Franz-Körnerstr. Ecke Britzerdamm,19651052_west,['A91'],
Blaschkoallee Ecke Britzerdamm,autobus,A91,19641048_west,"52.45261494,13.43854466",,,,,,,,1964163.0
Mohriner Alle Ecke Buckowerdamm,autobus,A91,19641050_west,"52.44415812,13.43354138",,52.44415812,13.43354138,97.0,Mohrinerallee Ecke Buckowerdamm,19651055_west,['A91'],
Gutschmidtstr. Ecke Buckowerdamm,autobus,A91,19641051_west,"52.44037172,13.43478719",,52.44037172,13.43478719,100.0,Gutschmidtstr. Ecke Buckowerdamm,19651056_west,['A91'],
Schlosserweg Ecke Buckowerdamm,autobus,A91,19641052_west,"52.43931812,13.43486911",,52.43931812,13.43486911,100.0,Schlosserweg Ecke Buckowerdamm,19651057_west,['A91'],
Zimmererweg Ecke Buckowerdamm,autobus,A91,19641053_west,"52.43530943,13.43512496",,52.43530943,13.43512496,100.0,Zimmererweg Ecke Buckowerdamm,19651058_west,['A91'],
Dachdeckerweg Ecke Buckowerdamm,autobus,A91,19641054_west,"52.43209036,13.43515188",,52.43209036,13.43515188,100.0,Dachdeckerweg Ecke Buckowerdamm,19651059_west,['A91'],
Parkfriedhof Neukölln,autobus,A91,19641055_west,"52.42837472,13.43500150",,52.42837472,13.4350015,100.0,Parkfriedhof Neukölln,19651060_west,['A91'],
Alt-Buckow Ecke Buckowerdamm,autobus,A91,19641056_west,"52.42365120,13.43663595",,52.4236512,13.43663595,100.0,Alt-Buckow Ecke Buckowerdamm,19651061_west,['A91'],
Machandelweg,autobus,A92,19641057_west,"52.52483520,13.24567178",,52.5248352,13.24567178,100.0,Machandelweg,19651062_west,['A92'],
U-Bhf. Ruhleben,autobus,A92,19641058_west,"52.52596833,13.24147858",,,,,,,,19641304.0
Grunewaldstr. Ecke Ruhlebenerstr.,autobus,A92,19641059_west,"52.53017273,13.20468457",,52.53017273,13.20468457,100.0,Grunewaldstr. Ecke Ruhlebenerstr.,19651064_west,['A92'],
Klosterstr. Ecke Carl-Schurz-Str.,autobus,A92,19641060_west,"52.53290603,13.19843579",,,,,,,,1964619.0
Seeburgerstr. Ecke Klosterstr.,autobus,A92,19641061_west,"52.52914199,13.19558478",,52.52914199,13.19558478,100.0,Seeburgerstr. Ecke Klosterstr.,19651066_west,['A92'],
Pichelsdorferstr. Ecke Klosterstr.,autobus,A92,19641062_west,"52.52796090,13.19524743",,,,,,,,1964919.0
Wilhelmstr. Ecke Heerstr.,autobus,A92,19641063_west,"52.51662276,13.17904272",,52.51662276,13.17904272,95.0,Wilhelmstr./Heerstr.,19651068_west,['A92'],
Reimerweg Ecke Heerstr.,autobus,A92,19641064_west,"52.52184204,13.15430702",,52.52184204,13.15430702,100.0,Reimerweg Ecke Heerstr.,19651069_west,['A92'],
Brunnenstr. Ecke Lortzingstr.,autobus,A99,19641065_west,"52.54254624,13.39272812",,52.54254624,13.39272812,100.0,Brunnenstr. Ecke Lortzingstr.,19651092_west,['A99'],
U-Bhf. Gesundbrunnen,autobus,A99,19641066_west,"52.54947942,13.38652401",,52.54947942,13.38652401,100.0,U-Bhf. Gesundbrunnen,19651093_west,['A99'],
Brunnenplatz,autobus,A99,19641067_west,"52.54974599,13.37737049",,52.54974599,13.37737049,90.0,"Brunnenplatz, Pankstr.",19651095_west,['A99'],
Nettelbeckplatz,autobus,A99,19641068_west,"52.54464512,13.37015454",,52.54464512,13.37015454,100.0,Nettelbeckplatz,19651096_west,['A99'],
Rathenowerstr.,autobus,A99,19641069_west,"52.52673251,13.35527561",,,,,,,,1964987.0
Unionplatz,autobus,A99,19641070_west,"52.53305940,13.33727881",,52.5330594,13.33727881,100.0,Unionplatz,19651099_west,['A99'],
Jakob-Kaiser-Platz,autobus,A99,19641072_west,"52.53673970,13.29360488",,52.5367397,13.29360488,100.0,Jakob-Kaiser-Platz,19651101_west,['A99'],
Wernerwerk,autobus,A99,19641073_west,"52.53562700,13.27537088",,52.535627,13.27537088,100.0,Wernerwerk,19651102_west,['A99'],
Quellweg Ecke Nonnendammallee,autobus,A99,19641074_west,"52.53666858,13.26843643",,52.53666858,13.26843643,100.0,Quellweg Ecke Nonnendammallee,19651103_west,['A99'],
Paulsternstr. Ecke Nonnendammallee,autobus,A99,19641075_west,"52.53814656,13.24775542",,52.53814656,13.24775542,100.0,Paulsternstr. Ecke Nonnendammallee,19651104_west,['A99'],
Gartenfelderstr. Ecke Nonnendammallee,autobus,A99,19641076_west,"52.53921965,13.23193032",,52.53921965,13.23193032,100.0,Gartenfelderstr. Ecke Nonnendammallee,19651105_west,['A99'],
Carl-Schurz-Str. Ecke Seegefelderstr.,autobus,A99,19641077_west,"52.53512820,13.19977854",,,,,,,,1964226.0
Rathaus Spandau,autobus,A99,19641078_west,"52.53457836,13.19949094",,,,,,,,1964979.0
Hochgerichtstr.,autobus,A99,19641079_west,"52.53843535,13.18239370",,52.53843535,13.1823937,90.0,Hochgerichtstr. Ecke Seegefelderstr.,19651109_west,['A99'],
Germersheimerplatz,autobus,A99,19641080_west,"52.54456786,13.18701195",,52.54456786,13.18701195,97.0,Germesheimerplatz,19651110_west,['A99'],
Bhf. Zoo,autobus,AS1,19641081_west,"52.50702953,13.33322012",,,,,,,,1964147.0
U-Bhf. Ernst-Reuter-Platz,autobus,AS1,19641082_west,"52.51164603,13.32229086",,,,,,,,19641279.0
Cauerstr.,autobus,AS1,19641083_west,"52.51469847,13.31523032",,52.51469847,13.31523032,90.0,Cauerstr. Ecke Otto-Suhr-Allee,19651113_west,['AS1'],
Richard-Wagner-Platz,autobus,AS1,19641084_west,"52.51749099,13.30639710",,52.51749099,13.3063971,100.0,Richard-Wagner-Platz,19651114_west,['AS1'],
Luisenplatz,autobus,AS1,19641085_west,"52.52005409,13.29951339",,,,,,,,1964739.0
Fürstenbrunnerweg,autobus,AS1,19641086_west,"52.51842262,13.28011647",,52.51842262,13.28011647,90.0,Fürstenbrunnerweg Ecke Spandauerdamm,19651116_west,['AS1'],
Kirschenallee,autobus,AS1,19641087_west,"52.52037881,13.26719193",,52.52037881,13.26719193,90.0,Kirschenallee Ecke Spandauerdamm,19651117_west,['AS1'],
Schloss Ruhwald,autobus,AS1,19641088_west,"52.52160458,13.26039687",,52.52160458,13.26039687,93.0,Schloß Ruhwald,19651118_west,['AS1'],
U-Bhf. Ruhleben,autobus,AS1,19641089_west,"52.52596833,13.24147858",,52.52596833,13.24147858,100.0,U-Bhf. Ruhleben,19651119_west,['AS1'],
Teltowerstr.,autobus,AS1,19641090_west,"52.52691598,13.21592513",,52.52691598,13.21592513,90.0,Teltowerstr. Ecke Ruhlebenerstr.,19651120_west,['AS1'],
Rathaus Spandau,autobus,AS1,19641091_west,"52.53457836,13.19949094",,52.53457836,13.19949094,100.0,Rathaus Spandau,19651121_west,['AS1'],
Hafenplatz,autobus,AS1,19641092_west,"52.50392084,13.37547988",,52.50392084,13.37547988,100.0,Hafenplatz,19651122_west,['AS1'],
Lynastr.,autobus,AS1,19641093_west,"52.54898936,13.21022580",,,,,,,,1964745.0
Klinkeplatz,autobus,AS1,19641094_west,"52.55555146,13.19854978",,52.55555146,13.19854978,100.0,Klinkeplatz,19651124_west,['AS1'],
Hohenzollernring Ecke Schönwalderstr.,autobus,AS1,19641095_west,"52.55534807,13.19865762",,52.55534807,13.19865762,90.0,Hohenzollernring,19651125_west,['AS1'],
Bhf. Zoo,autobus,AS2,19641096_west,"52.50702953,13.33322012",,,,,,,,1964147.0
Hardenbergstr. Ecke Joachimstalerstr.,autobus,AS2,19641097_west,"52.50618525,13.33236241",,,,,,,,1964455.0
Kurfürstendamm Ecke Joachimstalerstr.,autobus,AS2,19641098_west,"52.50386159,13.33136802",,,,,,,,1964653.0
"Rankeplatz, Bundeshaus",autobus,AS2,19641099_west,"52.50042978,13.33086733",,52.50042978,13.33086733,90.0,Rankeplatz,19651128_west,['AS2'],
Berlinerstr. Ecke Bundesallee,autobus,AS2,19641100_west,"52.48732427,13.33091399",,52.48732427,13.33091399,100.0,Berlinerstr. Ecke Bundesallee,19651131_west,['AS2'],
Bundesplatz,autobus,AS2,19641101_west,"52.47867899,13.32860278",,52.47867899,13.32860278,100.0,Bundesplatz,19651133_west,['AS2'],
"Schlossstr., Wilhelm-Schreiber-Platz",autobus,AS2,19641102_west,"52.46497175,13.32853499",,,,,,,,19641106.0
Canovastr.,autobus,AS2,19641103_west,"52.46303228,13.34275862",,52.46303228,13.34275862,90.0,Canovastr. Ecke Thorwaldsenstr.,19651136_west,['AS2'],
Attilaplatz,autobus,AS2,19641104_west,"52.45590180,13.37651250",,52.4559018,13.3765125,100.0,Attilaplatz,19651137_west,['AS2'],
Mariendorferdamm Ecke Kaiserstr.,autobus,AS2,19641105_west,"52.44555364,13.38578300",,52.44555364,13.385783,100.0,Mariendorferdamm Ecke Kaiserstr.,19651138_west,['AS2'],
Alt-Mariendorf Ecke Mariendorferdamm,autobus,AS2,19641106_west,"52.44019477,13.38731753",,52.44019477,13.38731753,100.0,Alt-Mariendorf Ecke Mariendorferdamm,19651139_west,['AS2'],
"Tauernallee, Adlermühle",autobus,AS2,19641107_west,"52.42328224,13.39615754",,52.42328224,13.39615754,86.0,Tauernallee Ecke Mariendorferdamm,19651140_west,['AS2'],
Buckowerchaussee Ecke Mariendorferdamm,autobus,AS2,19641108_west,"52.41454962,13.40118244",,,,,,,,1964202.0
"Lichtenrade, Goethestr.",autobus,AS2,19641109_west,"52.40437994,13.40619839",,,,,,,,1964720.0
Goltzstr.,autobus,AS2,19641110_west,"52.38741231,13.40969616",,52.38741231,13.40969616,90.0,Goltzstr. Ecke Lichtenraderdamm,19651143_west,['AS2'],
Bhf. Lichtenrade,autobus,AS2,19641111_west,"52.38668330,13.39550693",,,,,,,,1964134.0
"Lichtenrade, Blohmstr. Ecke Wünsdorferstr.",autobus,AS2,19641112_west,"52.38867997,13.39435043",,52.38867997,13.39435043,95.0,Blohmstr. Ecke Wünsdorferstr.,19651145_west,['AS2'],
Bhf. Zoo,autobus,AS3,19641113_west,"52.50702953,13.33322012",,52.50702953,13.33322012,100.0,Bhf. Zoo,19651146_west,['AS3'],
Hardenbergstr.,autobus,AS3,19641114_west,"52.50615406,13.33242747",,,,,,,,1964454.0
Kurfürstendamm Ecke Joachimstalerstr.,autobus,AS3,19641115_west,"52.50386159,13.33136802",,,,,,,,1964653.0
Rankeplatz/Bundeshaus,autobus,AS3,19641116_west,"52.49809490,13.33070636",,,,,,,,1964973.0
U-Bhf. Spichernstr.,autobus,AS3,19641117_west,"52.49666209,13.33063500",,52.49666209,13.330635,100.0,U-Bhf. Spichernstr.,19651149_west,['AS3'],
U-Bhf. Fehrbellinerplatz,autobus,AS3,19641118_west,"52.49039093,13.31417746",,,,,,,,19641281.0
Seesenerstr. Ecke Hohenzollerndamm,autobus,AS3,19641119_west,"52.48846116,13.30215002",,52.48846116,13.30215002,100.0,Seesenerstr. Ecke Hohenzollerndamm,19651151_west,['AS3'],
"Berkaerstr., Elsterplatz",autobus,AS3,19641120_west,"52.47977983,13.28550761",,52.47977983,13.28550761,90.0,Elsterplatz,19651152_west,['AS3'],
Roseneck,autobus,AS3,19641121_west,"52.47580090,13.28241127",,52.4758009,13.28241127,100.0,Roseneck,19651153_west,['AS3'],
Pücklerstr.,autobus,AS3,19641122_west,"52.46857085,13.27839710",,52.46857085,13.2783971,90.0,Pücklerstr. Ecke Clayallee,19651154_west,['AS3'],
Königin-Luise-Str.,autobus,AS3,19641123_west,"52.46048317,13.27487914",,52.46048317,13.27487914,90.0,Königin-Luise-Str. Ecke Clayallee,19651155_west,['AS3'],
U-Bhf. Oskar-Helene-Heim,autobus,AS3,19641124_west,"52.45027901,13.27036199",,52.45027901,13.27036199,100.0,U-Bhf. Oskar-Helene-Heim,19651156_west,['AS3'],
Sundgauerstr.,autobus,AS3,19641125_west,"52.44557392,13.26767122",,52.44557392,13.26767122,90.0,Sundgauerstr. Ecke Clayallee,19651157_west,['AS3'],
Winfriedstr.,autobus,AS3,19641126_west,"52.43756201,13.26945017",,,,,,,,19641413.0
Clayallee/Teltowerdamm,autobus,AS3,19641127_west,"52.43505474,13.26036176",,,,,,,,1964237.0
Rathaus Zehlendorf,autobus,AS3,19641128_west,"52.43320752,13.25953192",,52.43320752,13.25953192,100.0,Rathaus Zehlendorf,19651160_west,['AS3'],
Bhf. Zoo,autobus,AS4,19641129_west,"52.50702953,13.33322012",,,,,,,,1964147.0
Savignyplatz,autobus,AS4,19641130_west,"52.50585291,13.32187247",,52.50585291,13.32187247,100.0,Savignyplatz,19651162_west,['AS4'],
Leibnizstr. Ecke Kantstr.,autobus,AS4,19641131_west,"52.50628812,13.31395372",,52.50628812,13.31395372,100.0,Leibnizstr. Ecke Kantstr.,19651163_west,['AS4'],
Wilmersdroferstr. Ecke Kantstr.,autobus,AS4,19641132_west,"52.50669450,13.30667544",,52.5066945,13.30667544,97.0,Wilmersdorferstr. Ecke Kantstr.,19651164_west,['AS4'],
Amtsgericht,autobus,AS4,19641133_west,"52.50682618,13.29739145",,52.50682618,13.29739145,100.0,Amtsgericht,19651165_west,['AS4'],
Wundtstr. Ecke Neue Kantstr.,autobus,AS4,19641134_west,"52.50644122,13.28374229",,52.50644122,13.28374229,100.0,Wundtstr. Ecke Neue Kantstr.,19651166_west,['AS4'],
Messedamm Ecke Halenseestr.,autobus,AS4,19641135_west,"52.50360101,13.27898255",,,,,,,,1964801.0
Spanischeallee Ecke Kronprizessinnenweg,autobus,AS4,19641136_west,"52.43381203,13.18936731",,52.43381203,13.18936731,99.0,Spanischeallee Ecke Kronprinzessinnenweg,19651168_west,['AS4'],
Bhf. Wannsee,autobus,AS4,19641137_west,"52.42151302,13.17810257",,52.42151302,13.17810257,100.0,Bhf. Wannsee,19651169_west,['AS4'],
Am Großen Wannsee,autobus,AS4,19641138_west,"52.42050256,13.16717980",,52.42050256,13.1671798,90.0,Am Großen Wannsee Ecke Königstr.,19651170_west,['AS4'],
Rathaus Wannsee,autobus,AS4,19641139_west,"52.41844013,13.14887249",,52.41844013,13.14887249,100.0,Rathaus Wannsee,19651171_west,['AS4'],
Stölpchensee,autobus,AS4,19641140_west,"52.40943024,13.14381795",,,,,,,,19641219.0
Schlesisches Tor,u-bahn,A I,19641141_west,"52.50083333,13.44166667",Q602282,,,,,,,19641098.0
Kottbusser Tor,u-bahn,A I,19641143_west,"52.49916667,13.41805556",Q819768,,,,,,,1964633.0
Prinzenstr.,u-bahn,A I,19641144_west,"52.49833333,13.40611111",Q689797,,,,,,,1964954.0
Hallesches Tor,u-bahn,A I,19641145_west,"52.49777778,13.39111111",Q658302,,,,,,,1964447.0
Gleisdreieck,u-bahn,A I,19641146_west,"52.49952000,13.37409000",Q678372,,,,,,,1964382.0
Kurfürstenstr.,u-bahn,A I,19641147_west,"52.50000000,13.36194444",Q690203,,,,,,,1964661.0
Nollendorfplatz,u-bahn,A I,19641148_west,"52.49916667,13.35388889",Q571039,,,,,,,1964840.0
Wittenbergplatz,u-bahn,A I,19641149_west,"52.50194444,13.34305556",Q692727,,,,,,,19641421.0
Zoologischer Garten,u-bahn,A I,19641150_west,"52.50586690,13.33302360",,52.5058669,13.3330236,100.0,Zoologischer Garten,19651310_west,['A I'],
Ernst-Reuter-Platz,u-bahn,A I,19641151_west,"52.51194444,13.32222222",,52.51194444,13.32222222,100.0,Ernst-Reuter-Platz,19651311_west,['A I'],
Deutsche Oper (Bismarckstr.),u-bahn,A I,19641152_west,"52.51194444,13.31055556",,52.51194444,13.31055556,100.0,Deutsche Oper (Bismarckstr.),19651312_west,['A I'],
Sophie-Charlotte-Platz,u-bahn,A I,19641153_west,"52.51083333,13.29666667",,52.51083333,13.29666667,100.0,Sophie-Charlotte-Platz,19651313_west,['A I'],
Kaiserdamm (Messedamm),u-bahn,A I,19641154_west,"52.51000000,13.28220000",,52.51,13.2822,100.0,Kaiserdamm (Messedamm),19651314_west,['A I'],
Theodor-Heuss-Platz,u-bahn,A I,19641155_west,"52.50972222,13.27305556",,52.50972222,13.27305556,100.0,Theodor-Heuss-Platz,19651315_west,['A I'],
Ruhleben,u-bahn,A I,19641156_west,"52.52555556,13.24138889",,52.52555556,13.24138889,100.0,Ruhleben,19651316_west,['A I'],
Schlesisches Tor,u-bahn,A II,19641157_west,"52.50083333,13.44166667",,52.50083333,13.44166667,100.0,Schlesisches Tor,19651317_west,['A II'],
Görlitzer Bahnhof (Oranienstr.),u-bahn,A II,19641158_west,"52.49920000,13.42800000",,52.4992,13.428,100.0,Görlitzer Bahnhof (Oranienstr.),19651318_west,['A II'],
Kottbusser Tor,u-bahn,A II,19641159_west,"52.49916667,13.41805556",,52.49916667,13.41805556,100.0,Kottbusser Tor,19651319_west,['A II'],
Prinzenstr.,u-bahn,A II,19641160_west,"52.49833333,13.40611111",,52.49833333,13.40611111,100.0,Prinzenstr.,19651320_west,['A II'],
Hallesches Tor,u-bahn,A II,19641161_west,"52.49777778,13.39111111",,52.49777778,13.39111111,100.0,Hallesches Tor,19651321_west,['A II'],
Möckernbrücke,u-bahn,A II,19641162_west,"52.49916667,13.38277778",,52.49916667,13.38277778,100.0,Möckernbrücke,19651322_west,['A II'],
Gleisdreieck,u-bahn,A II,19641163_west,"52.49952000,13.37409000",,52.49952,13.37409,100.0,Gleisdreieck,19651323_west,['A II'],
Kurfürstenstr.,u-bahn,A II,19641164_west,"52.50000000,13.36194444",,52.5,13.36194444,100.0,Kurfürstenstr.,19651324_west,['A II'],
Nollendorfplatz,u-bahn,A II,19641165_west,"52.49916667,13.35388889",Q571039,,,,,,,1964840.0
Wittenbergplatz,u-bahn,A II,19641166_west,"52.50194444,13.34305556",Q692727,,,,,,,19641421.0
Augsburger Str.,u-bahn,A II,19641167_west,"52.50055600,13.33638900",,52.500556,13.336389,100.0,Augsburger Str.,19651327_west,['A II'],
Spichernstr.,u-bahn,A II,19641168_west,"52.49638889,13.33055556",,52.49638889,13.33055556,100.0,Spichernstr.,19651328_west,['A II'],
Hohenzollernplatz,u-bahn,A II,19641169_west,"52.49388889,13.32500000",,52.49388889,13.325,100.0,Hohenzollernplatz,19651329_west,['A II'],
Fehrbellinerplatz,u-bahn,A II,19641170_west,"52.49027778,13.31444444",,52.49027778,13.31444444,100.0,Fehrbellinerplatz,19651330_west,['A II'],
Heidelbergerplatz,u-bahn,A II,19641171_west,"52.47980833,13.31323611",,52.47980833,13.31323611,100.0,Heidelbergerplatz,19651331_west,['A II'],
Rüdesheimerplatz,u-bahn,A II,19641172_west,"52.47333333,13.31444444",,52.47333333,13.31444444,100.0,Rüdesheimerplatz,19651332_west,['A II'],
Breitenbachplatz,u-bahn,A II,19641173_west,"52.46638889,13.30805556",,52.46638889,13.30805556,100.0,Breitenbachplatz,19651333_west,['A II'],
Podbielskiallee,u-bahn,A II,19641174_west,"52.46444444,13.29638889",,52.46444444,13.29638889,100.0,Podbielskiallee,19651334_west,['A II'],
Dahlem-Dorf,u-bahn,A II,19641175_west,"52.45694444,13.28944444",,52.45694444,13.28944444,100.0,Dahlem-Dorf,19651335_west,['A II'],
Thielplatz,u-bahn,A II,19641176_west,"52.45111111,13.28222222",,52.45111111,13.28222222,100.0,Thielplatz,19651336_west,['A II'],
Oskar-Helene-Heim,u-bahn,A II,19641177_west,"52.45027778,13.26972222",,52.45027778,13.26972222,100.0,Oskar-Helene-Heim,19651337_west,['A II'],
Onkel Toms Hütte,u-bahn,A II,19641178_west,"52.45027778,13.25333333",,52.45027778,13.25333333,100.0,Onkel Toms Hütte,19651338_west,['A II'],
Krumme Lanke,u-bahn,A II,19641179_west,"52.44333333,13.24138889",,52.44333333,13.24138889,100.0,Krumme Lanke,19651339_west,['A II'],
Richard-Wagner-Platz,u-bahn,A III,19641181_west,"52.51750000,13.30638889",,52.5175,13.30638889,100.0,Richard-Wagner-Platz,19651341_west,['A III'],
Nollendorfplatz,u-bahn,B I,19641182_west,"52.49916667,13.35388889",,52.49916667,13.35388889,100.0,Nollendorfplatz,19651342_west,['B I'],
Bayerischerplatz,u-bahn,B I,19641183_west,"52.48833333,13.34027778",,52.48833333,13.34027778,100.0,Bayerischerplatz,19651343_west,['B I'],
Innsbruckerplatz,u-bahn,B I,19641184_west,"52.47860000,13.34390000",,52.4786,13.3439,100.0,Innsbruckerplatz,19651344_west,['B I'],
Wittenbergplatz,u-bahn,B III,19641185_west,"52.50194444,13.34305556",,52.50194444,13.34305556,100.0,Wittenbergplatz,19651345_west,['B III'],
Kurfürstendamm,u-bahn,B III,19641186_west,"52.50416667,13.33277778",,52.50416667,13.33277778,100.0,Kurfürstendamm,19651346_west,['B III'],
Tegel,u-bahn,C I,19641187_west,"52.58944000,13.28389000",,52.58944,13.28389,100.0,Tegel,19651348_west,['C I'],
Borsigwerke,u-bahn,C I,19641188_west,"52.58190000,13.29070000",,52.5819,13.2907,100.0,Borsigwerke,19651349_west,['C I'],
Holzhauser Str.,u-bahn,C I,19641189_west,"52.57583333,13.29611111",,52.57583333,13.29611111,100.0,Holzhauser Str.,19651350_west,['C I'],
Seidelstr. (Flughafen Tegel),u-bahn,C I,19641190_west,"52.57111100,13.30277800",,52.571111,13.302778,100.0,Seidelstr. (Flughafen Tegel),19651351_west,['C I'],
Scharnweberstr. (Eichborndamm),u-bahn,C I,19641191_west,"52.56694444,13.31277778",,52.56694444,13.31277778,100.0,Scharnweberstr. (Eichborndamm),19651352_west,['C I'],
Kurt-Schumacher-Platz,u-bahn,C I,19641192_west,"52.56355556,13.32657222",,52.56355556,13.32657222,100.0,Kurt-Schumacher-Platz,19651353_west,['C I'],
Afrikanische Str.,u-bahn,C I,19641193_west,"52.56002778,13.33463333",,52.56002778,13.33463333,100.0,Afrikanische Str.,19651354_west,['C I'],
Rehberge,u-bahn,C I,19641194_west,"52.55670000,13.34120000",,52.5567,13.3412,100.0,Rehberge,19651355_west,['C I'],
Seestr.,u-bahn,C I,19641195_west,"52.55056000,13.35194000",,52.55056,13.35194,100.0,Seestr.,19651356_west,['C I'],
Leopoldplatz,u-bahn,C I,19641196_west,"52.54650000,13.35910000",Q1960809,,,,,,,1964709.0
Bahnhof Wedding,u-bahn,C I,19641197_west,"52.54250000,13.36611100",,52.5425,13.366111,100.0,Bahnhof Wedding,19651358_west,['C I'],
Reinickendorfer Str.,u-bahn,C I,19641198_west,"52.53991111,13.37037778",,52.53991111,13.37037778,100.0,Reinickendorfer Str.,19651359_west,['C I'],
Bahnhof Friedrichstr. (Stadtbahn),u-bahn,C I,19641199_west,"52.52011111,13.38830556",,52.52011111,13.38830556,100.0,Bahnhof Friedrichstr. (Stadtbahn),19651360_west,['C I'],
Kochstr.,u-bahn,C I,19641200_west,"52.50589722,13.39061111",,52.50589722,13.39061111,100.0,Kochstr.,19651361_west,['C I'],
Hallesches Tor,u-bahn,C I,19641201_west,"52.49777778,13.39111111",Q658302,,,,,,,1964447.0
Mehringdamm,u-bahn,C I,19641202_west,"52.49388889,13.38833333",Q657905,,,,,,,1964796.0
Gneisenaustr.,u-bahn,C I,19641203_west,"52.49138889,13.39555556",,52.49138889,13.39555556,100.0,Gneisenaustr.,19651364_west,['C I'],
Südstern,u-bahn,C I,19641204_west,"52.48944444,13.40777778",,52.48944444,13.40777778,100.0,Südstern,19651365_west,['C I'],
Hermannplatz,u-bahn,C I,19641205_west,"52.48629000,13.42455000",Q658929,,,,,,,1964488.0
Rathaus Neukölln,u-bahn,C I,19641206_west,"52.48166667,13.43416667",,52.48166667,13.43416667,100.0,Rathaus Neukölln,19651367_west,['C I'],
Karl-Marx-Str.,u-bahn,C I,19641207_west,"52.47611111,13.43916667",,52.47611111,13.43916667,100.0,Karl-Marx-Str.,19651368_west,['C I'],
Neukölln (Südring),u-bahn,C I,19641208_west,"52.46944400,13.44222200",,52.469444,13.442222,100.0,Neukölln (Südring),19651369_west,['C I'],
Grenzallee,u-bahn,C I,19641209_west,"52.46333333,13.44388889",,52.46333333,13.44388889,100.0,Grenzallee,19651370_west,['C I'],
Blaschkoallee,u-bahn,C I,19641210_west,"52.45194444,13.44944444",,52.45194444,13.44944444,100.0,Blaschkoallee,19651371_west,['C I'],
Parchimerallee,u-bahn,C I,19641211_west,"52.44472222,13.44944444",,52.44472222,13.44944444,100.0,Parchimerallee,19651372_west,['C I'],
Britz-Süd,u-bahn,C I,19641212_west,"52.43777778,13.44805556",,52.43777778,13.44805556,100.0,Britz-Süd,19651373_west,['C I'],
Mehringdamm,u-bahn,C II,19641213_west,"52.49388889,13.38833333",,52.49388889,13.38833333,100.0,Mehringdamm,19651374_west,['C II'],
Flughafen,u-bahn,C II,19641214_west,"52.48555600,13.38583300",,52.485556,13.385833,100.0,Flughafen,19651375_west,['C II'],
Paradestr.,u-bahn,C II,19641215_west,"52.47805556,13.38611111",,52.47805556,13.38611111,100.0,Paradestr.,19651376_west,['C II'],
Tempelhof (Südring),u-bahn,C II,19641216_west,"52.47075000,13.38536111",,52.47075,13.38536111,100.0,Tempelhof (Südring),19651377_west,['C II'],
Gesundbrunnen,u-bahn,D,19641217_west,"52.54861100,13.38944400",,52.548611,13.389444,100.0,Gesundbrunnen,19651378_west,['D'],
Voltastr.,u-bahn,D,19641218_west,"52.54209300,13.39302200",,52.542093,13.393022,100.0,Voltastr.,19651379_west,['D'],
Moritzplatz,u-bahn,D,19641219_west,"52.50361111,13.41083333",,52.50361111,13.41083333,100.0,Moritzplatz,19651380_west,['D'],
Kottbusser Tor,u-bahn,D,19641220_west,"52.49916667,13.41805556",Q819768,,,,,,,1964633.0
Kottbusserdamm (Schönleinstr.),u-bahn,D,19641221_west,"52.49305556,13.42194444",,52.49305556,13.42194444,100.0,Kottbusserdamm (Schönleinstr.),19651382_west,['D'],
Hermannplatz,u-bahn,D,19641222_west,"52.48629000,13.42455000",,52.48629,13.42455,100.0,Hermannplatz,19651383_west,['D'],
Boddinstr.,u-bahn,D,19641223_west,"52.48000000,13.42527778",,52.48,13.42527778,100.0,Boddinstr.,19651384_west,['D'],
Leinestr.,u-bahn,D,19641224_west,"52.47277778,13.42833333",,52.47277778,13.42833333,100.0,Leinestr.,19651385_west,['D'],
Leopoldplatz,u-bahn,G,19641225_west,"52.54650000,13.35910000",,52.5465,13.3591,100.0,Leopoldplatz,19651386_west,['G'],
Amrumerstr.,u-bahn,G,19641226_west,"52.54250000,13.35027778",,52.5425,13.35027778,100.0,Amrumerstr.,19651387_west,['G'],
Pulitzstr.,u-bahn,G,19641227_west,"52.53679500,13.34272400",,52.536795,13.342724,100.0,Pulitzstr.,19651388_west,['G'],
Birkenstr.,u-bahn,G,19641228_west,"52.53222222,13.34138889",,52.53222222,13.34138889,100.0,Birkenstr.,19651389_west,['G'],
Turmstr.,u-bahn,G,19641229_west,"52.52585000,13.34135278",,52.52585,13.34135278,100.0,Turmstr.,19651390_west,['G'],
Hansaplatz,u-bahn,G,19641230_west,"52.51777778,13.34222222",,52.51777778,13.34222222,100.0,Hansaplatz,19651391_west,['G'],
Zoologischer Garten,u-bahn,G,19641231_west,"52.50586690,13.33302360",Q4024764,,,,,,,19641450.0
Kurfürstendamm,u-bahn,G,19641232_west,"52.50416667,13.33277778",Q663933,,,,,,,1964652.0
Spichernstr.,u-bahn,G,19641233_west,"52.49638889,13.33055556",Q667046,,,,,,,19641178.0
Gesundbrunnen,s-bahn,KBS 100,19641234_west,"52.54861111,13.38944444",Q111239092,,,,,,,1964378.0
Wedding,s-bahn,KBS 100,19641235_west,"52.54250000,13.36610000",Q638604,,,,,,,19641368.0
Putlitzstr.,s-bahn,KBS 100,19641236_west,"52.53600000,13.34400000",,52.536,13.344,100.0,Putlitzstr.,19651177_west,['KBS 100'],
Beusselstr.,s-bahn,KBS 100,19641237_west,"52.53444444,13.32916667",Q323219,,,,,,,1964123.0
Jungfernheide,s-bahn,KBS 100,19641238_west,"52.53035000,13.29943333",Q110977325,,,,,,,1964569.0
Westend,s-bahn,KBS 100,19641239_west,"52.51810000,13.28440000",,52.5181,13.2844,100.0,Westend,19651180_west,['KBS 100'],
Witzleben,s-bahn,KBS 100,19641240_west,"52.50780000,13.28360000",,52.5078,13.2836,100.0,Witzleben,19651181_west,['KBS 100'],
Westkreuz,s-bahn,KBS 100,19641241_west,"52.50110000,13.28390000",Q678125,,,,,,,19641384.0
Halensee,s-bahn,KBS 100,19641242_west,"52.49610000,13.29060000",,52.4961,13.2906,100.0,Halensee,19651183_west,['KBS 100'],
Hohenzollerndamm,s-bahn,KBS 100,19641243_west,"52.48850000,13.30040000",Q800503,,,,,,,1964519.0
Schmargendorf,s-bahn,KBS 100,19641244_west,"52.47967222,13.31244167",Q302810,,,,,,,19641109.0
Wilmersdorf,s-bahn,KBS 100,19641245_west,"52.47765833,13.32852500",Q464094,,,,,,,19641406.0
Innsbruckerplatz,s-bahn,KBS 100,19641246_west,"52.47860000,13.34390000",Q111263876,,,,,,,1964550.0
Schöneberg,s-bahn,KBS 100,19641247_west,"52.47940000,13.35170000",Q543855,,,,,,,19641123.0
Papestr.,s-bahn,KBS 100,19641248_west,"52.47560000,13.36440000",Q111323139,,,,,,,1964900.0
Tempelhof,s-bahn,KBS 100,19641249_west,"52.47080000,13.38540000",Q111264368,,,,,,,19641245.0
Hermannstr.,s-bahn,KBS 100,19641250_west,"52.46750000,13.43111111",Q111263802,,,,,,,1964489.0
Neukölln,s-bahn,KBS 100,19641251_west,"52.46916667,13.44166667",Q111325412,,,,,,,1964833.0
Sonnenallee,s-bahn,KBS 100,19641252_west,"52.47300000,13.45580000",,52.473,13.4558,100.0,Sonnenallee,19651193_west,['KBS 100'],
Gesundbrunnen,s-bahn,KBS 100a,19641253_west,"52.54861111,13.38944444",Q111239092,,,,,,,1964378.0
Wedding,s-bahn,KBS 100a,19641254_west,"52.54250000,13.36610000",,52.5425,13.3661,100.0,Wedding,19651195_west,['KBS 100a'],
Putlitzstr.,s-bahn,KBS 100a,19641255_west,"52.53600000,13.34400000",Q465972,,,,,,,1964958.0
Beusselstr.,s-bahn,KBS 100a,19641256_west,"52.53444444,13.32916667",,52.53444444,13.32916667,100.0,Beusselstr.,19651197_west,['KBS 100a'],
Jungfernheide,s-bahn,KBS 100a,19641257_west,"52.53035000,13.29943333",Q110977325,,,,,,,1964569.0
Siemensstadt-Fürstenbrunn,s-bahn,KBS 100a,19641258_west,"52.52800000,13.26950000",,52.528,13.2695,100.0,Siemensstadt-Fürstenbrunn,19651199_west,['KBS 100a'],
Spandau,s-bahn,KBS 100a,19641259_west,"52.53200000,13.20890000",,52.532,13.2089,100.0,Spandau,19651200_west,['KBS 100a'],
Spandau West,s-bahn,KBS 100a,19641260_west,"52.53470000,13.19580000",Q111325678,,,,,,,19641169.0
Heiligensee,s-bahn,KBS 100c,19641261_west,"52.62470000,13.22920000",,52.6247,13.2292,100.0,Heiligensee,19651207_west,['KBS 100c'],
Schulzendorf (b Tegel),s-bahn,KBS 100c,19641262_west,"52.61280000,13.24620000",,52.6128,13.2462,100.0,Schulzendorf (b Tegel),19651208_west,['KBS 100c'],
Tegel,s-bahn,KBS 100c,19641263_west,"52.58860000,13.28940000",,52.5886,13.2894,100.0,Tegel,19651209_west,['KBS 100c'],
Eichbornstr.,s-bahn,KBS 100c,19641264_west,"52.57760000,13.31690000",,52.5776,13.3169,100.0,Eichbornstr.,19651210_west,['KBS 100c'],
Wittenau (Kremmener Bahn),s-bahn,KBS 100c,19641265_west,"52.59701300,13.33432900",,52.597013,13.334329,100.0,Wittenau (Kremmener Bahn),19651211_west,['KBS 100c'],
Reinickendorf,s-bahn,KBS 100c,19641266_west,"52.57790000,13.35060000",,52.5779,13.3506,100.0,Reinickendorf,19651212_west,['KBS 100c'],
Schönholz,s-bahn,KBS 100c,19641267_west,"52.57140000,13.38140000",Q800490,,,,,,,19641137.0
Wollankstr.,s-bahn,KBS 100c,19641268_west,"52.56515250,13.39236270",Q800515,,,,,,,19641425.0
Gesundbrunnen,s-bahn,KBS 100c,19641269_west,"52.54861111,13.38944444",Q111239092,,,,,,,1964378.0
Humboldthain,s-bahn,KBS 100c,19641270_west,"52.54510000,13.37960000",Q481276,,,,,,,1964535.0
Friedrichstr.,s-bahn,KBS 100c,19641271_west,"52.52027778,13.38694444",Q111219456,,,,,,,1964356.0
Anhalter Bahnhof,s-bahn,KBS 100c,19641272_west,"52.50305556,13.38194444",Q111324573,,,,,,,196468.0
Yorckstr.,s-bahn,KBS 100c,19641273_west,"52.49177778,13.37214167",,52.49177778,13.37214167,100.0,Yorckstr.,19651219_west,['KBS 100c'],
Papestr.,s-bahn,KBS 100c,19641274_west,"52.47560000,13.36440000",Q111323139,,,,,,,1964900.0
Priesterweg,s-bahn,KBS 100c,19641275_west,"52.46010000,13.35630000",Q800508,,,,,,,1964949.0
Mariendorf,s-bahn,KBS 100c,19641276_west,"52.44780000,13.36090000",,52.4478,13.3609,100.0,Mariendorf,19651222_west,['KBS 100c'],
Marienfelde,s-bahn,KBS 100c,19641277_west,"52.42420000,13.37470000",,52.4242,13.3747,100.0,Marienfelde,19651223_west,['KBS 100c'],
Buckower Ch.,s-bahn,KBS 100c,19641278_west,"52.41030000,13.38290000",,52.4103,13.3829,100.0,Buckower Ch.,19651224_west,['KBS 100c'],
Lichtenrade,s-bahn,KBS 100c,19641279_west,"52.38760000,13.39630000",,52.3876,13.3963,100.0,Lichtenrade,19651225_west,['KBS 100c'],
Jungfernheide,s-bahn,KBS 100b,19641280_west,"52.53035000,13.29943333",,52.53035,13.29943333,100.0,Jungfernheide,19651203_west,['KBS 100b'],
Wernerwerk,s-bahn,KBS 100b,19641281_west,"52.53486300,13.27599000",,52.534863,13.27599,100.0,Wernerwerk,19651204_west,['KBS 100b'],
Siemensstadt,s-bahn,KBS 100b,19641282_west,"52.53923000,13.26365000",,52.53923,13.26365,100.0,Siemensstadt,19651205_west,['KBS 100b'],
Gartenfeld,s-bahn,KBS 100b,19641283_west,"52.54695000,13.24882000",,52.54695,13.24882,100.0,Gartenfeld,19651206_west,['KBS 100b'],
Gesundbrunnen,s-bahn,KBS 100d,19641284_west,"52.54861111,13.38944444",,52.54861111,13.38944444,100.0,Gesundbrunnen,19651226_west,['KBS 100d'],
Humboldthain,s-bahn,KBS 100d,19641285_west,"52.54510000,13.37960000",,52.5451,13.3796,100.0,Humboldthain,19651227_west,['KBS 100d'],
Friedrichstr.,s-bahn,KBS 100d,19641286_west,"52.52027778,13.38694444",Q111219456,,,,,,,1964356.0
Anhalter Bahnhof,s-bahn,KBS 100d,19641287_west,"52.50305556,13.38194444",Q111324573,,,,,,,196468.0
Yorckstr.,s-bahn,KBS 100d,19641288_west,"52.49177778,13.37214167",Q21776729,,,,,,,19641432.0
Papestr.,s-bahn,KBS 100d,19641289_west,"52.47560000,13.36440000",,52.4756,13.3644,100.0,Papestr.,19651231_west,['KBS 100d'],
Priesterweg,s-bahn,KBS 100d,19641290_west,"52.46010000,13.35630000",,52.4601,13.3563,100.0,Priesterweg,19651232_west,['KBS 100d'],
Südende,s-bahn,KBS 100d,19641291_west,"52.44810000,13.35360000",,52.4481,13.3536,100.0,Südende,19651233_west,['KBS 100d'],
Lankwitz,s-bahn,KBS 100d,19641292_west,"52.43860000,13.34170000",,52.4386,13.3417,100.0,Lankwitz,19651234_west,['KBS 100d'],
Lichterfelde Ost,s-bahn,KBS 100d,19641293_west,"52.43000000,13.32890000",,52.43,13.3289,100.0,Lichterfelde Ost,19651235_west,['KBS 100d'],
Lichterfelde Süd,s-bahn,KBS 100d,19641294_west,"52.41000000,13.30860000",,52.41,13.3086,100.0,Lichterfelde Süd,19651236_west,['KBS 100d'],
Frohnau,s-bahn,KBS 100e,19641295_west,"52.63250000,13.29020000",,52.6325,13.2902,100.0,Frohnau,19651237_west,['KBS 100e'],
Hermsdorf,s-bahn,KBS 100e,19641296_west,"52.61780000,13.30690000",,52.6178,13.3069,100.0,Hermsdorf,19651238_west,['KBS 100e'],
Waidmannslust,s-bahn,KBS 100e,19641297_west,"52.60640000,13.32100000",,52.6064,13.321,100.0,Waidmannslust,19651239_west,['KBS 100e'],
Wittenau (Nordbahn),s-bahn,KBS 100e,19641298_west,"52.59701300,13.33432900",,52.597013,13.334329,100.0,Wittenau (Nordbahn),19651240_west,['KBS 100e'],
Wilhelmsruh,s-bahn,KBS 100e,19641299_west,"52.58140000,13.36310000",,52.5814,13.3631,100.0,Wilhelmsruh,19651241_west,['KBS 100e'],
Schönholz,s-bahn,KBS 100e,19641300_west,"52.57140000,13.38140000",,52.5714,13.3814,100.0,Schönholz,19651242_west,['KBS 100e'],
Wollankstr.,s-bahn,KBS 100e,19641301_west,"52.56515250,13.39236270",,52.5651525,13.3923627,100.0,Wollankstr.,19651243_west,['KBS 100e'],
Gesundbrunnen,s-bahn,KBS 100e,19641302_west,"52.54861111,13.38944444",Q111239092,,,,,,,1964378.0
Humboldthain,s-bahn,KBS 100e,19641303_west,"52.54510000,13.37960000",Q481276,,,,,,,1964535.0
Friedrichstr.,s-bahn,KBS 100e,19641304_west,"52.52027778,13.38694444",,52.52027778,13.38694444,100.0,Friedrichstr.,19651246_west,['KBS 100e'],
Anhalter Bahnhof,s-bahn,KBS 100e,19641305_west,"52.50305556,13.38194444",,52.50305556,13.38194444,100.0,Anhalter Bahnhof,19651247_west,['KBS 100e'],
Großgörschenstr.,s-bahn,KBS 100e,19641306_west,"52.49227450,13.36785880",,52.4922745,13.3678588,100.0,Großgörschenstr.,19651248_west,['KBS 100e'],
Schöneberg,s-bahn,KBS 100e,19641307_west,"52.47940000,13.35170000",Q543855,,,,,,,19641123.0
Friedenau,s-bahn,KBS 100e,19641308_west,"52.47000000,13.34100000",,52.47,13.341,100.0,Friedenau,19651250_west,['KBS 100e'],
Feuerbachstr.,s-bahn,KBS 100e,19641309_west,"52.46361111,13.33277778",,52.46361111,13.33277778,100.0,Feuerbachstr.,19651251_west,['KBS 100e'],
Steglitz,s-bahn,KBS 100e,19641310_west,"52.45620000,13.32160000",,52.4562,13.3216,100.0,Steglitz,19651252_west,['KBS 100e'],
Botanischer Garten,s-bahn,KBS 100e,19641311_west,"52.44806000,13.30722000",,52.44806,13.30722,100.0,Botanischer Garten,19651253_west,['KBS 100e'],
Lichterfelde West,s-bahn,KBS 100e,19641312_west,"52.44330000,13.29470000",,52.4433,13.2947,100.0,Lichterfelde West,19651254_west,['KBS 100e'],
Sundgauer Str.,s-bahn,KBS 100e,19641313_west,"52.43629100,13.27377200",,52.436291,13.273772,100.0,Sundgauer Str.,19651255_west,['KBS 100e'],
Zehlendorf,s-bahn,KBS 100e,19641314_west,"52.43090000,13.25840000",Q737962,,,,,,,19641437.0
Lindenthalerallee,s-bahn,KBS 100e,19641315_west,"52.43750000,13.23250000",,52.4375,13.2325,100.0,Lindenthalerallee,19651257_west,['KBS 100e'],
Schlachtensee,s-bahn,KBS 100e,19641316_west,"52.44010000,13.21530000",,52.4401,13.2153,100.0,Schlachtensee,19651258_west,['KBS 100e'],
Nikolassee,s-bahn,KBS 100e,19641317_west,"52.43170000,13.19330000",Q637052,,,,,,,1964837.0
Wannsee,s-bahn,KBS 100e,19641318_west,"52.42140000,13.17920000",Q111325896,,,,,,,19641357.0
Zehlendorf,s-bahn,KBS 100f,19641319_west,"52.43090000,13.25840000",,52.4309,13.2584,100.0,Zehlendorf,19651261_west,['KBS 100f'],
Düppel-Kleinmachnow,s-bahn,KBS 100f,19641320_west,"52.42138889,13.22666667",,52.42138889,13.22666667,100.0,Düppel-Kleinmachnow,19651262_west,['KBS 100f'],
Friedrichstr.,s-bahn,KBS 100g,19641321_west,"52.52027778,13.38694444",Q111219456,,,,,,,1964356.0
Lehrter Stadtbahnhof,s-bahn,KBS 100g,19641322_west,"52.52530000,13.36940000",Q821299,,,,,,,1964695.0
Bellevue,s-bahn,KBS 100g,19641323_west,"52.52000000,13.34805556",Q374018,,,,,,,1964100.0
Tiergarten,s-bahn,KBS 100g,19641324_west,"52.51440000,13.33650000",Q572112,,,,,,,19641261.0
Zoologischer Garten,s-bahn,KBS 100g,19641325_west,"52.50722222,13.33250000",Q111326238,,,,,,,19641449.0
Savignyplatz,s-bahn,KBS 100g,19641326_west,"52.50517460,13.31906590",,52.5051746,13.3190659,100.0,Savignyplatz,19651268_west,['KBS 100g'],
Charlottenburg,s-bahn,KBS 100g,19641327_west,"52.50472222,13.30333333",Q111326217,,,,,,,1964229.0
Westkreuz,s-bahn,KBS 100g,19641328_west,"52.50110000,13.28390000",Q678125,,,,,,,19641384.0
Eichkamp,s-bahn,KBS 100g,19641329_west,"52.49870000,13.27020000",,52.4987,13.2702,100.0,Eichkamp,19651271_west,['KBS 100g'],
Heerstr.,s-bahn,KBS 100g,19641330_west,"52.50860000,13.25860000",,52.5086,13.2586,100.0,Heerstr.,19651272_west,['KBS 100g'],
Olympiastadion,s-bahn,KBS 100g,19641331_west,"52.51100000,13.24160000",,52.511,13.2416,100.0,Olympiastadion,19651273_west,['KBS 100g'],
Pichelsberg,s-bahn,KBS 100g,19641332_west,"52.51030000,13.22710000",,52.5103,13.2271,100.0,Pichelsberg,19651274_west,['KBS 100g'],
Spandau,s-bahn,KBS 100g,19641333_west,"52.53200000,13.20890000",Q800491,,,,,,,19641168.0
Spandau West,s-bahn,KBS 100g,19641334_west,"52.53470000,13.19580000",,52.5347,13.1958,100.0,Spandau West,19651276_west,['KBS 100g'],
Friedrichstr.,s-bahn,KBS 100h,19641335_west,"52.52027778,13.38694444",Q111219456,,,,,,,1964356.0
Lehrter Stadtbahnhof,s-bahn,KBS 100h,19641336_west,"52.52530000,13.36940000",,52.5253,13.3694,100.0,Lehrter Stadtbahnhof,19651278_west,['KBS 100h'],
Bellevue,s-bahn,KBS 100h,19641337_west,"52.52000000,13.34805556",,52.52,13.34805556,100.0,Bellevue,19651279_west,['KBS 100h'],
Tiergarten,s-bahn,KBS 100h,19641338_west,"52.51440000,13.33650000",,52.5144,13.3365,100.0,Tiergarten,19651280_west,['KBS 100h'],
Zoologischer Garten,s-bahn,KBS 100h,19641339_west,"52.50722222,13.33250000",,52.50722222,13.3325,100.0,Zoologischer Garten,19651281_west,['KBS 100h'],
Savignyplatz,s-bahn,KBS 100h,19641340_west,"52.50517460,13.31906590",Q554382,,,,,,,19641088.0
Charlottenburg,s-bahn,KBS 100h,19641341_west,"52.50472222,13.30333333",Q111326217,,,,,,,1964229.0
Westkreuz,s-bahn,KBS 100h,19641342_west,"52.50110000,13.28390000",,52.5011,13.2839,100.0,Westkreuz,19651284_west,['KBS 100h'],
Grunewald,s-bahn,KBS 100h,19641343_west,"52.48920000,13.26140000",,52.4892,13.2614,100.0,Grunewald,19651285_west,['KBS 100h'],
Nikolassee,s-bahn,KBS 100h,19641344_west,"52.43170000,13.19330000",,52.4317,13.1933,100.0,Nikolassee,19651286_west,['KBS 100h'],
Wannsee,s-bahn,KBS 100h,19641345_west,"52.42140000,13.17920000",,52.4214,13.1792,100.0,Wannsee,19651287_west,['KBS 100h'],
Zoologischer Garten,s-bahn,KBS 100k,19641346_west,"52.50722222,13.33250000",Q111326238,,,,,,,19641449.0
Savignyplatz,s-bahn,KBS 100k,19641347_west,"52.50517460,13.31906590",Q554382,,,,,,,19641088.0
Charlottenburg,s-bahn,KBS 100k,19641348_west,"52.50472222,13.30333333",,52.50472222,13.30333333,100.0,Charlottenburg,19651290_west,['KBS 100k'],
Halensee,s-bahn,KBS 100k,19641349_west,"52.49610000,13.29060000",Q800476,,,,,,,1964445.0
Hohenzollerndamm,s-bahn,KBS 100k,19641350_west,"52.48850000,13.30040000",,52.4885,13.3004,100.0,Hohenzollerndamm,19651291_west,['KBS 100k'],
Schmargendorf,s-bahn,KBS 100k,19641351_west,"52.47967222,13.31244167",,52.47967222,13.31244167,100.0,Schmargendorf,19651292_west,['KBS 100k'],
Wilmersdorf,s-bahn,KBS 100k,19641352_west,"52.47765833,13.32852500",,52.47765833,13.328525,100.0,Wilmersdorf,19651293_west,['KBS 100k'],
Innsbruckerplatz,s-bahn,KBS 100k,19641353_west,"52.47860000,13.34390000",,52.4786,13.3439,100.0,Innsbruckerplatz,19651294_west,['KBS 100k'],
Schöneberg,s-bahn,KBS 100k,19641354_west,"52.47940000,13.35170000",,52.4794,13.3517,100.0,Schöneberg,19651295_west,['KBS 100k'],
Papestr.,s-bahn,KBS 100k,19641355_west,"52.47560000,13.36440000",Q111323139,,,,,,,1964900.0
Tempelhof,s-bahn,KBS 100k,19641356_west,"52.47080000,13.38540000",,52.4708,13.3854,100.0,Tempelhof,19651297_west,['KBS 100k'],
Hermannstr.,s-bahn,KBS 100k,19641357_west,"52.46750000,13.43111111",,52.4675,13.43111111,100.0,Hermannstr.,19651298_west,['KBS 100k'],
Neukölln,s-bahn,KBS 100k,19641358_west,"52.46916667,13.44166667",,52.46916667,13.44166667,100.0,Neukölln,19651299_west,['KBS 100k'],
Köllnische Heide,s-bahn,KBS 100k,19641359_west,"52.46940000,13.46750000",,52.4694,13.4675,100.0,Köllnische Heide,19651300_west,['KBS 100k'],
Kladow,ferry,Kladow<>Wannsee,19641360_west,"52.45151499,13.14796194",,52.45151499,13.14796194,100.0,Kladow,19651173_west,['Kladow<>Wannsee'],
Wannsee,ferry,Kladow<>Wannsee,19641361_west,"52.42192802,13.17581596",,52.42192802,13.17581596,100.0,Wannsee,19651174_west,['Kladow<>Wannsee'],
"Weverstr., Strassenbahnhof",tram,75,196477_west,"52.51945953,13.19782255",,,,,,,,
"Weverstr., Strassenbahnhof",tram,76,196493_west,"52.51945953,13.19782255",,,,,,,,
Schwarzerweg Ecke Sonnenallee,tram,95,1964110_west,"52.46265165,13.47623014",,,,,,,,
Hermsdorferdamm Ecke Berlinerstr.,autobus,A12S,1964228_west,"52.62241287,13.31288332",,,,,,,,
Grünerweg Ecke Buschkrugallee,autobus,A25,1964404_west,"52.44268762,13.45630482",,,,,,,,
Goebenstr./Pallasstr.,autobus,A48,1964539_west,"52.49434723,13.36106400",,,,,,,,
Lichtenraderdamm Ecke Marienfelderchaussee,autobus,A52,1964577_west,"52.41455493,13.40115358",,,,,,,,
Tempelhoferdamm Ecke Alt-Tempelhof,autobus,A65,1964705_west,"52.46589619,13.38560286",,,,,,,,
"Wiebestr., Strassenbahnhof",autobus,A70,1964783_west,"52.53099513,13.31785810",,,,,,,,
Hauptstr. (Schöneberg),autobus,A74,1964840_west,"52.48179684,13.34834020",,,,,,,,
Mariendorferdamm Ecke Tauernallee,autobus,A76,1964865_west,"52.42330967,13.39620577",,,,,,,,
Platz Der Luftbrücke,autobus,A76,1964874_west,"52.48492679,13.38596879",,,,,,,,
Platz Der Luftbrücke,autobus,A78,1964900_west,"52.48492679,13.38596879",,,,,,,,
Grüntalerstr. Ecke Osloerstr.,autobus,A89,19641012_west,"52.55530184,13.39141731",,,,,,,,
Saatwinklerdamm Ecke Seestr.,autobus,A89,19641017_west,"52.53817296,13.32616463",,,,,,,,
Britzerdamm Ecke Tempelhoferweg,autobus,A91,19641049_west,"52.44890388,13.43623067",,,,,,,,
Saatwinklerdamm Ecke Seestr.,autobus,A99,19641071_west,"52.53817296,13.32616463",,,,,,,,
Görlitzer Bahnhof (Oranienstr.),u-bahn,A I,19641142_west,"52.49921491,13.42673540",,,,,,,,
Deutsche Oper (Bismarckstr.),u-bahn,A III,19641180_west,"52.51175946,13.30909221",,,,,,,,
