,line_id,stop_name,stop_order,stop_id
0,19461,Flughafen,0,1946151
1,19461,Franz-Mehring-Strasse,1,1946158
2,19461,Hallesches Tor,2,1946212
3,19461,Lindenstrasse,3,1946325
4,19461,Jerusalemer Strasse,4,1946257
5,19461,Dönhoffplatz,5,1946138
6,19461,Werderscher markt,6,1946596
7,19461,Schloßplatz,7,1946476
8,19461,Alexanderplatz,8,19462
9,19461,Alexanderstrasse,9,19466
10,19461,Holzmarkstrasse,10,1946240
11,19461,Schlesischer Bahnhof,11,1946472
12,19461,Am Schlesischen Bahnhof,12,194613
13,19461,Fruchtstrasse,13,1946172
14,19461,Kürstriner Platz,14,1946301
15,19461,Frankfurter Allee,15,1946153
16,19461,Frankfurter Allee Ecke Warschauer Strasse,16,1946157
17,19461,Frankfurter Allee Ecke Gürtelstrasse,17,1946156
18,19461,Alt-Friedrichsfelde,18,19468
19,19462,Hackescher Markt,0,1946206
20,19462,Rosenthaler Strasse,1,1946459
21,19462,Rosenthaler Platz,2,1946457
22,19462,Invalidenstrasse,3,1946252
23,19462,Stettiner Bhf.,4,1946531
26,19462,Chausseestrasse,5,1946125
27,19462,Friedrichstrasse,6,1946170
28,19462,Weidendammbrücke,7,1946589
29,19462,Prinz-Louis-Ferdinand-Strasse,8,1946426
30,19462,Dorotheenstrasse,9,1946136
31,19462,Hindenburgplatz,10,1946232
32,19462,Potsdamer Platz,11,1946414
33,19462,Anhalter Bahnhof,12,194618
34,19463,"Zehlendorf, Rathaus",0,1946628
35,19463,Potsdamer Chaussee,1,1946412
36,19463,Bhf. Nikolassee,2,194676
37,19463,Bhf. Wannsee,3,194683
38,19463,Stölpchensee,4,1946539
39,19464,Wiebestrasse,0,1946600
40,19464,Thälmannstrasse Ecke Waldstrasse,1,1946556
41,19464,Rathenower Strasse,2,1946436
42,19464,Alt-Moabit,3,194611
43,19464,Moltkebrücke,4,1946345
44,19464,Lehrter Bhf.,5,1946309
45,19464,Moltkestrasse,6,1946346
46,19464,Fürst-Bismarck-Strasse,7,1946173
47,19464,Königsplatz,8,1946291
48,19464,Hindenburgplatz,9,1946232
49,19464,Potsdamer Platz,10,1946414
50,19464,Anhalter Bhf.,11,194619
51,19465,Rosenthal,0,1946456
52,19465,Reichskanzlerdamm,1,1946437
53,19465,Bismarckplatz,2,194689
54,19465,Grabbeallee,3,1946189
55,19465,"Pankow, Schönholzer Strasse",4,1946395
56,19465,Wollankstrasse,5,1946620
57,19465,Wollankstrasse Ecke Brehmestrasse,6,1946621
58,19465,Prinzenallee Ecke Brehmestrasse,7,1946427
59,19465,Pankstrasse,8,1946400
60,19465,Nettelbeckplatz,9,1946360
61,19465,Reinickendorfer Strasse,10,1946448
62,19465,Weddingplatz,11,1946588
63,19465,Fennstrasse,12,1946149
64,19466,Warschauer Brücke,0,1946583
65,19466,Warschauer Strasse,1,1946586
66,19466,Baltenplatz,2,194632
67,19466,Elbinger Strasse Ecke Lansberger Allee,3,1946142
68,19466,Elbinger Strasse Ecke Prenzelauer Allee,4,1946143
69,19466,Danziger Strasse Ecke Schönhauser Allee,5,1946133
70,19466,Bernauer Strasse Ecke Brunnenstrasse,6,194653
71,19466,Strelitzerstrasse,7,1946536
72,19467,"Steglitz, Rathaus",0,1946527
73,19467,Schloßstrasse,1,1946477
74,19467,Unter den Eichen,2,1946571
75,19467,Berliner Strasse Ecke Thielallee,3,194647
76,19467,"Zehlendorf, Rathaus",4,1946628
77,19468,"Schönberg, Wartburgplatz",0,1946482
78,19468,Mühlenstrasse Ecke Hauptstrasse,1,1946355
79,19468,Bhf. Schöneberg,2,194680
80,19468,Sachsendamm,3,1946465
81,19468,Bhf. Papestrasse,4,194678
82,19468,"Tempelhof, Schöneberger Strasse",5,1946553
83,19468,Dorfstrasse,6,1946134
84,19468,Dorfstrasse Ecke Berliner Strasse,7,1946135
85,19468,Germaniastrasse,8,1946178
86,19468,Gottlieb-Dunkel-Strasse,9,1946187
87,19468,Mariendorfer Weg,10,1946336
88,19468,Mariendorfer Weg Ecke Chausseestrasse,11,1946337
89,19468,Knesebeckstrasse,12,1946279
90,19468,Bhf. Neukölln,13,194675
91,19468,Bergstrasse,14,194638
92,19468,Erkstrasse,15,1946145
93,19468,Wildenbruchstrasse,16,1946601
94,19468,"Treptow, Elsenstrasse",17,1946559
95,19469,"Seestrasse, Friedhöfe",0,1946501
96,19469,Seestrasse Ecke Müllerstrasse,1,1946500
97,19469,Seestrasse Ecke Markstrasse,2,1946499
98,19469,Osloer strasse,3,1946386
99,19469,Osloer Strasse Ecke Prinzenallee,4,1946385
100,19469,Bornholmer Strasse,5,194695
101,19469,Bhf. Bornholmer Strasse,6,194657
102,19469,Bornholmer Strasse Ecke Schönhauser Allee,7,194696
103,19469,Wisbyer Strasse Ecke Bornholmerstrasse,8,1946613
104,19469,Wisbyer Strasse Ecke Prenzlauer Allee,9,1946614
105,19469,Gustav-Adolf-Strasse Ecke Langhansstrasse,10,1946202
106,19469,"Berliner Allee, Antonplatz",11,194641
107,19469,Berliner Allee Ecke Lichtenberger strasse,12,194640
108,19469,Weißenseer Weg Ecke Hohenschönhauser Strasse,13,1946593
109,19469,"Lichtenberg, Röderplatz",14,1946315
110,19469,Möllendorffstrasse Ecke Scheffelstrasse,15,1946350
111,19469,Gürtelstrasse Ecke Frankfurter Allee,16,1946205
112,194610,Alexanderplatz,0,19462
113,194610,Schloßplatz,1,1946476
114,194610,Unter den Linden Ecke Friedrichstrasse,2,1946573
115,194610,Brandenburger Tor,3,194698
116,194610,Charlottenburger Chaussee,4,1946120
117,194610,"Charlottenburg, Knie",5,1946118
118,194611,Türschmidtstrasse Ecke Karlshorster Strasse,0,1946565
119,194611,Köpenicker Chaussee,1,1946297
120,194611,Kraftwerk Klingenberg,2,1946284
121,194612,Gotzkowskystrasse,0,1946188
122,194612,Thälmannstrasse Ecke Beusselstrasse,1,1946555
123,194612,Kaiserin-Augusta-Allee Ecke Tauroggener Strasse,2,1946267
124,194612,Berliner Strasse Ecke Wilmersdorfer Strasse,3,194649
125,194612,Wilmerdorfer Strasse,4,1946605
126,194612,Wilmersdorfer Strasse Ecke Kantstrasse,5,1946610
127,194612,Wilmersdorfer Strasse Ecke Kurfürstendamm,6,1946611
128,194612,Brandenburgische Strasse,7,194699
129,194612,Fehrbelliner Platz,8,1946147
130,194612,Berliner Strasse Ecke Kaiserallee,9,194645
131,194612,Bayerischer Platz,10,194635
132,194612,Grunewaldstrasse,11,1946199
134,194612,Goltzstrasse,12,1946186
135,194612,Winterfeldtplatz,13,1946612
136,194612,Pallasstrasse,14,1946390
137,194612,Pallasstrasse Ecke Potsdamer Strasse,15,1946391
138,194612,Goebenstrasse,16,1946185
139,194612,Yorckstrasse,17,1946624
140,194612,Yorckstrasse Ecke Franz-Mehring-Strasse,18,1946625
141,194612,Gneisenausstrasse,19,1946183
142,194612,Gardepionierplatz,20,1946175
143,194613,U-Bhf. Friedrichsfelde,0,1946567
144,194613,Treskowallee,1,1946562
145,194613,Warmbader Strasse,2,1946582
146,194613,Biesdorf-Süd,3,194687
147,194613,"Kaulsdorf-Süd, Zimmermannstrasse",4,1946274
148,194613,Ulmenstrasse,5,1946570
149,194613,"Mahlsdorf-Süd, Kohlisstrasse",6,1946332
150,194613,Akazienallee,7,19461
151,194613,"Dahlwitz, Kol. Waldesruh",8,1946130
152,194614,U-Bhf. Lichtenberg,0,1946568
153,194614,Alt-Friedrichsfelde,1,19468
154,194614,Alt-Biesdorf,2,19467
155,194614,Alt-Kaulsdorf,3,194610
156,194614,Bhf. Kaulsdorf,4,194666
157,194614,Giesestrasse,5,1946181
158,194614,"Mahlsdorf, Zeppelinstrasse",6,1946331
159,194614,Bahnhof Mahlsdorf,7,194627
160,194614,Hönower Strasse,8,1946248
161,194614,Hönow,9,1946247
162,194615,Buchholz,0,1946106
163,194615,Pasewalker Strasse,1,1946402
164,194615,Bhf. Pankow-Heinersdorf,2,194677
165,194615,"Pankow, Damerowstrasse",3,1946394
166,194615,Breite Strasse Ecke Berliner Strasse,4,1946100
167,194615,Wollankstrasse Ecke Schönholzer Strasse,5,1946622
168,194615,Wollankstrasse Ecke Brehmestrasse,6,1946621
169,194615,Prinzenallee Ecke Osloer Strasse,7,1946428
170,194615,Badstrasse Ecke Pankstrasse,8,194623
171,194615,"Brunnenstrasse, Gesundbrunnen",9,1946104
172,194615,Ramlerstrasse,10,1946432
173,194616,"Tegel, Alt-Tegel",0,1946545
174,194616,Berlinerstrasse Ecke Seidelstrasse,1,194650
175,194616,"Reinickendorf, Scharnweberstrasse",2,1946445
176,194616,Scharnweberstrasse Ecke Berliner Strasse,3,1946468
177,194616,Müllerstrasse,4,1946356
178,194616,Müllerstrasse Ecke Seestrasse,5,1946357
179,194616,Togostrasse,6,1946558
180,194617,Müggelheim,0,1946351
181,194617,Müggelheimer Damm,1,1946352
182,194617,"Köpenick, Krankenhaus",2,1946294
183,194618,Buckow,0,1946107
184,194618,Buckower Chaussee,1,1946110
186,194618,Chausseestrasse,2,1946124
188,194618,Chauseestrasse Ecke Blaschkoallee,3,1946122
189,194618,Hermannstrasse,4,1946227
190,194618,Bhf. Hermannstrasse,5,194664
191,194618,Hermannstrasse Ecke Leinestrasse,6,1946228
192,194618,"Neukölln, Steinmetzstrasse",7,1946366
193,194619,Tegelort,0,1946550
194,194619,Conradshöher Chaussee,1,1946126
195,194619,Tegeler Forst,2,1946548
196,194619,Conradshöher Chaussee Ecke Carolinenstrasse,3,1946127
197,194619,"Tegel, Schloßstrasse",4,1946546
199,194619,Berlinerstrasse Ecke Seidelstrasse,5,194650
200,194619,"Reinickendorf, Scharnweberstrasse",6,1946445
201,194619,Scharnweberstrasse Ecke Berliner Strasse,7,1946468
202,194619,Müllerstrasse,8,1946356
203,194619,Müllerstrasse Ecke Seestrasse,9,1946357
204,194619,Iranische Strasse Ecke Reinickendorfer Strasse,10,1946253
205,194619,Exerzierstrasse,11,1946146
206,194619,Badstrassse,12,194625
207,194619,Badstrasse Ecke Pankstrassse,13,194624
208,194619,"Brunnenstrasse, Gesundbrunnen",14,1946104
209,194619,Brunnenstrasse,15,1946103
210,194619,Ramlerstrasse,16,1946432
211,194620,Heiligensee,0,1946221
212,194620,Kirschallee,1,1946275
213,194620,Tegeler Forst,2,1946548
214,194620,Carolinenstrasse Ecke Conradshöher Chaussee,3,1946115
215,194620,"Tegel, Schloßstrasse",4,1946546
217,194620,Berlinerstrasse Ecke Seidelstrasse,5,194650
218,194620,"Reinickendorf, Scharnweberstrasse",6,1946445
219,194620,Scharnweberstrasse Ecke Berliner Strasse,7,1946468
220,194620,Müllerstrasse,8,1946356
221,194620,Müllerstrasse Ecke Seestrasse,9,1946357
222,194620,Iranische Strasse Ecke Reinickendorfer Strasse,10,1946253
223,194620,Exerzierstrasse,11,1946146
224,194620,Badstrassse,12,194625
225,194620,Badstrasse Ecke Pankstrassse,13,194624
226,194620,"Brunnenstrasse, Gesundbrunnen",14,1946104
227,194620,Brunnenstrasse,15,1946103
228,194620,Ramlerstrasse,16,1946432
229,194621,"Tegel, Alt-Tegel",0,1946545
230,194621,Berlinerstrasse Ecke Seidelstrasse,1,194650
231,194621,"Reinickendorf, Scharnweberstrasse",2,1946445
232,194621,"Reinickendorf-West, Berliner Strasse",3,1946447
233,194621,Humboldtstrasse,4,1946244
234,194621,Humboldtstrasse Ecke Berliner Strasse,5,1946245
235,194621,"Reinickendorf-Ost, Hauptstrasse",6,1946446
236,194621,Hauptstrasse Ecke Residenzstrasse,7,1946216
237,194621,Markstrasse,8,1946340
238,194621,Oskarplatz,9,1946384
239,194621,Reinickendorfer Strasse,10,1946448
240,194621,Reinickendorfer Strasse Ecke Iranische Strasse,11,1946450
241,194621,Exerzierstrasse,12,1946146
242,194621,Badstrassse,13,194625
243,194621,Badstrasse Ecke Pankstrassse,14,194624
244,194621,"Brunnenstrasse, Gesundbrunnen",15,1946104
245,194621,Ramlerstrasse,16,1946432
246,194622,"Wilhelmsruh, Hauptstrasse",0,1946604
247,194622,Kopenhagener Strasse,1,1946282
248,194622,"Reinickendorf, Residenzstrasse",2,1946444
249,194622,Residenzstrasse Ecke Hauptstrasse,3,1946452
250,194622,Marktstrasse,4,1946341
251,194622,Oskarplatz,5,1946384
252,194622,Reinickendorfer Strasse,6,1946448
253,194622,Reinickendorfer Strasse Ecke Iranische Strasse,7,1946450
254,194622,Exerzierstrasse,8,1946146
255,194622,Badstrassse,9,194625
256,194622,Badstrasse Ecke Pankstrassse,10,194624
257,194622,"Brunnenstrasse, Gesundbrunnen",11,1946104
258,194622,Ramlerstrasse,12,1946432
259,194623,Nordend,0,1946373
260,194623,"Niederschönhausen, Friedensplatz",1,1946369
261,194623,Bismarckstrasse,2,194690
262,194623,Bismarckplatz,3,194689
263,194623,Grabbeallee,4,1946189
264,194623,"Pankow, Breite Strasse",5,1946392
265,194623,Breite Strasse Ecke Berliner Strasse,6,1946100
266,194623,Berliner Strasse Ecke Vinetastrasse,7,194648
267,194623,Schönhauser Allee,8,1946488
268,194623,Schönhauser Allee Ecke Dänenstrasse,9,1946490
269,194623,Schönhauser Allee Ecke Danziger Strasse,10,1946489
270,194623,U-Bahnhof Danziger Strasse,11,1946566
271,194624,"Britz, Rudower Strasse",0,1946102
272,194624,Buschkrug,1,1946112
273,194624,"Buckow-Ost, Rudower Strasse",2,1946108
274,194624,"Rudow, Neuköllner Strasse",3,1946460
275,194624,Walterdorfer Chaussee,4,1946579
276,194624,Schönefeld,5,1946484
277,194625,Buchholz,0,1946106
278,194625,Pasewalker Strasse,1,1946402
279,194625,"Pankow, Damerowstrasse",2,1946394
280,194625,Breite Strasse Ecke Berliner Strasse,3,1946100
281,194625,Berliner Strasse Ecke Vinetastrasse,4,194648
282,194625,Schönhauser Allee,5,1946488
283,194625,Schönhauser Allee Ecke Wisbyer Strasse,6,1946491
284,194625,Schönhauser Allee Ecke Dänenstrasse,7,1946490
285,194625,Schönhauser Allee Ecke Danziger Strasse,8,1946489
286,194625,U-Bahnhof Danziger Strasse,9,1946566
287,194626,"Spandau, Johannesstrift",0,1946514
288,194626,Schönwalder Allee,1,1946495
289,194626,Schönwalder Strasse,2,1946496
290,194626,Hafenplatz,3,1946207
291,194626,Carl-Schurz-Strasse,4,1946114
292,194626,Spandau Markt,5,1946512
293,194626,Grenadierstrasse,6,1946193
295,194626,Grunewaldstrasse,7,1946200
296,194626,Ruhlebener Strasse,8,1946462
297,194626,"Charlottenburger Chaussee, U-Bhf. Ruhleben",9,1946121
298,194626,Spandauer Chaussee,10,1946517
299,194626,Spandauer Berg,11,1946516
300,194626,Spandauer Strasse Ecke Schloßstrasse,12,1946518
301,194626,Richard-Wagner-Platz,13,1946453
302,194627,Spandau markt,0,1946513
303,194627,"Haselhorst, Gartenfelder Strasse",1,1946214
304,194627,Paulsternstrasse,2,1946403
305,194627,Nonnendammallee,3,1946372
306,194627,Siemensstadt,4,1946505
307,194627,Bhf. Jungfernheide,5,194665
308,194627,Tegeler Weg,6,1946549
309,194627,Osnabrücker Strasse,7,1946387
310,194627,Kaiserin-Augusta-Allee Ecke Wiebestrasse,8,1946268
311,194627,Gotzkowskystrasse,9,1946188
312,194628,"Weißensee, Rennbahnstrasse",0,1946592
313,194628,"Berliner Allee, Antonplatz",1,194641
314,194628,Greifswalder Strasse,2,1946191
315,194628,Bhf. Weißensee,3,194685
316,194628,Greifswalder Strasse Ecke Danziger Strasse,4,1946192
317,194628,Neue Königstrasse,5,1946363
318,194628,Jostystrasse,6,1946261
319,194628,Prenzlauer Strasse Ecke Prenzlauer Allee,7,1946424
320,194628,Alexanderplatz,8,19464
321,194628,Molkenmarkt,9,1946344
322,194628,Rathaus,10,1946434
323,194629,"Charlottenburg, Königin-Elisabeht-Strasse",0,1946119
324,194629,Spandauer Strasse Ecke Schloßtrasse,1,1946519
325,194629,Suarezstrasse Ecke Kaiserdamm,2,1946541
326,194629,Suarezstrasse,3,1946540
327,194629,Kantstrasse,4,1946269
328,194629,Bhf. Charlottenburg,5,194658
329,194629,Stuttgarter Platz,6,1946537
330,194629,Wilmersdorfer Strasse,7,1946608
332,194629,Wilmersdorfer Strasse Ecke Kurfürstendamm,8,1946611
333,194629,Brandenburgische Strasse,9,194699
334,194629,Fehrbelliner Platz,10,1946147
335,194629,Hohenzollerndamm,11,1946238
336,194629,"Wilmersdorf, Emser Platz",12,1946607
337,194630,"Hohenschönhausen, Degener Strasse",0,1946234
338,194630,Weißenseer Weg Ecke Hohenschönhauser Strasse,1,1946593
339,194630,Hohenschönhauser Strasse,2,1946235
340,194630,"Landsberger Allee, Steuerhaus",3,1946304
341,194630,Bhf. Lansberger Allee,4,194669
342,194630,Landsberger Allee Ecke Elbinger Strasse,5,1946303
343,194630,Alexanderplatz,6,19464
344,194630,Molkenmarkt,7,1946344
345,194630,Rathaus,8,1946434
346,194631,"Lichtenberg, Scheffelstrasse",0,1946316
347,194631,Eldenaer Strasse,1,1946144
348,194631,Forkenbeckplatz,2,1946152
349,194631,Baltenplatz,3,194632
350,194631,Petersburger Strasse Ecke Landsberger Allee,4,1946405
351,194631,Alexanderplatz,5,19464
352,194631,Molkenmarkt,6,1946344
353,194631,Rathaus,7,1946434
354,194632,"Wittenau, Nordbahnhof",0,1946616
355,194632,Oranienburger Strasse Ecke Wilhelmsruher Damm,1,1946380
356,194632,"Reinickendorf, Berliner Strasse Ecke Waldstrasse",2,1946443
357,194632,Berliner Strasse Ecke Humboldtstrasse,3,194644
358,194632,Berliner Strasse Ecke Scharnweberstrasse,4,194646
359,194632,Müllerstrasse,5,1946356
360,194632,Müllerstrasse Ecke Seestrasse,6,1946357
361,194632,Togostrasse,7,1946558
362,194633,Landsberger Allee Ecke Elbinger Strasse,0,1946303
363,194633,Bhf. Landsberger Allee,1,194668
364,194633,"Landsberger Allee, Steuerhaus",2,1946304
365,194633,"Lichtenberg, Röderplatz",3,1946315
366,194633,Herzbergstrasse,4,1946230
367,194633,Siegfriedstrasse,5,1946503
368,194633,Bhf. Lichtenberg,6,194670
369,194633,Alt-Friedrichsfelde,7,19469
370,194633,"Karlshorst, Treskowallee",8,1946270
371,194633,Treskowallee Ecke Warmbader Strasse,9,1946563
372,194633,Karlshorster Chaussee,10,1946271
373,194633,"Oberschöneweide, Edisonstrass Ecke Wilhelminenhofstrasse",11,1946375
374,194634,"Weißensee, Rennbahnstrasse",0,1946592
375,194634,"Berliner Allee, Antonplatz",1,194641
376,194634,Langhansstrasse,2,1946305
377,194634,Gustav-Adolf-Strasse Ecke Prenzlauer Allee,3,1946203
378,194634,Prenzlauer Allee,4,1946420
379,194634,Bhf. Prenzlauer Allee,5,194679
380,194634,Prenzlauer Allee Ecke Danziger Strasse,6,1946421
381,194634,Prenzlauer Strasse Ecke Prenzlauer Allee,7,1946424
382,194634,Alexanderplatz,8,19464
383,194634,Molkenmarkt,9,1946344
384,194634,Rathaus,10,1946434
385,194635,Heinersdorf,0,1946222
386,194635,Prenzlauer Promenade,1,1946422
387,194635,Prenzlauer Promenade Ecke Gustav-Adolf-Strasse,2,1946423
388,194635,Prenzlauer Allee,3,1946420
389,194635,Bhf. Prenzlauer Allee,4,194679
390,194635,Prenzlauer Allee Ecke Danziger Strasse,5,1946421
391,194635,Prenzlauer Strasse Ecke Prenzlauer Allee,6,1946424
392,194635,Alexanderplatz,7,19464
393,194635,Molkenmarkt,8,1946344
394,194635,Rathaus,9,1946434
395,194636,"Lichterfelde, Händelplatz",0,1946322
396,194636,Hindenburgdamm,1,1946231
397,194636,"Steglitz, Rathaus",2,1946528
398,194636,"Friedenau, Rheinstrasse",3,1946165
399,194636,Innsbrucker Platz,4,1946250
400,194636,Hauptstrasse Ecke Mühlenstrasse,5,1946215
401,194636,Postdamer Strasse Ecke Hauptstrasse,6,1946410
402,194636,Potsdamer Strasse Ecke Pallasstrasse,7,1946418
403,194636,Potsdamer Strasse Ecke Kurfürstenstrasse,8,1946417
404,194636,Potsdamer Platz,9,1946414
405,194636,Leipziger Strasse Ecke Friedrichstrasse,10,1946312
406,194636,Dönhoffplatz,11,1946139
407,194636,Spittelmarkt,12,1946521
408,194637,Hakenfelde,0,1946209
409,194637,Niederneuendorfer Allee,1,1946368
410,194637,Streitstrasse,2,1946535
411,194637,Neuendorfer Strasse,3,1946364
412,194637,Hafenplatz,4,1946207
413,194637,Oranienburger Tor,5,1946381
414,194637,"Spandau, Markt",6,1946515
415,194637,Carl-Schurz-Strasse,7,1946114
416,194637,Klosterstrasse Ecke Seeburgerstrasse,8,1946278
417,194637,Pichelsdorfer Strasse,9,1946408
418,194637,Alt-Pichelsdorf,10,194612
419,194638,Freybrücke,0,1946162
420,194638,Bhf. Heerstrasse,1,194663
421,194638,Reichskanzlerplatz,2,1946438
422,194638,Kaiserdamm,3,1946265
423,194638,Masurenallee,4,1946342
424,194638,Kantstrasse,5,1946269
425,194638,Bhf. Charlottenburg,6,194658
427,194638,Wilmersdorfer Strasse,7,1946609
428,194638,Wilmersdorfer Strasse Ecke Kurfürstendamm,8,1946611
429,194638,Halensee,9,1946211
430,194638,"Grunewald, Hubertusallee",10,1946198
431,194639,Joachimstaler Strasse,0,1946258
432,194639,Kurfürstendamm,1,1946287
433,194639,Kurfürstendamm Ecke Wilmersdorfer Strasse,2,1946288
434,194639,Bhf. Halensee,3,194662
435,194639,Hubertusallee,4,1946241
436,194639,Hagenplatz,5,1946208
437,194639,Roseneck,6,1946455
438,194640,"Lichterfelde-Süde, Goerzallee Ecke Appenzeller Strasse",0,1946323
439,194640,Ringstrasse Ecke Finckensteinallee,1,1946454
440,194640,"Lichterfelde-West, Drakestrasse",2,1946324
441,194640,Händelplatz,3,1946246
442,194640,Hindenburgdamm,4,1946231
443,194640,"Steglitz, Rathaus",5,1946528
444,194640,"Friedenau, Rheinstrasse",6,1946165
445,194640,"Friedenau, Friedrich-Wilhelm-Platz",7,1946164
446,194640,Kaiserallee Ecke Berliner Strasse,8,1946263
447,194640,Kaiserallee Ecke Spichernstrasse,9,1946264
448,194640,Joachimstaler Strasse Ecke Kurfürstendamm,10,1946259
449,194640,Kantstrasse,11,1946269
450,194641,Molkenmarkt,0,1946344
451,194641,Schicklerstrasse Ecke Alexanderstrasse,1,1946469
452,194641,Jannowitzbrücke,2,1946255
453,194641,Am Schlesischen Bahnhof,3,194614
454,194641,Mühlenstrasse,4,1946354
455,194641,Stralauer Allee Ecke Warschauerstrasse,5,1946533
456,194641,Markgrafendamm,6,1946339
467,194643,Bhf. Grünau,0,194661
468,194643,Sportpromenade,1,1946523
469,194643,Vetschauer Allee,2,1946575
470,194643,Schmöckwitz,3,1946479
471,194644,Dönhoffplatz,0,1946139
472,194644,Spittelmarkt,1,1946521
473,194644,Märkisches Museum,2,1946348
474,194644,Neanderstrasse Ecke Köpenicker Strasse,3,1946359
475,194644,Köpenicker Strasse,4,1946300
476,194644,Schlesisches Tor,5,1946474
477,194644,"Treptow, Elsenstrasse",6,1946559
478,194644,Am Treptower Park,7,194615
479,194644,Köpenicker Landstrasse,8,1946298
480,194644,Bhf. Baumschulenweg,9,194656
481,194644,"Oberschöneweide, Nalepastrasse Ecke Karlshorsterstrasse",10,1946376
482,194644,Wilhelminenhofstrasse,11,1946602
483,194644,Ostendstrasse,12,1946388
484,194644,Weißkopfstrasse,13,1946594
485,194644,An der Wuhlheide,14,194616
486,194644,Lindenstrasse Ecke Bahnhofstrasse,15,1946326
487,194644,"Köpenick, Bellevuestrasse",16,1946293
488,194644,Müggelseedamm,17,1946353
489,194644,Bhf. Friedrichshagen,18,194659
490,194644,Fürstenwalder Damm,19,1946174
491,194644,Rahnsdorf,20,1946431
492,194645,"Treptow, Rathaus",0,1946560
493,194645,Bulgarische Strasse,1,1946111
494,194645,Köpenicker Landstrasse Ecke Baumschulenstrasse,2,1946299
495,194645,Bahnhof Schöneweide,3,194628
496,194645,Sternendamm,4,1946529
497,194645,Johannisthal,5,1946260
498,194646,Hermannplatz,0,1946224
499,194646,Sonnenallee,1,1946507
500,194646,Sonnenallee Ecke Erkstrasse,2,1946508
501,194646,"Sonnenallee, S-Bahn",3,1946509
502,194646,Baumschulenstrasse,4,194633
503,194646,Bhf. Baumschulenweg,5,194656
504,194646,Köpenicker Landstrasse,6,1946298
505,194646,Bhf. Schöneweide,7,194681
506,194646,"Oberschöneweide, Nalepastrasse Ecke Karlshorsterstrasse",8,1946376
507,194646,Wilhelminenhofstrasse,9,1946602
508,194646,Ostendstrasse,10,1946388
509,194646,Weißkopfstrasse,11,1946594
510,194646,An der Wuhlheide,12,194616
511,194646,Lindenstrasse Ecke Bahnhofstrasse,13,1946326
512,194646,Dammbrücke,14,1946131
513,194646,Wendenschloßstrasse Ecke Müggelheimer Strasse,15,1946595
514,194646,"Köpenick, Krankenhaus",16,1946295
515,194647,Machnower Schleuse,0,1946328
516,194647,Stahnsdorf,1,1946525
517,194647,Potsdamer Strasse,2,1946416
518,194647,"Teltow, Hindenburgplatz",3,1946551
519,194647,Schützenplatz,4,1946497
520,194647,Kranoldplatz,5,1946285
521,194647,"Lankwitz, Kaiser-Wilhelm-Strasse",6,1946307
522,194647,Attilastrasse,7,194621
523,194647,Bhf. Mariendorf,8,194674
524,194647,Attilaplatz,9,194620
527,194648,Baerwaldstrasse Ecke Gneisenaustrasse,0,194626
528,194648,Franz-Mehring-Strasse Ecke Gneisenaustrasse,1,1946160
529,194648,Bhf. Tempelhof,2,194682
530,194648,Berliner Strasse Ecke Dorfstrasse,3,194643
531,194648,Friedrich-Karl-strasse,4,1946166
532,194648,Attilaplatz,5,194620
533,194648,"Mariendorf, Zastrowstrasse",6,1946335
534,194648,Chausseestrasse,7,1946123
537,194648,Lichtenrader Chaussee,8,1946318
538,194648,Bahnhofstrasse,9,194629
540,194648,Bhf. Lichtenrade,10,194672
541,194649,Nordend,0,1946373
542,194649,Bismarckplatz,1,194689
543,194649,Grabbeallee,2,1946189
544,194649,"Pankow, Wollankstrasse",3,1946397
545,194649,Wollankstrasse Ecke Brehmestrasse,4,1946621
546,194649,Badstrasse Ecke Pankstrasse,5,194623
547,194649,"Brunnenstrasse, Gesundbrunnen",6,1946104
548,194649,Ramlerstrasse,7,1946432
549,194650,Gesundbrunnen,0,1946179
550,194650,Schönhauser Allee,1,1946487
551,194650,Prenzlauer Allee,2,1946419
552,194650,Greifswalder Str.,3,1946190
553,194650,Frankfurter Allee,4,1946154
554,194650,Ostkreuz,5,1946389
555,194650,Treptower Park,6,1946561
556,194650,Sonnenallee,7,1946506
557,194650,Neukölln,8,1946365
558,194650,Hermannstr.,9,1946226
559,194650,Tempelhof,10,1946552
560,194650,Papestr.,11,1946401
561,194650,Schöneberg,12,1946483
562,194650,Innsbrucker Platz,13,1946249
563,194650,Wilmersdorf,14,1946606
564,194650,Schmargendorf,15,1946478
565,194650,Hohenzollerndamm,16,1946237
566,194650,Halensee,17,1946210
567,194650,Westkreuz,18,1946599
568,194650,Witzleben,19,1946618
569,194650,Westend,20,1946598
570,194650,Jungfernheide,21,1946262
571,194650,Beusselstr.,22,194655
572,194650,Putlitzstr.,23,1946430
573,194650,Wedding,24,1946587
574,194650,Gesundbrunnen,25,1946179
575,194651,Hermannstr.,0,1946226
576,194651,Neukölln,1,1946365
577,194651,Köllnische Heide,2,1946290
578,194651,Baumschulenweg,3,194634
579,194651,Schöneweide,4,1946485
580,194651,Betriebsbahnhof Schöneweide,5,194654
581,194651,Adlershof,6,19460
582,194651,Grünau,7,1946201
583,194652,Jungfernheide,0,1946262
584,194652,Wernerwerk,1,1946597
585,194652,Siemensstadt,2,1946504
586,194652,Gartenfeld,3,1946177
587,194653,Spandau,0,1946511
588,194653,Pichelsberg,1,1946406
589,194653,Reichssportfeld,2,1946441
590,194653,Heerstr.,3,1946217
591,194653,Eichkamp,4,1946141
592,194653,Westkreuz,5,1946599
593,194653,Charlottenburg,6,1946117
594,194653,Savignyplatz,7,1946467
595,194653,Zoologischer Garten,8,1946631
596,194653,Tiergarten,9,1946557
597,194653,Bellevue,10,194637
598,194653,Lehrter Stadtbahnhof,11,1946310
599,194653,Friedrichstr.,12,1946169
600,194653,Börse,13,1946113
601,194653,Alexanderplatz,14,19463
602,194653,Jannowitzbrücke,15,1946254
603,194653,Schlesischer Bahnhof,16,1946473
604,194653,Warschauer Str.,17,1946585
605,194653,Ostkreuz,18,1946389
606,194653,Treptower Park,19,1946561
607,194653,Baumschulenweg,20,194634
608,194653,Schöneweide,21,1946485
609,194653,Betriebsbahnhof Schöneweide,22,194654
610,194653,Adlershof,23,19460
611,194653,Grünau,24,1946201
612,194654,Schöneweide,0,1946485
613,194654,Oberspree,1,1946377
614,194654,Spindlersfeld,2,1946520
615,194655,Bernau,0,194651
616,194655,Zepernick,1,1946629
617,194655,Röntgental,2,1946463
618,194655,Buch,3,1946105
619,194655,Karow,4,1946272
620,194655,Blankenburg,5,194691
621,194655,Pankow-Heinersdorf,6,1946398
622,194655,Pankow-Schönhausen,7,1946399
623,194655,Bornholmer Str.,8,194694
624,194655,Gesundbrunnen,9,1946179
625,194655,Humboldthain,10,1946243
626,194655,Stettiner Bahnhof,11,1946530
627,194656,Potsdamer Platz,0,1946413
628,194656,Anhalter Bahnhof,1,194617
629,194656,Yorckstr.,2,1946623
630,194656,Papestr.,3,1946401
631,194656,Priesterweg,4,1946425
632,194656,Südende,5,1946543
633,194656,Lankwitz,6,1946306
634,194656,Lichterfelde Ost,7,1946319
635,194656,Lichterfelde Süd,8,1946320
636,194657,Oranienburg,0,1946379
637,194657,Lehnitz,1,1946308
638,194657,Borgsdorf,2,194693
639,194657,Birkenwerder,3,194688
640,194657,Hohen-Neuendorf,4,1946233
641,194657,Frohnau,5,1946171
642,194657,Hermsdorf,6,1946229
643,194657,Waidmannslust,7,1946578
644,194657,Wittenau,8,1946615
645,194657,Wilhelmsruh,9,1946603
646,194657,Schönholz,10,1946493
647,194657,Wollankstr.,11,1946619
648,194657,Bornholmer Str.,12,194694
649,194657,Gesundbrunnen,13,1946179
650,194657,Humboldthain,14,1946243
651,194657,Stettiner Bahnhof,15,1946530
652,194658,Friedrichstr.,0,1946169
653,194658,Unter den Linden,1,1946572
654,194658,Potsdamer Platz,2,1946413
655,194658,Anhalter Bahnhof,3,194617
656,194658,Großgörschenstr.,4,1946196
657,194658,Schöneberg,5,1946483
658,194658,Friedenau,6,1946163
659,194658,Feuerbachstr.,7,1946150
660,194658,Steglitz,8,1946526
661,194658,Botanischer Garten,9,194697
662,194658,Lichterfelde West,10,1946321
663,194658,Sundgauer Str.,11,1946542
664,194658,Zehlendorf,12,1946626
665,194658,Zehlendorf West,13,1946627
666,194658,Schlachtensee,14,1946471
667,194658,Nikolassee,15,1946370
668,194658,Wannsee,16,1946581
669,194658,Dreilinden,17,1946137
670,194659,Velten,0,1946574
671,194659,Hohenschöpping,1,1946236
672,194659,Hennigsdorf,2,1946223
673,194659,Heiligensee,3,1946220
674,194659,Schulzendorf,4,1946480
675,194659,Tegel,5,1946544
676,194659,Eichbornstr.,6,1946140
677,194659,Wittenau,7,1946615
678,194659,Reinickendorf,8,1946442
679,194659,Schönholz,9,1946493
680,194659,Wollankstr.,10,1946619
681,194659,Bornholmer Str.,11,194694
682,194659,Gesundbrunnen,12,1946179
683,194659,Humboldthain,13,1946243
684,194659,Stettiner Bahnhof,14,1946530
685,194660,Potsdamer Platz,0,1946413
686,194660,Anhalter Bahnhof,1,194617
687,194660,Yorckstr.,2,1946623
688,194660,Papestr.,3,1946401
689,194660,Priesterweg,4,1946425
690,194660,Mariendorf,5,1946334
691,194660,Marienfelde,6,1946338
692,194660,Buckower Ch.,7,1946109
693,194660,Lichtenrade,8,1946317
694,194660,Mahlow,9,1946330
695,194660,Dahlewitz,10,1946129
696,194660,Rangsdorf,11,1946433
697,194661,Potsdam,0,1946411
698,194661,Babelsberg,1,194622
699,194661,Griebnitzsee,2,1946195
700,194661,Wannsee,3,1946581
701,194661,Nikolassee,4,1946370
702,194661,Grunewald,5,1946197
703,194661,Westkreuz,6,1946599
704,194661,Charlottenburg,7,1946117
705,194661,Savignyplatz,8,1946467
706,194661,Zoologischer Garten,9,1946631
707,194661,Tiergarten,10,1946557
708,194661,Bellevue,11,194637
709,194661,Lehrter Stadtbahnhof,12,1946310
710,194661,Friedrichstr.,13,1946169
711,194661,Börse,14,1946113
712,194661,Alexanderplatz,15,19463
713,194661,Jannowitzbrücke,16,1946254
714,194661,Schlesischer Bahnhof,17,1946473
715,194661,Warschauer Str.,18,1946585
716,194661,Ostkreuz,19,1946389
717,194661,Neu-Lichtenberg,20,1946361
718,194661,Lichtenberg,21,1946314
719,194661,Friedrichsfelde Ost,22,1946168
720,194661,Biesdorf,23,194686
721,194661,Kaulsdorf,24,1946273
722,194662,"Pankow, Vinetastrasse",0,1946396
723,194662,Schönhauser Alle,1,1946486
724,194662,Danziger Strasse,2,1946132
725,194662,Senefelderplatz,3,1946502
726,194662,Schönhauser Tor,4,1946492
727,194662,Alexanderplatz,5,19465
728,194662,Klosterstrasse,6,1946277
729,194662,Märkisches Museum,7,1946349
730,194662,Spittelmarkt,8,1946522
731,194662,Stadtmitte,9,1946524
732,194662,Potsdamer Platz,10,1946415
733,194662,Gleisdreieck,11,1946182
734,194662,Kurfürstenstrasse,12,1946289
735,194662,Nollendorfplatz,13,1946371
736,194662,Wittenbergplatz,14,1946617
737,194663,Wittenbergplatz,0,1946617
738,194663,Zoo,1,1946630
739,194663,Knie,2,1946280
740,194663,Städtische Oper,3,1946538
741,194663,Sophie-Charlotte-Platz,4,1946510
742,194663,Kaiserdamm,5,1946266
743,194663,Reichskanzlerplatz,6,1946439
744,194663,Neu-Westend,7,1946362
745,194663,Reichsportfeld,8,1946440
746,194663,Ruhleben,9,1946461
747,194664,Wittenbergplatz,0,1946617
748,194664,Nürnberger Platz,1,1946374
749,194664,Hohenzollernplatz,2,1946239
750,194664,Fehrbelliner Platz,3,1946148
751,194664,Heidelberger Platz,4,1946219
752,194664,Rüdesheimer Platz,5,1946464
753,194664,Breitenbachplatz,6,1946101
754,194664,Podbielskiallee,7,1946409
755,194664,Dahlem-Dorf,8,1946128
756,194664,Thielplatz,9,1946554
757,194664,Oskar-Helene-Heim,10,1946383
758,194664,Onkel Toms Hütte,11,1946378
759,194664,Krumme Lanke,12,1946286
760,194665,Hallesches Tor,0,1946213
761,194665,Prinzenstrasse,1,1946429
762,194665,Kottbusser Tor,2,1946283
763,194665,Görlitzer Bahnhof,3,1946204
764,194665,Schlesisches Tor,4,1946475
765,194665,Warschauer Brücke,5,1946584
766,194666,Innsbrucker Platz,0,1946251
767,194666,Bayerischer Platz,1,194636
768,194666,Viktoria-Luise-Platz,2,1946576
769,194666,Nollendorfplatz,3,1946371
770,194667,Wittenbergplatz,0,1946617
771,194667,Uhlandstrasse,1,1946569
772,194668,Seestrasse,0,1946498
773,194668,Leopoldplatz,1,1946313
774,194668,Bhf. Wedding,2,194684
775,194668,Reinickendorfer Strasse,3,1946449
776,194668,Schwartzkopffstrasse,4,1946481
777,194668,Stettiner Bhf.,5,1946532
778,194668,Oranienburger Tor,6,1946382
779,194668,Bhf. Friedrichstrasse,7,194660
780,194668,Französische Strasse,8,1946161
781,194668,Stadtmitte,9,1946524
782,194668,Kochstrasse,10,1946281
783,194668,Hallesches Tor,11,1946213
784,194668,Franz-Mehring-Strasse,12,1946159
785,194668,Gneisenaustrasse,13,1946184
786,194668,Gardepionierplatz,14,1946176
787,194668,Hermannplatz,15,1946225
788,194668,Rathaus Neukölln,16,1946435
789,194668,Bergstrasse,17,194639
790,194668,"Neukölln, Südring",18,1946367
791,194668,Grenzallee,19,1946194
792,194669,Gesundbrunnen,0,1946180
793,194669,Voltastrasse,1,1946577
794,194669,Bernauer Strasse,2,194652
795,194669,Rosenthaler Platz,3,1946458
796,194669,Weinmeisterstrasse,4,1946590
797,194669,Alexanderplatz,5,19465
798,194669,Jannowitzbrücke,6,1946256
799,194669,Neanderstrasse,7,1946358
800,194669,Moritzplatz,8,1946347
801,194669,Kottbusser Tor,9,1946283
802,194669,Schönleinstrasse,10,1946494
803,194669,Hermannplatz,11,1946225
804,194669,Boddinstrasse,12,194692
805,194669,Leinestrasse,13,1946311
806,194670,Alexanderplatz,0,19465
807,194670,Schillingstrasse,1,1946470
808,194670,Strausberger Platz,2,1946534
809,194670,Memeler Strasse,3,1946343
810,194670,Petersburger Strasse,4,1946404
811,194670,Samariterstrasse,5,1946466
812,194670,Frankfurter Allee,6,1946155
813,194670,Magdalenenstrasse,7,1946329
814,194670,Bhf. Lichtenberg,8,194671
815,194670,Friedrichsfelde,9,1946167
816,194671,"Pichelsberg, Stössenseebrücke",0,1946407
817,194671,Kladow,1,1946276
818,194671,Wannsee,2,1946580
