,stop_id,stop_name,type,location,in_lines,identifier
0,19510,Adamstrasse Ecke Wilhelmstrasse,bus,"52.5210974258045, 13.187990320264987",['A13'],nan
1,19511,Adlershof,s-bahn,"52.434722222222,13.541388888889","['KBS 100a', 'KBS 103']",Q323551
2,19512,"Adlershof, Oppenbrücke (Benzolwerk)",strassenbahn,"52.42607491619971, 13.555219462749426",['84'],nan
3,19513,Alboinstrasse Ecke Schönebergerstrasse,strassenbahn,"52.4698434808757, 13.372061552266187",['6'],nan
4,19514,Albrechtshof,s-bahn,"52.5494,13.1283",['KBS 103'],Q800470
5,19515,Alexanderplatz,s-bahn,"52.521388888889,13.411944444444","['KBS 101', 'KBS 103', 'KBS 102']",Q111324700
6,19516,Alexanderplatz,strassenbahn,"52.5219449,13.4143847",['1'],Q65548996
7,19517,Alexanderplatz,u-bahn,"52.5214,13.4119","['A I', 'D', 'E']",Q17173458
8,19518,"Alexanderplatz, Grunerstrasse",strassenbahn,"52.52008326268696, 13.41408418961877","['73', '71', '72', '74']",nan
9,19519,"Alexanderplatz, Grunestrasse",strassenbahn,"52.52008326268696, 13.41408418961877",['64'],nan
10,195110,"Alexanderplatz, Neue Königsstrasse",strassenbahn,"52.52208108570033, 13.416386259940168","['69', '65']",nan
11,195111,"Alt-Blankenburg, Kirche",bus,"52.59331569949531, 13.453672869643954",['A42'],nan
12,195112,"Alt-Buch, Kirche",bus,"52.63517918139864, 13.498694001682974",['A42'],nan
13,195113,"Alt-Glienicke, Am Falkenberg",strassenbahn,"52.418565185694725, 13.54870199909426",['84'],nan
14,195114,"Alt-Karow, Kirche",bus,"52.612016271884954, 13.483134353282757",['A42'],nan
15,195115,"Alt-Kladow, Kladow",bus,"52.452286936783146, 13.148573109235501",['A34'],nan
16,195116,Alt-Kladow/Postamt,bus,"52.45329658628831, 13.143672713561154",['A6'],nan
17,195117,Alt-Mariendorf Ecke Mariendorfer Damm,strassenbahn,"52.440183277735734, 13.387302593017989",['99'],nan
18,195118,"Alt-Marzahn, Kirche",bus,"52.542423454435976, 13.564061751343658",['A37'],nan
19,195119,Alt-Schmöckwitz,strassenbahn,"52.3752767,13.649549",['86'],Q66459540
20,195120,Alt-Stralau,strassenbahn,"52.49468919413395, 13.469335878032831",['82'],nan
21,195121,Alt-Tegel,strassenbahn,"52.58996564977717, 13.283262344042182","['29', '28']",nan
22,195122,Alt-Tempelhof Ecke Manteuffelstrasse,strassenbahn,"52.46634095404091, 13.37810810086383",['95'],nan
23,195123,Alt-Tempelhof Ecke Tempelhofer Damm,strassenbahn,"52.46570700613851, 13.385583393690512","['99', '98', '96']",nan
24,195124,Am Knie,bus,"52.512731625753695, 13.321879176786634",['A2'],nan
25,195125,Am Pilz,bus,"52.64251497264632, 13.300908054411988",['A12'],nan
26,195126,Am Vierrutenberg,bus,"52.613535544271876, 13.343827205969221",['A35'],nan
27,195127,Amtsgericht,strassenbahn,"52.50682617853116, 13.297391449613752",['75'],nan
28,195128,Amtsgerichtsplatz,strassenbahn,"52.50684966542204, 13.295305350985814",['60'],nan
29,195129,Andreasplatz,strassenbahn,"52.515147470791824, 13.431936833016952",['1'],nan
30,195130,Anhalter Bahnhof,s-bahn,"52.503055555556,13.381944444444","['KBS 105', 'KBS 104', 'KBS 105b', 'KBS 106']",Q111324573
31,195131,Anhalter Bahnhof,strassenbahn,"52.50453275122, 13.382326534592197",['88'],nan
32,195132,Anhalter Bhf.,strassenbahn,"52.50449054956299, 13.382289924849571","['76', '21']",nan
33,195133,Antonplatz,strassenbahn,"52.5484803,13.4517416","['73', '74', '70', '72']",Q65548849
34,195134,"Arnswalder Platz, Elbingerstrasse",bus,"52.53376530892205, 13.438121296337357",['A9'],nan
35,195135,Attilaplatz,strassenbahn,"52.455498340147045, 13.375619638525905","['95', '96']",nan
36,195136,Augustenburger Platz,bus,"52.542186362228115, 13.34942313975666",['A16'],nan
37,195137,Augustenburger Platz (Virchow-Krankenhaus),strassenbahn,"52.54262309891454, 13.350809060614289",['23'],nan
38,195138,Ausstellungshallen,strassenbahn,"52.506444118860614, 13.282481087316041",['75'],nan
39,195139,Babelsberg,s-bahn,"52.3914,13.0928",['KBS 102'],Q801326
40,195140,Badewiese Ecke Kladower Damm,bus,"52.47885441421296, 13.179170959997965",['A34'],nan
41,195141,Badstrasse Ecke Pankstrasse,strassenbahn,"52.55227848989899, 13.381428333797949","['36', '23']",nan
42,195142,Bahnhof Wedding,u-bahn,"52.5425,13.366111",['C I'],Q4018733
43,195143,Bahnhofstrasse Ecke Lindenstrasse,bus,"52.45096281111, 13.572146868709519",['A27'],nan
44,195144,Baselerstrasse,strassenbahn,"52.43778761993494, 13.295382291568542",['77'],nan
45,195145,Baumschulenstrasse,strassenbahn,"52.469081846595664, 13.491329912138305",['91'],nan
46,195146,Baumschulenstrasse Ecke Köpenicker Landstrasse,strassenbahn,"52.46911904990173, 13.491364972283247","['92', '87']",nan
47,195147,Baumschulenweg,s-bahn,"52.4675,13.489722","['KBS 100a', 'KBS 103']",Q324336
48,195148,Bayerischer Platz,strassenbahn,"52.48857550103818, 13.340030405284534","['60', '3']",nan
49,195149,Bayerischer Platz,u-bahn,"52.488333333333,13.340277777778",['B I'],Q668574
50,195150,Bellevue,s-bahn,"52.52,13.348055555556","['KBS 101', 'KBS 103', 'KBS 102']",Q374018
51,195151,Berlin-Düppel railway station,s-bahn,"52.421388888889,13.226666666667",['KBS 104a'],Q44763529
52,195152,Berliner Allee Ecke Langhansstrasse,strassenbahn,"52.54829145473993, 13.45089437827843",['3'],nan
53,195153,Berliner Allee Ecke Wörthstrasse,bus,"52.55009424620509, 13.458977628134445",['A45'],nan
54,195154,Berlinerstrasse Ecke Bahnhofstrasse,bus,"52.5886097047125, 13.284703495457908",['A15'],nan
55,195155,Berlinerstrasse Ecke Bernauerstrasse,bus,"52.576291888956334, 13.29470160184664",['A13'],nan
56,195156,Berlinerstrasse Ecke Blissestrasse,strassenbahn,"52.48648462511159, 13.320423728961352",['44'],nan
57,195157,Berlinerstrasse Ecke Bundes Allee,strassenbahn,"52.48733987181299, 13.331006268658216",['78'],nan
58,195158,Berlinerstrasse Ecke Cauerstrasse,bus,"52.51470366671483, 13.315196935865384",['A1 (Obus)'],nan
59,195159,Berlinerstrasse Ecke Clayallee,bus,"52.43504762674881, 13.260472542540109",['A1 (Obus)'],nan
60,195160,Berlinerstrasse Ecke Kissingenstrasse,bus,"52.56623733190026, 13.41239119018649",['A45'],nan
61,195161,Berlinerstrasse Ecke Scharnweberstrasse,strassenbahn,"52.56174645165573, 13.332114282477823","['29', '68', '25', '28']",nan
62,195162,Berlinerstrasse Ecke Seehofstrasse,bus,"52.435122980032475, 13.263526555702784","['A2', 'A3E', 'A10']",nan
63,195163,Berlinerstrasse Ecke Uhlandstrasse,strassenbahn,"52.48648936437959, 13.322515759458744",['51'],nan
64,195164,Berlinerstrasse Ecke Wilmersdorferstrasse,strassenbahn,"52.51811539274252, 13.30443163055141","['55', '3']",nan
65,195165,Berlinerstrasse Ecke Wismarerstrasse,strassenbahn,"52.41789027146363, 13.305256671134225",['96'],nan
66,195166,Bernau (b Bln),s-bahn,"52.6763,13.5931",['KBS 106'],Q479789
67,195167,Bernauer Str.,u-bahn,"52.5375,13.396666666667",['D'],Q689293
68,195168,Bernauerstrasse (Gaswerke),strassenbahn,"52.57630737183232, 13.294803627120631","['29', '41', '25', '28']",nan
69,195169,Bernauerstrasse Ecke Seidelstrasse,bus,"52.57630748183792, 13.29475298796469",['A15'],nan
70,195170,Bersarinplatz,strassenbahn,"52.519215,13.4525257",['14'],Q65706258
71,195171,Bersarinstrasse Ecke Warschauerstrasse,strassenbahn,"52.515812587152176, 13.4540451841521",['14'],nan
72,195172,Bersarinstrasse station,strassenbahn,"52.51581114083106, 13.45391663572392",['13'],nan
73,195173,Bersarinstraße,u-bahn,"52.515833333333,13.454166666667",['E'],Q568627
74,195174,Betriebsbahnhof Rummelsburg,s-bahn,"52.4939,13.4978",['KBS 102'],Q829009
75,195175,Betriebsbahnhof Schöneweide,s-bahn,"52.44676,13.52391","['KBS 100a', 'KBS 103']",Q4526101
76,195176,Beusselstr.,s-bahn,"52.534444444444,13.329166666667",['KBS 100'],Q323219
77,195177,Bhf. Adlershof,strassenbahn,"52.435251,13.5408489",['84'],Q66363728
78,195178,Bhf. Ahrensfelde,bus,"52.572333444533385, 13.564401403038115",['A39'],nan
79,195179,Bhf. Alexanderplatz,bus,"52.521287385126946, 13.413242035902146",['A9'],nan
80,195180,Bhf. Botanischer Garten,strassenbahn,"52.44730098506532, 13.3083006582632",['77'],nan
81,195181,Bhf. Dimitroffstrasse,strassenbahn,"52.541092044596525, 13.412118223158679",['46'],nan
82,195182,Bhf. Friedrichsfelde-Ost,bus,"52.513684528182814, 13.5190749997554",['A43'],nan
83,195183,Bhf. Friedrichshagen,strassenbahn,"52.457326972958604, 13.625511399091163","['84', '87']",nan
84,195184,Bhf. Friedrichstrasse,bus,"52.5205606637086, 13.388231915342985",['A9'],nan
85,195185,Bhf. Frohnau,bus,"52.63311782571585, 13.28947655939645",['A12'],nan
86,195186,Bhf. Gesundbrunnen,strassenbahn,"52.54913505997412, 13.38715173368261","['36', '24', '29', '28']",nan
87,195187,Bhf. Grenzallee,strassenbahn,"52.463524509112794, 13.44434640805339",['26'],nan
88,195188,Bhf. Grünau,bus,"52.413602111638376, 13.57383674098834",['A38'],nan
89,195189,Bhf. Grünau,strassenbahn,"52.413493,13.5746802",['86'],Q62470512
90,195190,Bhf. Halensee,bus,"52.496865585452014, 13.289557340809273",['A10'],nan
91,195191,Bhf. Halensee,strassenbahn,"52.49688327253505, 13.289515124907771","['76', '76E']",nan
92,195192,Bhf. Heerstrasse,strassenbahn,"52.50857975740797, 13.258353900023156",['75'],nan
93,195193,Bhf. Hermannstrasse,strassenbahn,"52.4676866643192, 13.431210901516543",['27'],nan
94,195194,Bhf. Hohenzollerndamm,strassenbahn,"52.488282179186875, 13.301391593074351",['57'],nan
95,195195,Bhf. Jannowitzbrücke,strassenbahn,"52.51476676652865, 13.417918697531025","['64', '82']",nan
96,195196,Bhf. Jungfernheide,strassenbahn,"52.53103413649224, 13.300559481238167","['35', '55']",nan
97,195197,Bhf. Kaulsdorf,bus,"52.511553392977326, 13.587295035057858",['A27'],nan
98,195198,Bhf. Köpenick,bus,"52.45903849108803, 13.579752050654333",['A27'],nan
99,195199,Bhf. Köpenick,strassenbahn,"52.4582153,13.5790435",['86'],Q66370784
100,1951100,Bhf. Leinestrasse,strassenbahn,"52.47287038914969, 13.428386424828846",['27'],nan
101,1951101,Bhf. Lichtenberg,bus,"52.5112875601879, 13.499591119128855",['A37'],nan
102,1951102,Bhf. Lichtenrade,strassenbahn,"52.38669305818232, 13.39694576786419",['99'],nan
103,1951103,Bhf. Lichterfelde-Ost,bus,"52.42911680950547, 13.329847267881705","['A11', 'A17']",nan
104,1951104,Bhf. Lichterfelde-Ost,strassenbahn,"52.4289149405705, 13.329002919186095",['73'],nan
105,1951105,Bhf. Lichterfelde-West,bus,"52.44397675869793, 13.295628699942629",['A11'],nan
106,1951106,Bhf. Lichterfelde-West,strassenbahn,"52.442695165817675, 13.297046489476738",['77'],nan
107,1951107,"Bhf. Mahlsdorf, Wodanstrasse",bus,"52.513030991111414, 13.612143033758265",['A44'],nan
108,1951108,Bhf. Mariendorf,bus,"52.446757741789085, 13.360550212856184",['A33 (Obus)'],nan
109,1951109,Bhf. Marienfelde,bus,"52.42342246533686, 13.374664175181172",['A32 (Obus)'],nan
110,1951110,Bhf. Neukölln,strassenbahn,"52.469429556071695, 13.441761396090287",['15'],nan
111,1951111,Bhf. Nikolassee,bus,"52.43378197004219, 13.193152057415048",['A3'],nan
112,1951112,"Bhf. Oberspree, Sedanstrasse",strassenbahn,"52.45286111181883, 13.537408090053463",['92'],nan
113,1951113,Bhf. Pankow-Heinersdorf,strassenbahn,"52.5777355,13.4281593",['24'],Q66195804
114,1951114,Bhf. Schmargendorf,strassenbahn,"52.479600994756, 13.31144106616216",['51'],nan
115,1951115,Bhf. Schöneweide,strassenbahn,"52.45640818289644, 13.509916574756422",['92'],nan
116,1951116,Bhf. Schönhauser Allee,strassenbahn,"52.5493619,13.4135734",['46'],Q65088013
117,1951117,Bhf. Sonnenallee,strassenbahn,"52.47414312526527, 13.455499525035636",['15'],nan
118,1951118,Bhf. Spandau,bus,"52.53480116953711, 13.199406530019054",['A31'],nan
119,1951119,Bhf. Spandau,strassenbahn,"52.53469533777715, 13.199489615484376",['54'],nan
120,1951120,Bhf. Spandau-West,strassenbahn,"52.53468662307173, 13.19955429513998",['55'],nan
121,1951121,Bhf. Staaken,bus,"52.53772932234946, 13.142241542778422",['A31'],nan
122,1951122,Bhf. Steglitz,bus,"52.4567389564548, 13.32114701824465",['A33 (Obus)'],nan
123,1951123,Bhf. Steglitz,strassenbahn,"52.45628485348418, 13.322383851748043",['44'],nan
124,1951124,Bhf. Südende,bus,"52.44906892859584, 13.354097834514832",['A33 (Obus)'],nan
125,1951125,Bhf. Tegel,bus,"52.58863500559534, 13.28998515086127","['A14', 'A15', 'A13']",nan
126,1951126,Bhf. Tempelhof,strassenbahn,"52.470773327648985, 13.385638027802058","['99', '96']",nan
127,1951127,Bhf. Vinetastrasse,strassenbahn,"52.5596168,13.413232",['46'],Q65075426
128,1951128,Bhf. Waidmannslust,bus,"52.60711750606285, 13.32022370793147",['A35'],nan
129,1951129,Bhf. Wannsee,bus,"52.42151302311533, 13.17810256503659",['A3'],nan
130,1951130,Bhf. Wittenau,bus,"52.59721246906266, 13.332631469768408",['A15'],nan
131,1951131,Bhf. Wollankstrasse,strassenbahn,"52.56476177190086, 13.393786862899335",['24'],nan
132,1951132,Bhf. Wollankstrasse (Grenze),strassenbahn,"52.56456034033213, 13.393509953257857",['23'],nan
133,1951133,Bhf. Zehlendorf,bus,"52.43121177777893, 13.259164408129196","['A1 (Obus)', 'A10']",nan
134,1951134,Bhf. Zehlendorf-West,bus,"52.43749073325525, 13.232184039572378",['A3'],nan
135,1951135,Bhf. Zoo,strassenbahn,"52.50719345524868, 13.332629878993917","['78', '2', '51', '55', '25', '75', '76E', '77', '76', '6']",nan
136,1951136,Biesdorf,s-bahn,"52.5131,13.5554",['KBS 101'],Q4892357
137,1951137,Birkbuschstrasse Ecke Siemensstrasse,strassenbahn,"52.442440684586664, 13.332088961364885",['44'],nan
138,1951138,Birkenwerder,s-bahn,"52.6885,13.2888",['KBS 104'],Q2343634
139,1951139,Birkholzer Weg,bus,"52.58925893789958, 13.54179506249629",['A39'],nan
140,1951140,Bismarckplatz,bus,"52.57979168986186, 13.398319596978663",['A7'],nan
141,1951141,Bismarckplatz,strassenbahn,"52.57979168986186, 13.398319596978663","['23', '46']",nan
142,1951142,Bismarckstrasse Ecke Seckenderstrasse,bus,"52.574272942118064, 13.389636689803694",['A45'],nan
143,1951143,Blankenburg,s-bahn,"52.5915,13.4435",['KBS 106'],Q800469
144,1951144,Blankenburger Weiche,strassenbahn,"52.59393771117341, 13.432128114084042",['24'],nan
145,1951145,Blankenfelde (Kr. Teltow),s-bahn,"52.3376,13.4158",['KBS 105b'],Q800539
146,1951146,"Blankenfelde, Hauptstrasse",bus,"52.63002534735451, 13.38262328371393",['A7'],nan
147,1951147,Boddinstr.,u-bahn,"52.48,13.425277777778",['D'],Q819495
148,1951148,"Bohnsdorf, Kirche",bus,"52.39948771402893, 13.555574431978044",['A36'],nan
149,1951149,"Bohnsdorf, Sportplatz",bus,"52.40873726242791, 13.573369528361487",['A38'],nan
150,1951150,Bootshaus,strassenbahn,"52.43487037297527, 13.571440285315381",['86'],nan
151,1951151,Borgsdorf,s-bahn,"52.7155,13.2764",['KBS 104'],Q4093486
152,1951152,Bornholmer Str.,s-bahn,"52.554287,13.397985","['KBS 105', 'KBS 104', 'KBS 106']",Q32662318
153,1951153,Bornholmerstrasse/Wisbyerstrasse,strassenbahn,"52.55369799817566, 13.41455279709447",['46'],nan
154,1951154,Borsigweg Ecke Schubstrasse,bus,"52.586455563379296, 13.300007551407003",['A15'],nan
155,1951155,Botanischer Garten,s-bahn,"52.44806,13.30722",['KBS 104'],Q800498
156,1951156,Boxhagenerstrasse,strassenbahn,"52.508620954574766, 13.466318705478798",['3'],nan
157,1951157,Boxhagenerstrasse Ecke Warschauerstrasse,strassenbahn,"52.51424772971829, 13.453372646730351",['4'],nan
158,1951158,Brandenburger Tor,strassenbahn,"52.51622498759891, 13.376846111129943",['21'],nan
159,1951159,Brandenburgischestrasse Ecke Berlinerstrasse,strassenbahn,"52.48647889641657, 13.320415858318503",['3'],nan
160,1951160,Breitenbachplatz,bus,"52.467219717443385, 13.309473490660878",['A32 (Obus)'],nan
161,1951161,Breitenbachplatz,u-bahn,"52.466388888889,13.308055555556",['A II'],Q571339
162,1951162,Breitenbachstrasse Ecke Eichborndamm,bus,"52.57783789535704, 13.314837431368987",['A15'],nan
163,1951163,Breitestrasse Ecke Berlinerstrasse,bus,"52.570941080892716, 13.410036663941128",['A45'],nan
164,1951164,Breitestrasse Ecke Mühlendamm,strassenbahn,"52.514073531830235, 13.405784015836483",['82'],nan
165,1951165,Breitestrasse Ecke Wollankstrasse,bus,"52.56934411219486, 13.401138885825842",['A45'],nan
166,1951166,Brunnenstrasse Ecke Veteranenstrasse,strassenbahn,"52.53261091338409, 13.398928219832015",['70'],nan
167,1951167,Brückenstrasse/Neanderstrasse,strassenbahn,"52.51101580461269, 13.416490097144802",['1'],nan
168,1951168,Buch,s-bahn,"52.6359,13.4917",['KBS 106'],Q4892359
169,1951169,"Buch, Zepernickerstrasse (Ludwig-Hoffmann-Krankenhaus)",bus,"52.63316196724486, 13.51360237687453",['A42'],nan
170,1951170,"Buchholz, Hauptstrasse",strassenbahn,"52.619072064369824, 13.393383358408967","['49', '24']",nan
171,1951171,"Buckow-West, Alt-Buckow",strassenbahn,"52.42367200048651, 13.436616090884883",['27'],nan
172,1951172,Buckower Ch.,s-bahn,"52.4103,13.3829",['KBS 105b'],Q800499
173,1951173,Bundesallee Ecke Berliner Strasse,strassenbahn,"52.48733630342845, 13.331014163134173",['77'],nan
174,1951174,Bundesallee Ecke Berlinerstrasse,strassenbahn,"52.48736505635926, 13.331070877561359","['60', '3']",nan
175,1951175,Bundesplatz,bus,"52.478678991134835, 13.32860278411238",['A16'],nan
176,1951176,Bundesplatz,strassenbahn,"52.4777799057296, 13.328566193541166","['78', '44', '77']",nan
177,1951177,Buschkrugallee Ecke Blaschkoallee,strassenbahn,"52.45253801877737, 13.452184085382104","['26', '47']",nan
178,1951178,Bülowstr.,u-bahn,"52.497552777778,13.363419444444",['A I'],Q374881
179,1951179,Chamnitzerstrasse Ecke Ulmenstrasse,bus,"52.48729656642197, 13.57493499439454",['A8'],nan
180,1951180,Charlottenburg,s-bahn,"52.504722222222,13.303333333333","['KBS 101', 'KBS 103', 'KBS 102']",Q111326217
181,1951181,Charlottenstrasse Ecke Taubenstrasse,strassenbahn,"52.513122303707654, 13.391373467504213",['72'],nan
182,1951182,Charlottenstrasse Ecke Unter den Linden,strassenbahn,"52.51713042068094, 13.390698613680291",['1'],nan
183,1951183,Chausseehaus,bus,"52.430090871325774, 13.614694292071622",['A27'],nan
184,1951184,Chausseestrasse Ecke Invalidenstrasse,bus,"52.53058679882093, 13.38309848189674",['A9'],nan
185,1951185,Chaussestrasse Ecke Gradestrasse,strassenbahn,"52.45265805297483, 13.438538838443751",['26'],nan
186,1951186,Chemnitzerstrasse Ecke Alt-Kaulsdorf,bus,"52.50512959168446, 13.581581347259965",['A27'],nan
187,1951187,Chemnitzerstrasse Ecke Ulmenstrasse,bus,"52.487292887135375, 13.574950596463296",['A27'],nan
188,1951188,Clayallee Ecke Potsdamerstrasse,bus,"52.435048367666376, 13.260383979802686",['A3E'],nan
189,1951189,Cäcilienstrasse,bus,"52.529646990986734, 13.558004345591469",['A37'],nan
190,1951190,"Dahlem, Clayallee",strassenbahn,"52.45975923254636, 13.274628659008574",['40'],nan
191,1951191,Dahlem-Dorf,bus,"52.45806501426621, 13.290247119457892",['A10'],nan
192,1951192,Dahlem-Dorf,u-bahn,"52.456944444444,13.289444444444",['A II'],Q668585
193,1951193,Dahlemer Weg Ecke Seehofstrasse,bus,"52.42635119855681, 13.276835963403045",['A3E'],nan
194,1951194,Dahlewitz,s-bahn,"52.326389,13.419722",['KBS 105b'],Q5208886
195,1951195,Daimlerstrasse Ecke Birnhornweg,strassenbahn,"52.42214076766627, 13.384616153471871",['98'],nan
196,1951196,Danziger Strasse Ecke Prenzlauer Allee,strassenbahn,"52.53920346792057, 13.424227321808168",['71'],nan
197,1951197,Danzigerstrasse Ecke Greifswalderstrasse,strassenbahn,"52.5364975,13.4334045","['73', '74']",Q65548960
198,1951198,Deutsches Opernhaus (Bismarckstr.),u-bahn,"52.511944444444,13.310555555556","['A I', 'A III']",Q869501
199,1951199,Dimitroffstr.,u-bahn,"52.541666666667,13.412222222222",['A I'],Q571382
200,1951200,Dimitroffstrasse Ecke Bersarinstrasse,strassenbahn,"52.52636032920993, 13.44768303998197",['65'],nan
201,1951201,Dimitroffstrasse Ecke Leninallee,bus,"52.52644398829154, 13.447645022319072",['A41'],nan
202,1951202,Dimitroffstrasse Ecke Prenzlauer Allee,strassenbahn,"52.539226902813354, 13.424209201692193",['72'],nan
203,1951203,Dimitroffstrasse/Bersarinstrasse,strassenbahn,"52.52636032920993, 13.44768303998197",['69'],nan
204,1951204,Dingelstädterstrasse (Hohenschönhausen) Ecke Landsbergerstrasse,bus,"52.53645981797132, 13.524681683536592",['A41'],nan
205,1951205,Dominicusstrasse Ecke Hauptstrasse,strassenbahn,"52.48178458875194, 13.348361062077318","['73', '88', '74']",nan
206,1951206,Dorotheestrasse (Bhf. Friedrichstrasse),strassenbahn,"52.519245115375696, 13.388441130713867",['1'],nan
207,1951207,Dorothenstrasse Ecke Friedrichstrasse,strassenbahn,"52.51869159969621, 13.38850463130464",['46'],nan
208,1951208,Drakestrasse (Bhf. Lichterfelde-West),strassenbahn,"52.4439352057809, 13.295640488876149",['78'],nan
209,1951209,Dudenstrasse Ecke Mehringdamm,strassenbahn,"52.48494436612744, 13.385946358190168",['99'],nan
210,1951210,Dönhoffplatz,strassenbahn,"52.509950568117645, 13.398144081918815","['46', '73', '74']",nan
211,1951211,"Dönhoffplatz, Krausenstrasse",strassenbahn,"52.510082685363386, 13.398911668058874","['64', '92', '87']",nan
212,1951212,"Eberswalderstrasse, U-Bhf. Dimitroffstrasse",strassenbahn,"52.5401928,13.4113979",['49'],Q65088313
213,1951213,Eberwalderstrasse Ecke Schönhauserallee,strassenbahn,"52.54105750045252, 13.412118593924529",['4'],nan
214,1951214,Edelweißstrasse Ecke Germanenstrasse,bus,"52.585349757447666, 13.374579655951965",['A45'],nan
215,1951215,Eichbornstr.,s-bahn,"52.5776,13.3169",['KBS 105'],Q800500
216,1951216,Eichkamp,s-bahn,"52.4987,13.2702","['KBS 101', 'KBS 103']",Q800504
217,1951217,Eichwalde (Kreis Teltow),s-bahn,"52.3715,13.6152",['KBS 103'],Q19274479
218,1951218,Eisenacherstrasse Ecke Hauptstrasse,strassenbahn,"52.48459360671036, 13.35306002871114",['88'],nan
219,1951219,Eisenacherstrasse Ecke Potsdamerstrasse,strassenbahn,"52.48458279166741, 13.353075575714282","['73', '74']",nan
220,1951220,Eldenaerstrasse Ecke Scheffelstrasse,strassenbahn,"52.52060307061718, 13.473436944195274",['65'],nan
221,1951221,Elsenstrasse Ecke Heidelbergerstrasse,strassenbahn,"52.48685029508912, 13.45118006834624",['6'],nan
222,1951222,Elsenstrasse Ecke Köpenicker Landstrasse,strassenbahn,"52.49173500868053, 13.457727322114952","['92', '87']",nan
223,1951223,Elsterplatz,bus,"52.47977982878401, 13.285507613099716",['A10'],nan
224,1951224,Elsterplatz,strassenbahn,"52.479593178670825, 13.285277161096731",['57'],nan
225,1951225,Emser Platz,strassenbahn,"52.49210567352354, 13.319243498954092",['57'],nan
226,1951226,Erkner,s-bahn,"52.4296,13.7513",['KBS 102'],Q14434071
227,1951227,Erkstrasse Ecke Karl-Marx-Strasse,strassenbahn,"52.480867541421816, 13.435324019425684",['26'],nan
228,1951228,"Erkstrasse, Rathaus Neukölln",strassenbahn,"52.48088289227713, 13.435445948459439",['47'],nan
229,1951229,Ernst-Reuter-Platz,u-bahn,"52.511944444444,13.322222222222",['A I'],Q658361
230,1951230,Eweststrasse Ecke Pasewalkerstrasse,strassenbahn,"52.594077857319554, 13.432159364527468",['49'],nan
231,1951231,Eweststrasse Ecke Paswealkerstrasse,strassenbahn,"52.59409092283163, 13.432169510744604",['24'],nan
232,1951232,Falkenberger Chaussee,bus,"52.5706254674252, 13.534226375399161",['A39'],nan
233,1951233,Falkenhagener Chaussee Ecke Zeppelinstrasse,bus,"52.547531983098686, 13.184665662039377",['A5'],nan
234,1951234,Falkenhöhe,bus,"52.400507029940435, 13.538229483128243",['A36'],nan
235,1951235,Falkenhöhe/Zonengrenze,bus,"52.55475730733069, 13.147150421211037",['A5'],nan
236,1951236,Falkenplatz,strassenbahn,"52.585285954271406, 13.227452060134016",['28'],nan
237,1951237,Falkensee,s-bahn,"52.559722,13.088889",['KBS 103'],Q5431918
238,1951238,"Falkensee, Hansastrasse Ecke Friedrich-Engel-Strasse",bus,"52.57410330771404, 13.082116596483619",['A5'],nan
239,1951239,"Falkensee, Rathaus",bus,"52.567277045598786, 13.101648848818932",['A5'],nan
240,1951240,Fehrbelliner Platz,strassenbahn,"52.49032472677901, 13.314317300484289","['60', '44', '3', '57']",nan
241,1951241,Fehrbelliner Platz,u-bahn,"52.490277777778,13.314444444444",['A II'],Q663245
242,1951242,Fennbrücke,bus,"52.537677979708135, 13.361084830316704",['A16'],nan
243,1951243,Feuerbachstr.,s-bahn,"52.463611111111,13.332777777778",['KBS 104'],Q800501
244,1951244,Feuerbachstrasse Ecke Bismarckstrasse,bus,"52.464513435475055, 13.338927866545799",['A2'],nan
245,1951245,Flughafen,strassenbahn,"52.47819319649731, 13.38574763805155",['95'],nan
246,1951246,Flughafen,u-bahn,"52.485556, 13.385833",['C II'],Q557582
247,1951247,Frankfurter Allee,bus,"52.51348352208039, 13.476830323062508",['A40'],nan
248,1951248,Frankfurter Tor,strassenbahn,"52.511228472896995, 13.500207327717217",['14'],nan
249,1951249,Franzstrasse Ecke Oberwallstrasse,strassenbahn,"52.515249048682314, 13.396784379813669",['46'],nan
250,1951250,Französische Straße,u-bahn,"52.514722222222,13.389166666667",['C I'],Q571479
251,1951251,Fredersdorf (b Bln),s-bahn,"52.5265,13.7625",['KBS 101'],Q15197387
252,1951252,Freibad Grünau,strassenbahn,"52.4086224,13.604455",['86'],Q66489598
253,1951253,Freibad Müggelsee,strassenbahn,"52.44667120570544, 13.63034121580945",['87'],nan
254,1951254,Freie Scholle (Schollenhof),bus,"52.599851537868666, 13.301736158422598",['A35'],nan
255,1951255,Friedenau,s-bahn,"52.47,13.341",['KBS 104'],Q800471
256,1951256,Friedrich-Karl-Strasse Ecke Mariendorferdamm,strassenbahn,"52.45578601202119, 13.383985484054056",['96'],nan
257,1951257,Friedrich-Wilhelm-Platz,bus,"52.47128806242274, 13.328362126543809",['A17'],nan
258,1951258,Friedrich-Wilhelm-Platz,strassenbahn,"52.47132415928576, 13.328417218543715","['44', '77']",nan
259,1951259,Friedrichsfelde,u-bahn,"52.506111111111,13.512777777778",['E'],Q429781
260,1951260,Friedrichsfelde Ost,s-bahn,"52.5141,13.5198",['KBS 101'],Q800473
261,1951261,"Friedrichsfelde, Schloßstrasse",bus,"52.50970330922865, 13.519045879792072",['A37'],nan
262,1951262,Friedrichshagen,s-bahn,"52.4574,13.6233",['KBS 102'],Q800474
263,1951263,Friedrichstr.,s-bahn,"52.52027777777778,13.386944444444444","['KBS 105', 'KBS 105b', 'KBS 106', 'KBS 101', 'KBS 104', 'KBS 103', 'KBS 102']",Q111219456
264,1951264,"Friedrichstrasse, Johannisthal",strassenbahn,"52.440380355206784, 13.50554289652835",['91'],nan
265,1951265,Friedrichstraße,u-bahn,"52.520111111111,13.388305555556",['C I'],Q3753274
266,1951266,Friesenstrasse Ecke Schwiebusserstrasse,strassenbahn,"52.48585368819469, 13.394378062319426",['21'],nan
267,1951267,Frohnau,s-bahn,"52.6325,13.2902",['KBS 104'],Q800472
268,1951268,"Frohnau, Sigismundkorso",bus,"52.630886975597875, 13.272869319040034",['A12'],nan
269,1951269,Gabelung,strassenbahn,"52.599887444177305, 13.25203703437107","['29', '28']",nan
270,1951270,"Galenusstrasse, Pankow, Krankenhaus",strassenbahn,"52.5818183,13.4287678",['49'],Q66195410
271,1951271,Gartenfeld,s-bahn,"52.54695,13.24882",['KBS 100b'],Q96080469
272,1951272,"Gartenfeld, Tegeler Brücke",bus,"52.55173649833807, 13.24904981131818",['A13'],nan
273,1951273,Gartenfelderstrasse Ecke Am Juliusturm,bus,"52.53927769582395, 13.232063005498627",['A13'],nan
274,1951274,Gartenfelderstrasse Ecke Paulsternstrasse,bus,"52.54415086230652, 13.247076804185845",['A13'],nan
275,1951275,"Gatow, Flugplatz",bus,"52.47170253033803, 13.123057426760603",['A34'],nan
276,1951276,"Gatow, Kirche",bus,"52.48684680676539, 13.18215147844503",['A34'],nan
277,1951277,"Geißenweide, Elisabethstrasse",bus,"52.53416191228728, 13.561380969716343",['A37'],nan
278,1951278,Gensierstrasse Ecke Landsbergerstrasse,bus,"52.53424664866531, 13.49720359871301",['A41'],nan
279,1951279,Germaniastrasse Ecke Gottlieb-Dunkel-Strasse,strassenbahn,"52.46053987437175, 13.418058888486561",['15'],nan
280,1951280,Gesundbrunnen,s-bahn,"52.548611111111,13.389444444444","['KBS 105', 'KBS 104', 'KBS 106', 'KBS 100']",Q111239092
281,1951281,Gesundbrunnen,u-bahn,"52.548611,13.389444",['D'],Q3761416
282,1951282,Giebelsee,s-bahn,"52.5291,13.791",['KBS 101'],Q7178217
283,1951283,Gleisdreieck,u-bahn,"52.49952,13.37409","['A I', 'B I', 'B II']",Q678372
284,1951284,Gleiwitzerstrasse Ecke Köpenickerstrasse,bus,"52.49387931738467, 13.561931263394568",['A8'],nan
285,1951285,Gneisenaustrasse Ecke Zossenerstrasse,strassenbahn,"52.49154641867672, 13.394453910306748",['21'],nan
286,1951286,Gneisenaustraße,u-bahn,"52.491388888889,13.395555555556",['C I'],Q668618
287,1951287,Goerzallee Ecke Wismarer Strasse,strassenbahn,"52.42193877862271, 13.298495448017045",['77'],nan
288,1951288,Goerzallee Ecke Wismarerstrasse,bus,"52.42193975704034, 13.29849525230179",['A1 (Obus)'],nan
289,1951289,Goerzallee Ecke Wismarstrasse,strassenbahn,"52.42194921983927, 13.298496412821626",['78'],nan
290,1951290,Gottlieb-Dunkel-Strasse Ecke Germaniastrasse,strassenbahn,"52.46057706686739, 13.417997050677094",['6'],nan
291,1951291,Gotzkowskystrasse Ecke Alt-Moabit,strassenbahn,"52.5237772942417, 13.329787285101991",['44'],nan
292,1951292,Gotzkowskystrasse Ecke Waldstrasse,strassenbahn,"52.52718286822992, 13.330566602914939",['21'],nan
293,1951293,Gotzkowskystrasse/Waldstrasse,strassenbahn,"52.527225981294414, 13.330614929363914",['35'],nan
294,1951294,Grabbeallee Ecke Seckenderstrasse,bus,"52.57108717749835, 13.398252615261043",['A45'],nan
295,1951295,Gradestrasse Ecke Chausseestrasse,strassenbahn,"52.45266074657511, 13.438676098231857",['27'],nan
296,1951296,Gregoroviusweg (Gymnasium),bus,"52.4935795319627, 13.526086411655125",['A8'],nan
297,1951297,Greifswalder Str.,s-bahn,"52.539722222222,13.439444444444",['KBS 100'],Q439246
298,1951298,Greifswalderstrasse Ecke Dimitroffstrasse,strassenbahn,"52.53617777597399, 13.432956139899366",['4'],nan
299,1951299,Greifswalderstrasse Ecke Hönowerstrasse,bus,"52.53002798407178, 13.626837650864397",['A44'],nan
300,1951300,Grenzallee,u-bahn,"52.463333333333,13.443888888889",['C I'],Q571836
301,1951301,Grenzweiche,strassenbahn,"52.591221628396816, 13.384837628101595",['23'],nan
302,1951302,Griebnitzsee,s-bahn,"52.3944,13.1272",['KBS 102'],Q315133
303,1951303,Grimmstrasse Ecke Lichtenrader Damm,strassenbahn,"52.39850341143911, 13.406438781393382",['99'],nan
304,1951304,Grossbeerenstrasse Ecke Daimlerstrasse,strassenbahn,"52.42636680081003, 13.37431638254586",['98'],nan
305,1951305,Groß-Glienick/Gutshof,bus,"52.47527643140694, 13.120628518644512",['A6'],nan
306,1951306,Große Präsidentenstrasse,strassenbahn,"52.52326345734971, 13.401134586268517",['49'],nan
307,1951307,Großer Stern,bus,"52.514524715463295, 13.349933192922938",['A16'],nan
308,1951308,Großgörschenstr.,s-bahn,"52.4922745,13.3678588",['KBS 104'],Q21776726
309,1951309,Grunewald,s-bahn,"52.4892,13.2614",['KBS 102'],Q457266
310,1951310,Grunewaldstrasse Ecke Martin-Luther-Strasse,bus,"52.489052179432406, 13.345015381967391",['A16'],nan
311,1951311,Grunewaldstrasse Ecke Martin-Luther-Strasse,strassenbahn,"52.489114608736564, 13.344981706170403","['25', '6']",","
312,1951312,Grunewaldstrasse Ecke Schloßstrasse,strassenbahn,"52.45690700924764, 13.32069548068162",['77'],nan
313,1951313,Grünau,s-bahn,"52.4122,13.5746","['KBS 100a', 'KBS 103']",Q111307258
314,1951314,"Grünauerstrasse, Bhf. Schöneweide",strassenbahn,"52.45604414856236, 13.510449640756448",['91'],nan
315,1951315,Gustav-Adolf-Strasse Ecke Pistoriusstrasse,bus,"52.55555668878405, 13.439260288737453",['A45'],nan
316,1951316,Gustav-Adolf-Strasse Ecke Prenzlauer Promenade,strassenbahn,"52.551688022464916, 13.430349300575484",['72'],nan
317,1951317,Gustav-Adolf-Strasse Ecke Rennbahnstrasse,bus,"52.562178269666816, 13.454275093038184",['A42'],nan
318,1951318,Görlitzer Bahnhof,u-bahn,"52.4992,13.428",['B II'],Q597759
319,1951319,"Görlitzer Bhf., Spreewaldplatz",strassenbahn,"52.49789588943241, 13.430740925365521",['26'],nan
320,1951320,Güterbahnhof Ruhleben,strassenbahn,"52.528585491389, 13.22145653899887",['54'],nan
321,1951321,Habelschwerdter Allee Ecke Unter den Eichen,bus,"52.44571534203509, 13.29370379960195","['A2', 'A11']",nan
322,1951322,Hackescher Markt,strassenbahn,"52.5238354,13.402603","['69', '49', '65']",Q65094590
323,1951323,Hafenplatz,strassenbahn,"52.542292547760184, 13.206201126048732","['54', '75']",nan
324,1951324,Hagenstrasse Ecke Königsallee,strassenbahn,"52.48339680087579, 13.265791000251989",['76E'],nan
325,1951325,Halensee,s-bahn,"52.4961,13.2906",['KBS 100'],Q800476
326,1951326,Hallesches Tor,strassenbahn,"52.49761471032374, 13.38904657659308",['21'],nan
327,1951327,Hallesches Tor,u-bahn,"52.497777777778,13.391111111111","['B I', 'B II', 'C I']",Q658302
328,1951328,Hallesches Tor (Stresemannstrasse),strassenbahn,"52.49940981252641, 13.388822844948919",['1'],nan
329,1951329,Hamburger Platz (Weißensee),bus,"52.55555005577382, 13.439129556356479",['A42'],nan
330,1951330,Hansaplatz,bus,"52.5179343319099, 13.342038193257153",['A16'],nan
331,1951331,Haupstrasse Ecke Holzhauserdamm,bus,"52.59187505131603, 13.32649798094393",['A14'],nan
332,1951332,Hauptstrasse (Reinickendorf-Ost),strassenbahn,"52.57425844285049, 13.359154556621172",['36'],nan
333,1951333,Hauptstrasse Ecke Dominicusstrasse,strassenbahn,"52.48185447998682, 13.34839211499204","['60', '25', '6']",nan
334,1951334,Hauptstrasse Ecke Edelweißstrasse,bus,"52.586379262142074, 13.36752938856218",['A45'],nan
335,1951335,Hauptstrasse Ecke Hermsdorferstrasse,bus,"52.59358884869939, 13.321258975339866",['A14'],nan
336,1951336,Hauptstrasse Ecke Potsdamerstrasse,strassenbahn,"52.39504643293174, 13.238915649246199",['96'],nan
337,1951337,Hauptstrasse Ecke Residenzstrasse,strassenbahn,"52.57425115897413, 13.359165566408976",['41'],nan
338,1951338,Hauptstrasse Ecke Roedernallee,bus,"52.57583210474424, 13.347829269241924",['A12'],nan
339,1951339,Hausvogteiplatz,u-bahn,"52.513055555556,13.396666666667",['A I'],Q656523
340,1951340,Heerstr.,s-bahn,"52.5086,13.2586","['KBS 101', 'KBS 103']",Q800502
341,1951341,Heerstrasse Ecke Pichelsdorferstrasse,bus,"52.51303188952818, 13.196865381046361",['A34'],nan
342,1951342,Heerstrasse Ecke Pichelsdorferstrasse,strassenbahn,"52.51306896995085, 13.19687782295219",['75'],nan
343,1951343,Heerstrasse Ecke Wilhelmstrasse,bus,"52.51662457723462, 13.179022303033726",['A13'],nan
344,1951344,Heidelberger Platz,u-bahn,"52.479808333333,13.313236111111",['A II'],Q21777872
345,1951345,Heiligensee,s-bahn,"52.6247,13.2292",['KBS 105'],Q800475
346,1951346,"Heiligensee, Dorfaue",strassenbahn,"52.606510891749345, 13.210444640210534",['29'],nan
347,1951347,Heimholtzstrasse,bus,"52.52099338936854, 13.321568361371945",['A1 (Obus)'],nan
348,1951348,"Heinersdorf, Helgestrasse",strassenbahn,"52.56977413760523, 13.43782711737841",['71'],nan
349,1951349,"Heinersdorf, Kirche",bus,"52.56826376476754, 13.440601903603064",['A42'],nan
350,1951350,Heinersdorfer Weiche,strassenbahn,"52.592334224430786, 13.431481655989797",['24'],nan
351,1951351,Hennigsdorf (Kr Oberhavel),s-bahn,"52.638,13.2057",['KBS 105'],Q800909
352,1951352,Hennigsdorferstrasse Ecke Heiligensee,strassenbahn,"52.610995069028775, 13.216547112858846",['29'],nan
353,1951353,Hermannplatz,strassenbahn,"52.487085572732276, 13.424752445258537","['3', '95', '26', '47']",nan
354,1951354,Hermannplatz,u-bahn,"52.48629,13.42455","['D', 'C I']",Q658929
355,1951355,Hermannstr.,s-bahn,"52.4675,13.431111111111","['KBS 100a', 'KBS 100']",Q111263802
356,1951356,Hermannstrasse Ecke Hertastrasse,strassenbahn,"52.464683821768375, 13.432895770730918","['15', '6']",nan
357,1951357,Hermsdorf,s-bahn,"52.6178,13.3069",['KBS 104'],Q263189
358,1951358,Hermsdorfer Damm,bus,"52.600011860666825, 13.281303213246002",['A12'],nan
359,1951359,Hildegardstrasse Ecke Blissestrasse,bus,"52.48181972742755, 13.320373353240422",['A1 (Obus)'],nan
360,1951360,Hildegardstrasse Ecke Bundesallee,strassenbahn,"52.48165880537118, 13.329435201187513",['44'],nan
361,1951361,Hindenburgdamm Ecke Schloßstrasse,bus,"52.45348906650797, 13.315603621183495",['A2'],nan
362,1951362,Hindenburgdamm Ecke Schloßstrasse,strassenbahn,"52.45350181384508, 13.315623434662008",['77'],nan
363,1951363,Hirschgarten,s-bahn,"52.4579,13.6032",['KBS 102'],Q4892435
364,1951364,Hirschgarten,strassenbahn,"52.4518533,13.6006245","['84', '87']",Q66360740
365,1951365,Hohen-Neuendorf (b Bln),s-bahn,"52.6684,13.287",['KBS 104'],Q4500489
366,1951366,"Hohenschönhausen, Falkenberger Strasse",strassenbahn,"52.5508672,13.5094994",['64'],Q65555882
367,1951367,Hohenschönhauserstrasse Ecke Weißenseerweg,strassenbahn,"52.53608973549271, 13.473560977432022",['3'],nan
368,1951368,Hohenschöpping,s-bahn,"52.67,13.1945",['KBS 105'],Q19274489
369,1951369,Hohenzollerndamm,s-bahn,"52.4885,13.3004",['KBS 100'],Q800503
370,1951370,Hohenzollernplatz,u-bahn,"52.493888888889,13.325",['A II'],Q571570
371,1951371,Holteistrasse Ecke Boxhagenerstrasse,strassenbahn,"52.5088235,13.465969","['13', '14']","Q65675805, Q65675805"
372,1951372,Holzhauserstrasse Ecke Hauptstrasse,bus,"52.59187505131603, 13.32649798094393",['A15'],nan
373,1951373,Hoppegarten (Mark),s-bahn,"52.5183,13.6734",['KBS 101'],Q15197357
374,1951374,Hoppendorferstrasse,bus,"52.47358413924526, 13.570576207066885",['A27'],nan
375,1951375,Hubertusallee Ecke Kurfürstendamm,strassenbahn,"52.49479029919628, 13.285472242844364",['76E'],nan
376,1951376,Humboldthain,s-bahn,"52.5451,13.3796","['KBS 105', 'KBS 104', 'KBS 106']",Q481276
377,1951377,Hundekehle über Königsallee,strassenbahn,"52.47684407264248, 13.280947578521625","['76', '76E']",nan
378,1951378,Hundekehlenstrasse Ecke Teplitzerstrasse,strassenbahn,"52.476842373808935, 13.28090286743645",['76E'],nan
379,1951379,Händelplatz,strassenbahn,"52.450279094879285, 13.315466784727654","['73', '74', '77', '78']",nan
380,1951380,"Hönow, Dorfstrasse (Schule)",bus,"52.542331113389245, 13.639476556749988",['A44'],nan
381,1951381,Industriebahn,strassenbahn,"52.53912985497051, 13.231728416717603",['55'],nan
382,1951382,Innsbrucker Platz,bus,"52.478545508234895, 13.34405868604117",['A16'],nan
383,1951383,Innsbrucker Platz,s-bahn,"52.4786,13.3439","['KBS 100a', 'KBS 100']",Q111263876
384,1951384,Innsbrucker Platz,strassenbahn,"52.47804266204959, 13.343446877940893",['88'],nan
385,1951385,Innsbrucker Platz,u-bahn,"52.4786,13.3439",['B I'],Q10275871
386,1951386,Invalidenstrasse Ecke Chausseestrasse,strassenbahn,"52.5304158,13.3827302","['1', '70']",Q65552697
387,1951387,Jannowitzbrücke,s-bahn,"52.514822222222,13.41795","['KBS 101', 'KBS 103', 'KBS 102']",Q27955427
388,1951388,Jannowitzbrücke,u-bahn,"52.515656,13.418185",['D'],Q27955418
389,1951389,Jerusalemer Kirche,strassenbahn,"52.503613870382836, 13.395579408898824",['88'],nan
390,1951390,Johannisthaler Chaussee Ecke Rudowerstrasse,strassenbahn,"52.43434486015572, 13.469069460026562",['47'],nan
391,1951391,Jungfernheide,s-bahn,"52.53035,13.299433333333","['KBS 100b', 'KBS 100']",Q110977325
392,1951392,"Jüdenstrasse, Rathaus",strassenbahn,"52.5174980529402, 13.410080536415096",['71'],nan
393,1951393,Kaiser-Wilhelm-Platz,bus,"52.486329247981715, 13.35655627172785",['A4'],nan
394,1951394,Kaiser-Wilhelm-Platz,strassenbahn,"52.486331659025346, 13.356584679052645",['25'],nan
395,1951395,Kaiser-Wilhelm-Strasse Ecke Leonorenstrasse,strassenbahn,"52.43627939315591, 13.345747548784917",['96'],nan
396,1951396,Kaiserdamm (Messedamm),u-bahn,"52.51,13.2822",['A I'],Q656409
397,1951397,Kaisereiche,bus,"52.46896806014468, 13.332614886077709",['A17'],nan
398,1951398,Kaisereiche,strassenbahn,"52.468942127334586, 13.332672961457298","['73', '74']",nan
399,1951399,Kaisereiche Ecke Rheinstrasse,strassenbahn,"52.468990950159686, 13.332592813586178",['88'],nan
400,1951400,Kaiserhof/Thälmannplatz,bus,"52.511476541795766, 13.383449064702166",['A19'],nan
401,1951401,Kaiserin-Augusta-Strasse Ecke Tempelhofer Damm,strassenbahn,"52.4593503797768, 13.384445689001321","['98', '99']",nan
402,1951402,Kaiserstrasse Ecke Mariendorfer Damm,strassenbahn,"52.445566825821196, 13.385790476851696",['98'],nan
403,1951403,Kaiserstrasse Ecke Mariendorfer Damm,strassenbahn,"52.44558131674977, 13.385778626724283",['99'],nan
404,1951404,Kaiserstrasse/Ringstrasse,bus,"52.44449600134536, 13.372233806361567",['A33 (Obus)'],nan
405,1951405,Kanststrasse Ecke Wilmersdorferstrasse,strassenbahn,"52.50670228380385, 13.30665957103438",['3'],nan
406,1951406,Kantstrasse Ecke Leibnizstrasse,bus,"52.50628064467018, 13.31390438888902",['A1 (Obus)'],nan
407,1951407,Kantstrasse Ecke Wilmersdorferstrasse,strassenbahn,"52.50671197701565, 13.306654872825778",['44'],nan
408,1951408,Karl-Marx-Strasse Station,strassenbahn,"52.47610260014145, 13.439445058091593",['47'],nan
409,1951409,Karl-Marx-Straße,u-bahn,"52.476111111111,13.439166666667",['C I'],Q519494
410,1951410,Karlplatz,bus,"52.52276032370814, 13.379610414420531",['A19'],nan
411,1951411,Karlshorst,s-bahn,"52.4808,13.5258",['KBS 102'],Q111327045
412,1951412,Karlshorsterstrasse Ecke Nöldnerstrasse,strassenbahn,"52.501978174325544, 13.475417564174178",['14'],nan
413,1951413,Karolinenhof,strassenbahn,"52.39175444565829, 13.634722231341504",['86'],nan
414,1951414,Karow,s-bahn,"52.615,13.4692",['KBS 106'],Q111324168
415,1951415,Kattunfabrik,strassenbahn,"52.43098711945125, 13.571597874169747",['86'],nan
416,1951416,Kaulsdorf,s-bahn,"52.5121,13.5904",['KBS 101'],Q800478
417,1951417,"Kaulsdorf, Sadowastrasse",bus,"52.482681268003134, 13.5848729863348",['A8'],nan
418,1951418,Kirschenallee Ecke Spandauer Damm,strassenbahn,"52.52040043420362, 13.267220673035139",['54'],nan
419,1951419,Kissingenstrasse Ecke Berlinerstrasse,strassenbahn,"52.566234837631775, 13.41244064944493",['46'],nan
420,1951420,Kladow,Fähre,"52.45151498638808, 13.147961938847912",['Wannsee<>Kladow (Betrieb durch Stern und Kreisschiffahrt)'],nan
421,1951421,Kladow/Hottengrund,bus,"52.44607881627563, 13.126322457381864",['A6'],nan
422,1951422,Kleine Frankfurterstrasse,strassenbahn,"52.52316104022035, 13.427849786497696",['64'],nan
423,1951423,Klosterstr.,u-bahn,"52.516111111111,13.412222222222",['A I'],Q657893
424,1951424,Knie,strassenbahn,"52.51266887977092, 13.321859924761794","['2', '55', '25']",nan
425,1951425,Kochstraße,u-bahn,"52.505897222222,13.390611111111",['C I'],Q201849
426,1951426,Kopenhagenerstrasse Ecke Flottenstrasse,bus,"52.57701819854325, 13.360950784022853",['A14'],nan
427,1951427,Kopernikusstrasse Ecke Warschauerstrasse,strassenbahn,"52.5105842,13.4526258",['4'],Q65950088
428,1951428,Kottbusser Tor,u-bahn,"52.499166666667,13.418055555556","['B II', 'D']",Q819768
429,1951429,Kottbusser Tor station,u-bahn,"52.499166666667,13.418055555556",['B I'],Q819768
430,1951430,Kraftwerk Klingenberg,strassenbahn,"52.4881374,13.4958685",['13'],Q66079524
431,1951431,Krankenhaus Neukölln,strassenbahn,"52.43977054074335, 13.459359057866306",['47'],nan
432,1951432,Krankenhaus Tegel-Süd,bus,"52.57573397877684, 13.278749331662",['A13'],nan
433,1951433,Kriminalgericht,bus,"52.52664,13.35458",['A16'],nan
434,1951434,Krumme Lanke,u-bahn,"52.443333333333,13.241388888889",['A II'],Q663945
435,1951435,Kupfergraben,strassenbahn,"52.5194208,13.3953839",['70'],Q65055027
436,1951436,Kurfürstendamm Ecke Joachimstalerstrasse,strassenbahn,"52.50377848394607, 13.331313369546583",['6'],nan
437,1951437,Kurfürstendamm Ecke Joachimsthalerstrasse,strassenbahn,"52.50378728452454, 13.33133055542774","['76E', '77']",nan
438,1951438,Kurfürstendamm Ecke Konstanzer Strasse,bus,"52.500599097108285, 13.31304940813286",['A1 (Obus)'],nan
439,1951439,Kurfürstendamm Ecke Uhlandstrasse,strassenbahn,"52.50253310099331, 13.3252616295602","['76E', '51']",nan
440,1951440,Kurfürstendamm Ecke Wilmersdorferstrasse,strassenbahn,"52.499999022801454, 13.307019457045545","['60', '44', '76E']",nan
441,1951441,Kurfürstendamm v. Marmorhaus,strassenbahn,"52.50442108387008, 13.334082651570826",['55'],nan
442,1951442,Kurfürstenstrasse,u-bahn,"52.5,13.361944","['B I', 'B II']",Q690203
443,1951443,Kurfürstenstrasse Ecke Potsdamerstrasse,strassenbahn,"52.49971786423529, 13.362797547869157",['74'],nan
444,1951444,Köllnische Heide,s-bahn,"52.4694,13.4675",['KBS 100a'],Q800505
445,1951445,Köllnischer Platz,strassenbahn,"52.4447189,13.5686225","['84', '86']",Q66363379
446,1951446,Königin-Elisabeth-Strasse Ecke Kaiserdamm,strassenbahn,"52.510016445572965, 13.281838957682126",['60'],nan
447,1951447,Königin-Elisabethstrasse Ecke Spandauer Damm,strassenbahn,"52.518364340270864, 13.280219717093097",['54'],nan
448,1951448,Königs Wusterhausen,s-bahn,"52.2966,13.6311",['KBS 103'],Q178002
449,1951449,Königsplatz,strassenbahn,"52.46245560009658, 13.514060839630366",['87'],nan
450,1951450,Königstor,bus,"52.52520269485428, 13.419834994127731","['A9', 'A40']",nan
451,1951451,Königstor,strassenbahn,"52.52821600265539, 13.423869016265495","['73', '74']",nan
452,1951452,Köpenick,s-bahn,"52.4586,13.5808",['KBS 102'],Q800479
453,1951453,"Köpenick, Krankenhaus",strassenbahn,"52.4388396,13.5920763",['95'],Q66091900
454,1951454,"Köpenick, Lindenstrasse Ecke Bahnhofstrasse",strassenbahn,"52.4505094,13.572684",['84'],Q66095701
455,1951455,Köpenicker Krankenhaus,bus,"52.43862447510106, 13.592312623180907",['A27'],nan
456,1951456,Köpenicker Landstrasse Ecke Schnellerstrasse,strassenbahn,"52.466453825765775, 13.495253098944643",['95'],nan
457,1951457,Landsberger Allee & Weißenseer Weg,strassenbahn,"52.532258,13.476705",['3'],Q65942700
458,1951458,Langhansstrasse Ecke Prenzlauerallee,bus,"52.55462108331553, 13.429674653498148",['A45'],nan
459,1951459,Lankwitz,s-bahn,"52.4386,13.3417",['KBS 106'],Q800481
460,1951460,"Lankwitz, Kirche",bus,"52.43629186979271, 13.345745387354132","['A32 (Obus)', 'A2']",nan
461,1951461,"Lankwitz, Trippsteinstrasse",bus,"52.418980941735455, 13.34615060419153","['A2', 'A11']",nan
462,1951462,Lehnitz,s-bahn,"52.7411,13.2635",['KBS 104'],Q4258498
463,1951463,Lehrter Bhf.,strassenbahn,"52.52343504003177, 13.37053213445337",['21'],nan
464,1951464,Lehrter Stadtbahnhof,s-bahn,"52.5253,13.3694","['KBS 101', 'KBS 103', 'KBS 102']",Q821299
465,1951465,Leinestr.,u-bahn,"52.472777777778,13.428333333333",['D'],Q668563
466,1951466,Leninallee,s-bahn,"52.5295,13.4548",['KBS 100'],Q800507
467,1951467,Leninallee Ecke Bersarinstrasse,strassenbahn,"52.52637416456414, 13.447600391274861",['4'],nan
468,1951468,Leninallee Ecke Dimitroffstrasse,strassenbahn,"52.526376866541014, 13.447609553656962","['64', '13']",nan
469,1951469,Leninallee Ecke Friedenstrasse,strassenbahn,"52.52324881347455, 13.433629740688596",['65'],nan
470,1951470,Lenineallee Ecke Friedenstrasse,strassenbahn,"52.52326154739518, 13.43374651889881",['69'],nan
471,1951471,Leninplatz,strassenbahn,"52.5232658,13.4326457",['64'],Q65553105
472,1951472,Leopoldplatz,u-bahn,"52.5465,13.3591",['C I'],Q1960809
473,1951473,"Lichtefelde, Finckensteinallee",strassenbahn,"52.43248605965966, 13.29928826605782",['74'],nan
474,1951474,Lichtenberg,s-bahn,"52.5106,13.4964",['KBS 101'],Q634247
475,1951475,Lichtenberg,u-bahn,"52.510556,13.496389",['E'],Q3831986
476,1951476,Lichtenrade,s-bahn,"52.3876,13.3963",['KBS 105b'],Q6543354
477,1951477,Lichterfelde Ost,s-bahn,"52.43,13.3289",['KBS 106'],Q111311299
478,1951478,Lichterfelde Süd,s-bahn,"52.41,13.3086",['KBS 106'],Q800482
479,1951479,Lichterfelde West,s-bahn,"52.4433,13.2947",['KBS 104'],Q111327103
480,1951480,"Lichterfelde, Goerzallee",strassenbahn,"52.421933927255864, 13.298529678385423",['77'],nan
481,1951481,"Lichterfelde, Osteweg",bus,"52.42100405812812, 13.281128356360531",['A3E'],nan
482,1951482,"Lichterfelde-Süd, Lindenstrasse",strassenbahn,"52.416231176168026, 13.311835520804088",['78'],nan
483,1951483,"Lindenhof, Eythstrasse",strassenbahn,"52.45989495654381, 13.362167423686113",['60'],nan
484,1951484,Lindenstrasse Ecke Bahnhofstrasse,strassenbahn,"52.4505094,13.572684","['83', '87', '95', '86']",Q66095701
485,1951485,"Loeperplatz, Scheffelstrasse",strassenbahn,"52.52049584904117, 13.479636050703846",['65'],nan
486,1951486,Londonerstrasse (Rehberge),strassenbahn,"52.558669085041714, 13.337450080137183","['29', '68', '25', '28']",nan
487,1951487,Luxemburgplatz,u-bahn,"52.528333333333,13.410277777778",['A I'],Q658790
488,1951488,"Lübars, Dorfplatz",bus,"52.62095733281459, 13.358934481999336",['A35'],nan
489,1951489,Lückstrasse Ecke Wilhelmstrasse,strassenbahn,"52.5010142269264, 13.492976020135805",['14'],nan
490,1951490,Lütsowstrasse Ecke Potsdamerstrasse,strassenbahn,"52.50308541827073, 13.365695256042763",['76'],nan
491,1951491,Lützowplatz,bus,"52.505029017314186, 13.351822867208506",['A16'],nan
492,1951492,Lützowplatz,strassenbahn,"52.50502808232708, 13.351650050588393",['76'],nan
493,1951493,Lützowstrasse Ecke Potsdamerstrasse,strassenbahn,"52.50306391835131, 13.365696458886143","['73', '74']",nan
494,1951494,Machnower Schleuse,strassenbahn,"52.39513316459733, 13.20831380290797",['96'],nan
495,1951495,"Machnowerstrasse Ecke Andreezeile, Zehlendorf",bus,"52.41946247495041, 13.249097459203753",['A10'],nan
496,1951496,Magdalenenstraße,u-bahn,"52.5125,13.486388888889",['E'],Q473901
497,1951497,Magistratsweg Ecke Brunsbütteler Damm,bus,"52.53308685678349, 13.157955808881047",['A31'],nan
498,1951498,Mahlow,s-bahn,"52.3602,13.4085",['KBS 105b'],Q2641431
499,1951499,Mahlsdorf,s-bahn,"52.5121,13.6106",['KBS 101'],Q800484
500,1951500,"Mahlsdorf, Rathaus",strassenbahn,"52.498626895634104, 13.613283417943636",['83'],nan
501,1951501,"Mahlsdorf-Süd, Hubertus",strassenbahn,"52.4741663,13.5991443","['83', '86']",Q66368466
502,1951502,Mansteinstrasse (Bhf. Großgörschenstrasse),strassenbahn,"52.4915896930193, 13.366298765729494",['2'],nan
503,1951503,Marchandstrasse/Lankwitzer Ring,bus,"52.42302374778929, 13.357490310151075",['A32 (Obus)'],nan
504,1951504,Marchlewskistraße,u-bahn,"52.516794444444,13.444991666667",['E'],Q551768
505,1951505,Mariendorf,s-bahn,"52.4478,13.3609",['KBS 105b'],Q800497
506,1951506,"Mariendorf, Kaiserstrasse Ecke Mariendorfer Damm",bus,"52.44556685028663, 13.38579424415166",['A33 (Obus)'],nan
507,1951507,Mariendorfer Damm Ecke Alt-Mariendorf,strassenbahn,"52.4401803123353, 13.38732780334823","['98', '15']",nan
508,1951508,Marienfelde,s-bahn,"52.4242,13.3747",['KBS 105b'],Q800485
509,1951509,"Marienfelde, Daimlerstrasse",strassenbahn,"52.42316362957271, 13.382479925790316",['15'],nan
510,1951510,Marienfelder Allee Ecke Lankwitzstrasse,bus,"52.4137412612811, 13.362086756533897",['A32 (Obus)'],nan
511,1951511,Marienfelder Chaussee Ecke Lichtenrader Damm,strassenbahn,"52.41457998639694, 13.401186094515209",['99'],nan
512,1951512,Markgrafendamm,strassenbahn,"52.49918957829234, 13.465807953098425",['82'],nan
513,1951513,Martin-Luther-Strasse Ecke Grunewaldstrasse,strassenbahn,"52.48915915461048, 13.345003147317032",['3'],nan
514,1951514,Martin-Luther-Strasse Ecke Hauptstrasse,bus,"52.47919734896908, 13.344958631803124",['A4'],nan
515,1951515,Marx-Engels-Platz,s-bahn,"52.5226,13.4022","['KBS 101', 'KBS 103', 'KBS 102']",Q689312
516,1951516,"Marzahn, Bürknersfelde",bus,"52.53899732215637, 13.53460083201667",['A41'],nan
517,1951517,Marzahner Chaussee Ecke Schloßstrasse,strassenbahn,"52.509648597158, 13.521140784215817",['69'],nan
518,1951518,Mehringdamm,strassenbahn,"52.49298792323627, 13.387950331490586",['95'],nan
519,1951519,Mehringdamm,u-bahn,"52.493888888889,13.388333333333","['C II', 'C I']",Q657905
520,1951520,Mehringdamm Ecke Blücherstrasse,strassenbahn,"52.49599415173455, 13.389491258768363",['95'],nan
521,1951521,Mehringdamm Ecke Gneisenaustrasse,strassenbahn,"52.49286753921155, 13.387683081618766",['3'],nan
522,1951522,Mehringplatz/Hallesches Tor,strassenbahn,"52.4979337672469, 13.391434723210391",['99'],nan
523,1951523,"Moabit, Waldstrasse Ecke Turmstrasse",bus,"52.52718533455642, 13.33055251486945",['A1 (Obus)'],nan
524,1951524,"Moabit, Wiebestrasse",strassenbahn,"52.530584741975225, 13.319392176398098",['21'],nan
525,1951525,Molkenmarkt,strassenbahn,"52.51679321421663, 13.409330619020574","['73', '82', '72']",nan
526,1951526,Moritzplatz,u-bahn,"52.503611111111,13.410833333333",['D'],Q374225
527,1951527,Märkisches Museum,u-bahn,"52.511944444444,13.408888888889",['A I'],Q657871
528,1951528,Möckernbrücke,u-bahn,"52.499166666667,13.382777777778","['B I', 'B II']",Q704716
529,1951529,Möllendorferstrasse Ecke Herzbergerstrasse,strassenbahn,"52.5267060066412, 13.47977269140368",['14'],nan
530,1951530,Müggelheim (An der Großen Krampe),bus,"52.410435329490035, 13.665397117470532",['A27'],nan
531,1951531,Müllerstrasse Ecke Schulstrasse,strassenbahn,"52.54639788626855, 13.359150434534053","['29', '25', '28']",nan
532,1951532,Müllerstrasse Ecke Seestrasse,strassenbahn,"52.55047126275597, 13.351995203728084","['68', '3']",nan
533,1951533,Nalepastrasse Ecke Wilhelminenhofstrasse,strassenbahn,"52.463726438900714, 13.508474001478437",['87'],nan
534,1951534,Neanderstr.,u-bahn,"52.510833333333,13.416388888889",['D'],Q663204
535,1951535,Nettelbeckplatz,strassenbahn,"52.54423653105294, 13.369853072459598","['35', '68', '23']",nan
536,1951536,Neu-Lichtenberg,s-bahn,"52.5022,13.4856",['KBS 101'],Q1284120
537,1951537,Neu-Westend,u-bahn,"52.515555555556,13.261111111111",['A I'],Q656431
538,1951538,Neuenhagen (b Bln),s-bahn,"52.5208,13.7003",['KBS 101'],Q7001614
539,1951539,Neues Tor,bus,"52.52921245715711, 13.378513556812177",['A19'],nan
540,1951540,Neukladowerallee Ecke Kladower Damm,bus,"52.45988940678482, 13.153891640951477",['A34'],nan
541,1951541,Neukölln,s-bahn,"52.469166666667,13.441666666667","['KBS 100a', 'KBS 100']",Q111325412
542,1951542,Neukölln (Südring),u-bahn,"52.4691666,13.4416666",['C I'],Q21272767
543,1951543,"Neukölln, Hermannplatz",strassenbahn,"52.48645092944154, 13.424243030746648",['27'],nan
544,1951544,"Neukölln, Schulenburgpark",strassenbahn,"52.4666566988453, 13.470193015552026",['15'],nan
545,1951545,Nikolassee,s-bahn,"52.4317,13.1933","['KBS 104', 'KBS 102']",Q637052
546,1951546,Nollendorfplatz,bus,"52.49968843634292, 13.353086438468269",['A16'],nan
547,1951547,Nollendorfplatz,strassenbahn,"52.49974136660471, 13.352878927585127",['76E'],nan
548,1951548,Nollendorfplatz,u-bahn,"52.499166666667,13.353888888889","['A I', 'B I', 'B II']",Q571039
549,1951549,Nordbahnhof,s-bahn,"52.5319,13.3878","['KBS 105', 'KBS 104', 'KBS 105b', 'KBS 106']",Q673721
550,1951550,Nordbahnhof,strassenbahn,"52.531658,13.3887147",['46'],Q65697896
551,1951551,Nordbahnhof,u-bahn,"52.531111111111,13.3825",['C I'],Q554399
552,1951552,"Nordend, Kaiser-Wilhelm-Strasse",strassenbahn,"52.5902104,13.4027524",['46'],Q65032696
553,1951553,"Nordend, Schillerstrasse",bus,"52.590233030676416, 13.40273305362098",['A7'],nan
554,1951554,Nöldnerstrasse Ecke Karlshorsterstrasse,strassenbahn,"52.50199906393938, 13.4754817028065",['13'],nan
555,1951555,Nürnberger Platz,u-bahn,"52.4983,13.3347",['A II'],Q202101
556,1951556,Oberhofer Platz,bus,"52.42410259117963, 13.328170432694991",['A17'],nan
557,1951557,Oberspree,s-bahn,"52.4525,13.5382",['KBS 100d'],Q15192700
558,1951558,Oberspreestrasse Ecke Grünstrasse,strassenbahn,"52.444937687231665, 13.574203895632158",['95'],nan
559,1951559,Oderbruchstrasse/Steuerhaus,bus,"52.5297558583132, 13.461331737364045",['A41'],nan
560,1951560,Olympia-Stadion,u-bahn,"52.517222222222,13.25",['A I'],Q656441
561,1951561,Onkel Toms Hütte,u-bahn,"52.450277777778,13.253333333333",['A II'],Q389214
562,1951562,Oranienburg,s-bahn,"52.7536,13.2496",['KBS 104'],Q2341669
563,1951563,Oranienburger Str.,s-bahn,"52.525,13.3929","['KBS 105', 'KBS 104', 'KBS 105b', 'KBS 106']",Q480249
564,1951564,Oranienburger Tor,bus,"52.52716314203455, 13.38710905184874",['A40'],nan
565,1951565,Oranienburger Tor,strassenbahn,"52.5256031,13.3872745","['46', '1', '70']",Q65095375
566,1951566,Oranienburger Tor,u-bahn,"52.524886111111,13.387477777778",['C I'],Q571485
567,1951567,Oranienburgerstrasse Ecke Hauptstrasse,bus,"52.58969044372097, 13.334199973833837","['A12', 'A14']",nan
568,1951568,Orankestrasse,strassenbahn,"52.544048109588445, 13.492293861074563",['64'],nan
569,1951569,Oskar-Helene-Heim,u-bahn,"52.450277777778,13.269722222222",['A II'],Q681336
570,1951570,Oskarplatz,strassenbahn,"52.5570174,13.3659987",['3'],Q65767112
571,1951571,Osloerstrasse Ecke Grüntalerstrasse,strassenbahn,"52.555331,13.3909979",['3'],Q65807452
572,1951572,Oslowerstrasse Ecke Schwedenstrasse,strassenbahn,"52.5567809592854, 13.373700854387844",['41'],nan
573,1951573,Osnabrückerstrasse Ecke Taurroggenerstrasse,strassenbahn,"52.52580610727766, 13.30190571033404",['3'],nan
574,1951574,Ossietzkyplatz,bus,"52.58150700684141, 13.404249587640239",['A7'],nan
575,1951575,Ossietzkyplatz,strassenbahn,"52.58108768165445, 13.404146422757542",['46'],nan
576,1951576,Ostbahnhof,s-bahn,"52.51,13.4347","['KBS 101', 'KBS 103', 'KBS 102']",Q111325075
577,1951577,Osthafen,strassenbahn,"52.50034973030204, 13.455418826382552",['82'],nan
578,1951578,Ostkreuz,s-bahn,"52.5031,13.4689","['KBS 102', 'KBS 101', 'KBS 103', 'KBS 100']",Q111251530
579,1951579,Ostseestrasse Ecke Prenzlauer Allee,bus,"52.55116452216239, 13.430123120535931",['A42'],nan
580,1951580,Pacellialle Ecke Im Dol,bus,"52.46544699374904, 13.288567375747721",['A1 (Obus)'],nan
581,1951581,Pacelliallee Ecke Königin-Luise-strasse,strassenbahn,"52.458241504510376, 13.287119612652985",['40'],nan
582,1951582,Pallasstrasse Ecke Potsdamerstrasse,strassenbahn,"52.49433490661493, 13.361066683851742","['73', '88', '74']",nan
583,1951583,Pankow (Vinetastr.),u-bahn,"52.559166666667,13.413333333333",['A I'],Q570906
584,1951584,"Pankow, Elsa-Brandströmstrasse",bus,"52.55986825294424, 13.413193853407195",['A7'],nan
585,1951585,"Pankow, Kirche",bus,"52.57124680898358, 13.410670715665145",['A7'],nan
586,1951586,"Pankow, Kirche",strassenbahn,"52.5706452,13.4103115","['49', '24', '46']",Q65055066
587,1951587,"Pankow, Rathaus",bus,"52.56953908840178, 13.404186437171612",['A7'],nan
588,1951588,"Pankow, Rathaus",strassenbahn,"52.5694816,13.4038045","['24', '23', '46']",Q65055060
589,1951589,Pankow-Heinersdorf,s-bahn,"52.5780653,13.4295093",['KBS 106'],Q4892366
590,1951590,Pankow-Schönhausen,s-bahn,"52.5667,13.4111",['KBS 106'],Q653775
591,1951591,Pankower Allee (Schäfersee),strassenbahn,"52.5638282437164, 13.364274804146625","['41', '35']",nan
592,1951592,Pankower Allee (Schäfersee) Osloerstrasse Ecke Kolonie-Drontheim,strassenbahn,"52.55645628307908, 13.377253362609574",['36'],nan
593,1951593,Pankstrasse/Prinzenallee,strassenbahn,"52.55229630055077, 13.381421035926673","['41', '29', '28']",nan
594,1951594,Papestr.,s-bahn,"52.4756,13.3644","['KBS 100a', 'KBS 106', 'KBS 105b', 'KBS 100']",Q111323139
595,1951595,Paradestrasse,u-bahn,"52.478055555556,13.386111111111",['C II'],Q557543
596,1951596,Parchimerallee Ecke Rudowerstrasse,strassenbahn,"52.44546832801967, 13.455025325633102",['47'],nan
597,1951597,Paulsternstrasse Ecke Gartenfelderstrasse,strassenbahn,"52.54414705156193, 13.247081137354037",['55'],nan
598,1951598,"Pekrunstrasse, Marzahn",bus,"52.54023584809127, 13.546170091264191",['A43'],nan
599,1951599,Pichelsberg,s-bahn,"52.5103,13.2271","['KBS 101', 'KBS 103']",Q800488
600,1951600,Platanenstrasse Ecke Klosterweg,strassenbahn,"52.58380752072133, 13.391073501138495",['23'],nan
601,1951601,Podbielskiallee,u-bahn,"52.464444444444,13.296388888889",['A II'],Q571324
602,1951602,Podbielskiallee (Botanischer Garten),strassenbahn,"52.45866344963711, 13.303795091272793",['40'],nan
603,1951603,Potsdam,s-bahn,"52.3917,13.0667",['KBS 102'],Q647973
604,1951604,Potsdamer Chaussee Ecke Spanische Allee,bus,"52.42963465458752, 13.224071111730964",['A3'],nan
605,1951605,Potsdamer Platz,s-bahn,"52.5094,13.3766","['KBS 105', 'KBS 104', 'KBS 105b', 'KBS 106']",Q106086519
606,1951606,Potsdamer Platz,u-bahn,"52.5092,13.3782",['A I'],Q3909578
607,1951607,"Potsdamer Platz, Link-Strasse",strassenbahn,"52.50857621565561, 13.377066568372287",['74'],nan
608,1951608,"Potsdamer Platz, Linkstrasse",strassenbahn,"52.50856492805897, 13.377132677663122",['73'],nan
609,1951609,"Potsdamer Platz, Voßstrasse",strassenbahn,"52.51080031175334, 13.376775026785616",['21'],nan
610,1951610,Potsdamer Platz/Leipziger Platz,bus,"52.50964447511247, 13.3785355856981",['A19'],nan
611,1951611,Potsdamerstrasse Ecke Bülowstrasse,strassenbahn,"52.49781306441612, 13.361994406011867",['2'],nan
612,1951612,Potsdamerstrasse Ecke Goebenstrasse,strassenbahn,"52.494344275679865, 13.361054496551246",['3'],nan
613,1951613,Potsdamerstrasse Ecke Lichterfelderstrasse,strassenbahn,"52.40068930711306, 13.268956373605304",['96'],nan
614,1951614,Potsdamerstrasse Ecke Lützowstrasse,strassenbahn,"52.50308960322814, 13.365693026618919",['88'],nan
615,1951615,Prenzlauer Allee,s-bahn,"52.544775,13.426116",['KBS 100'],Q32661483
616,1951616,Prenzlauer Allee/Prenzlauer Promenade,strassenbahn,"52.55116738477055, 13.43021967382201",['3'],nan
617,1951617,Prenzlauer Promenade Ecke Berlinerstrasse,bus,"52.560601798231446, 13.427965088929291",['A45'],nan
618,1951618,Prenzlauer Promenade Ecke Krügerstrasse,strassenbahn,"52.55120551355978, 13.430197311318913",['70'],nan
619,1951619,Prenzlauer Promenade Ecke Prenzlauer Allee,strassenbahn,"52.55117989834318, 13.43017172356148",['71'],nan
620,1951620,Prenzlauer Tor,strassenbahn,"52.52709114016772, 13.415809370320808",['71'],nan
621,1951621,Prenzlauerstrasse Ecke Dimitroffstrasse,strassenbahn,"52.539207452865114, 13.424233081876855",['4'],nan
622,1951622,Prenzlauerstrasse Ecke Memhardtstrasse,strassenbahn,"52.52451131506197, 13.40793070363539",['65'],nan
623,1951623,Priesterweg,s-bahn,"52.4601,13.3563","['KBS 106', 'KBS 105b']",Q800508
624,1951624,Prinzenallee Ecke Osloerstrasse,strassenbahn,"52.5559072,13.3837614",['3'],Q65807451
625,1951625,Prinzengarten,bus,"52.421682526971836, 13.640756595585955",['A27'],nan
626,1951626,Prinzenstrasse,strassenbahn,"52.49844682801838, 13.406632405808303",['1'],nan
627,1951627,Prinzenstrasse,u-bahn,"52.498333333333,13.406111111111","['B I', 'B II']",Q689797
628,1951628,Prinzenstrasse Ecke Badstrasse,strassenbahn,"52.55233783085044, 13.381467926983843",['24'],nan
629,1951629,Putlitzstr.,s-bahn,"52.536,13.344",['KBS 100'],Q465972
630,1951630,Rahnsdorf,s-bahn,"52.4516372,13.6899776",['KBS 102'],Q800489
631,1951631,Rahnsdorf (Mühle),strassenbahn,"52.44317361042976, 13.684847034483653",['87'],nan
632,1951632,Rangsdorf,s-bahn,"52.294444,13.430278",['KBS 105b'],Q801345
633,1951633,Rankeplatz,strassenbahn,"52.50042978340582, 13.330867334397949",['78'],nan
634,1951634,Rathaus Neukölln,bus,"52.48152537358512, 13.434381079123925",['A4'],nan
635,1951635,Rathaus Neukölln,u-bahn,"52.481666666667,13.434166666667",['C I'],Q628770
636,1951636,Rathaus Schöneberg,bus,"52.48515473887597, 13.345086596743203","['A4', 'A16']",nan
637,1951637,Rathaus Spandau,bus,"52.53480744415333, 13.199505517192808","['A34', 'A13']",nan
638,1951638,Rathaus Steglitz,bus,"52.45683244954579, 13.320757398114617","['A32 (Obus)', 'A17']",nan
639,1951639,Rathaus Steglitz,strassenbahn,"52.45691682931275, 13.320745348424166","['73', '74', '77']",nan
640,1951640,Rathaus Tiergarten,bus,"52.52649085974541, 13.338358982634196",['A16'],nan
641,1951641,Rathaus Wannsee,bus,"52.418440129670444, 13.148872492834737",['A3'],nan
642,1951642,Rathaus Zehlendorf,bus,"52.433207520111885, 13.259531923613192","['A2', 'A3']",nan
643,1951643,Rathenowerstrasse (Kriminalgericht),strassenbahn,"52.52664,13.35458","['35', '21']",Q121863924
644,1951644,Rathenowerstrasse Ecke Invalidenstrasse,strassenbahn,"52.5236499477288, 13.356930609567168",['44'],nan
645,1951645,"Rathenowerstrasse, Kriminalgericht",strassenbahn,"52.52675586683767, 13.355218494054807",['2'],nan
646,1951646,Regattahaus,strassenbahn,"52.4112584319029, 13.588256645864995",['86'],nan
647,1951647,Reichskanzler-Platz,strassenbahn,"52.50930610961649, 13.27244225081761",['75'],nan
648,1951648,Reichskanzlerplatz,u-bahn,"52.509722222222,13.273055555556",['A I'],Q657857
649,1951649,Reichssportfeld,s-bahn,"52.511,13.2416","['KBS 101', 'KBS 103']",Q800506
650,1951650,Reinickendorf,s-bahn,"52.5779,13.3506",['KBS 105'],Q800496
651,1951651,Reinickendorf Hauptstrasse Ecke Aroserallee,bus,"52.574948257119026, 13.352229698506328",['A14'],nan
652,1951652,"Reinickendorf, Hauptstrasse Ecke Residenzstrasse",bus,"52.574280797914476, 13.35917103134222",['A14'],nan
653,1951653,Reinickendorfer Straße,u-bahn,"52.539911111111,13.370377777778",['C I'],Q559249
654,1951654,"Rennbahn, Mariendorf",strassenbahn,"52.430060594099295, 13.39244351468167",['99'],nan
655,1951655,"Rennbahnstrasse, Weißensee",strassenbahn,"52.55699715023485, 13.46689930642489","['73', '74']",nan
656,1951656,Residenzstrasse Ecke Hauptstrasse,strassenbahn,"52.57424536432287, 13.35918599675858",['35'],nan
657,1951657,Richard-Wagner-Platz,u-bahn,"52.5175,13.306388888889",['A III'],Q662201
658,1951658,Richtershorn,strassenbahn,"52.40105,13.6248473",['86'],Q66481215
659,1951659,Rittberg-Krankenhaus,strassenbahn,"52.42987951650218, 13.288961460110901","['78', '77']",nan
660,1951660,Robert-Koch-Platz,bus,"52.527570508835595, 13.37877230286134",['A40'],nan
661,1951661,Roederstrasse Ecke Möllendorffstrasse,strassenbahn,"52.52668887529218, 13.479829196389566",['69'],nan
662,1951662,Roederstrasse/Herzbergerstrasse,strassenbahn,"52.526705666298234, 13.479851397903815",['3'],nan
663,1951663,Roseneck,bus,"52.47580089902253, 13.282411270445099",['A17'],nan
664,1951664,Roseneck,strassenbahn,"52.47630604660362, 13.281717433241134","['57', '51']",nan
665,1951665,Rosentaler Platz,bus,"52.52974032997907, 13.402506061257254",['A40'],nan
666,1951666,Rosentaler Platz,strassenbahn,"52.52971536832875, 13.401459231640118",['1'],nan
667,1951667,"Rosenthal, Quickbornerstrasse",strassenbahn,"52.59765777638598, 13.373845860063588",['23'],nan
668,1951668,Rosenthaler Platz,strassenbahn,"52.5301769,13.4016121",['49'],Q65093945
669,1951669,Rosenthaler Platz,u-bahn,"52.53,13.401111111111",['D'],Q663231
670,1951670,Rudolf-Wilde-Platz,strassenbahn,"52.484776550041566, 13.34510595539852",['60'],nan
671,1951671,Rudolf-Wilde-Platz (Schöneberger Rathaus),strassenbahn,"52.48480789671156, 13.345085647864334","['25', '6']",nan
672,1951672,"Rudow, Bahnhofstrasse",strassenbahn,"52.40195520982694, 13.51319617947882",['47'],nan
673,1951673,"Rudow, Stadtgrenze",strassenbahn,"52.401419858183715, 13.513718348809531",['47'],nan
674,1951674,Ruhleben,u-bahn,"52.525555555556,13.241388888889",['A I'],Q656401
675,1951675,Rummelsburg,s-bahn,"52.501244,13.478545",['KBS 102'],Q15107132
676,1951676,Röntgental,s-bahn,"52.6487,13.5136",['KBS 106'],Q801386
677,1951677,Rüdesheimer Platz,u-bahn,"52.473333333333,13.314444444444",['A II'],Q167147
678,1951678,Rügenerstrasse Ecke Brunnenstrasse,strassenbahn,"52.54468383613832, 13.391054406802407","['36', '41']",nan
679,1951679,Rügenesrstrasse Ecke Brunnenstrasse,strassenbahn,"52.54471634192088, 13.391012495632392","['29', '28']",nan
680,1951680,S-Bhf. Biesdorf,bus,"52.513432593832405, 13.555387279249894",['A37'],nan
681,1951681,S-Bhf. Grünau,bus,"52.41361515857581, 13.573796290663196",['A36'],nan
682,1951682,S-Bhf. Köpenick,strassenbahn,"52.4582153,13.5790435",['83'],Q66370784
683,1951683,S-Bhf. Leninallee,strassenbahn,"52.52851097343215, 13.455862308166953",['64'],","
684,1951684,S-Bhf. Mahlsdorf,strassenbahn,"52.51221826761895, 13.612190748726157",['83'],nan
685,1951685,"S-Bhf. Pankow, Florastrasse",strassenbahn,"52.56665022842682, 13.409775813699397",['49'],nan
686,1951686,S-Bhf. Pankow-Heinersdorf,strassenbahn,"52.577507820515834, 13.427853061920917",['49'],nan
687,1951687,S-Bhf. Schönhauser Allee,strassenbahn,"52.5493619,13.4135734",['49'],Q65088013
688,1951688,S-Bhf. Tegel,bus,"52.58847655492014, 13.288493167700658",['A35'],nan
689,1951689,Saaleckplatz (Lichterfelde),bus,"52.41645148275898, 13.32410613444768",['A17'],nan
690,1951690,"Saarbrücker Strasse, Prenzlauer Tor",strassenbahn,"52.528602411479305, 13.417036440468811",['72'],nan
691,1951691,Sachsendamm Ecke Alboinstrasse,strassenbahn,"52.47043068842395, 13.372774905947711",['60'],nan
692,1951692,Samariterstraße,u-bahn,"52.514722222222,13.464444444444",['E'],Q552891
693,1951693,Sandkrug,bus,"52.62878707273964, 13.310944466290206",['A12'],nan
694,1951694,"Sandkrugbrücke, Lehrter Bahnhof",strassenbahn,"52.52767207168016, 13.37315298082495",['44'],nan
695,1951695,Savignyplatz,s-bahn,"52.5051746,13.3190659","['KBS 101', 'KBS 103', 'KBS 102']",Q554382
696,1951696,Savignyplatz,strassenbahn,"52.50585179529612, 13.322396891564402",['75'],nan
697,1951697,Scharnhorststrasse Ecke Kielerstrasse,bus,"52.534352208349404, 13.370307403927896",['A9'],nan
698,1951698,Scharnweberstrasse Ecke Berlinerstrasse,strassenbahn,"52.561763835262404, 13.332039979520282",['41'],nan
699,1951699,Scheffelstrasse Ecke Möllendorferstrasse,strassenbahn,"52.52043514853654, 13.479520378044159",['14'],nan
700,1951700,"Schildow, Breitestrasse",bus,"52.63597649433687, 13.377309382564276",['A7'],nan
701,1951701,Schillerhof,bus,"52.56055064204758, 13.354548413224213",['A12'],nan
702,1951702,Schillingbrücke,strassenbahn,"52.5091370914063, 13.429198623226851",['1'],nan
703,1951703,Schillingstraße,u-bahn,"52.520277777778,13.421666666667",['E'],Q552899
704,1951704,Schlachtensee,s-bahn,"52.4401,13.2153",['KBS 104'],Q800509
705,1951705,Schlesischer Bhf./Ostbahnhof,strassenbahn,"52.51002134469979, 13.433172290332577",['82'],nan
706,1951706,"Schlesischer Bhf./Ostbahnhof, Madaistrasse",bus,"52.51002134469979, 13.433172290332577",['A40'],nan
707,1951707,Schlesisches Tor,strassenbahn,"52.50089071846621, 13.441502603146748","['3', '4']",nan
708,1951708,Schlesisches Tor,u-bahn,"52.500833333333,13.441666666667",['B II'],Q602282
709,1951709,Schloßbrücke/Luisenplatz,strassenbahn,"52.521355793492035, 13.299755038948497",['3'],nan
710,1951710,Schloßstrasse Ecke Albrechtstrasse,strassenbahn,"52.45689966776005, 13.320717501470192",['44'],nan
711,1951711,Schloßstrasse Ecke Alt-Friedrichsfelde,bus,"52.509610401707185, 13.519032193156905",['A43'],nan
712,1951712,Schloßstrasse Ecke Bundesallee,strassenbahn,"52.464945681945046, 13.328508519102458",['77'],nan
713,1951713,Schmargendorf,s-bahn,"52.479672222222,13.312441666667",['KBS 100'],Q302810
714,1951714,Scholzplatz,strassenbahn,"52.50686709880324, 13.22787843505697",['75'],nan
715,1951715,Schule,strassenbahn,"52.42024695716244, 13.578123380679024",['86'],nan
716,1951716,Schulstrasse Ecke Müllerstrasse,strassenbahn,"52.546390098849415, 13.359141321985554",['68'],nan
717,1951717,Schulzendorf (b Tegel),s-bahn,"52.6128,13.2462",['KBS 105'],Q800487
718,1951718,Schulzendorferstrasse Ecke Parchwitzerstrasse,bus,"52.394393485313174, 13.58578295645289",['A38'],nan
719,1951719,Schöneberg,s-bahn,"52.4794,13.3517","['KBS 100a', 'KBS 104', 'KBS 100']",Q543855
720,1951720,"Schöneberg, Belzigerstrasse (Straßenbahnhof)",strassenbahn,"52.48561325473271, 13.348853660996323",['66'],nan
721,1951721,"Schöneberg, Gotenstrasse",strassenbahn,"52.48139451073493, 13.360284897059513",['25'],nan
722,1951722,"Schöneberg, Thorwaldsenstrasse (August-Viktoria-Krankenhaus",strassenbahn,"52.4590671738712, 13.348491313406196",['66'],nan
723,1951723,"Schönefeld, Dorfplatz",bus,"52.342093062255294, 13.510465453623498",['A36'],nan
724,1951724,Schöneweide,s-bahn,"52.455,13.509444444444","['KBS 100a', 'KBS 100d', 'KBS 103']",Q111323931
725,1951725,Schönhauser Allee,s-bahn,"52.549329,13.413706",['KBS 100'],Q111264493
726,1951726,Schönhauser Allee,u-bahn,"52.549328888889,13.413706111111",['A I'],Q47014936
727,1951727,Schönhauser Allee/Berlinerstrasse,strassenbahn,"52.55459487639287, 13.414737188021832",['3'],nan
728,1951728,Schönhauser Tor,bus,"52.52870003555719, 13.40992131481349",['A40'],nan
729,1951729,Schönholz,s-bahn,"52.5714,13.3814","['KBS 105', 'KBS 104']",Q800490
730,1951730,Schönleinstraße,u-bahn,"52.493055555556,13.421944444444",['D'],Q666868
731,1951731,Seegefelderstrasse Ecke Zeppelinstrasse,bus,"52.538431052900094, 13.182387683289367",['A5'],nan
732,1951732,Seekorso,bus,"52.46787180468717, 13.126497616325192",['A6'],nan
733,1951733,Seelenbinderstrasse,strassenbahn,"52.4554632,13.5769303",['87'],Q66324934
734,1951734,Seestrasse Ecke Müllerstrasse,bus,"52.55052796780343, 13.35195468117489",['A12'],nan
735,1951735,Seestrasse Ecke Müllerstrasse,strassenbahn,"52.55044753588031, 13.351974539230612","['29', '25', '28']",nan
736,1951736,Seestraße,u-bahn,"52.55056,13.35194",['C I'],Q554391
737,1951737,Seestraßenbrücke,strassenbahn,"52.540141968363876, 13.332049054394258",['3'],nan
738,1951738,Senefelderplatz,u-bahn,"52.53242,13.412743",['A I'],Q32661454
739,1951739,Siedlung Weiche,strassenbahn,"52.59447974509029, 13.381077162765449",['23'],nan
740,1951740,Siegfriedstrasse Ecke Alt-Friedrichfelde,strassenbahn,"52.5114072403802, 13.497484182543067",['69'],nan
741,1951741,Siegfriedstrasse Ecke Herzbergerstrasse,strassenbahn,"52.52637,13.499036",['14'],Q65684891
742,1951742,Siemensstadt,s-bahn,"52.53923,13.26365",['KBS 100b'],Q96080453
743,1951743,Siemensstadt (Verwaltungsgebäude),strassenbahn,"52.53699730933042, 13.262264223562065",['35'],nan
744,1951744,Siemensstrasse Ecke Leonorenstrasse,bus,"52.44438216972009, 13.338842091785603","['A32 (Obus)', 'A2']",nan
745,1951745,Siemensstrasse Ecke Leopnorenstrasse,bus,"52.44436300793054, 13.338852906261025",['A17'],nan
746,1951746,Sonnenallee,s-bahn,"52.473,13.4558",['KBS 100'],Q481364
747,1951747,Sonnenallee Ecke Teupitzerstrasse,strassenbahn,"52.47450048002051, 13.454650836315244",['95'],nan
748,1951748,Sophie-Charlotte-Platz,strassenbahn,"52.510993114139346, 13.297255303909813",['60'],nan
749,1951749,Sophie-Charlotte-Platz,u-bahn,"52.510833333333,13.296666666667",['A I'],Q657879
750,1951750,Spandau,s-bahn,"52.532, 13.2089","['KBS 101', 'KBS 103']",Q800491
751,1951751,Spandau Hakenfelde,strassenbahn,"52.57846902240318, 13.210223083998295",['75'],nan
752,1951752,Spandau Markt,strassenbahn,"52.53784349532438, 13.204135429364628","['54', '75']",nan
753,1951753,Spandau Rathaus,strassenbahn,"52.53482632780782, 13.199642610721384",['75'],nan
754,1951754,Spandau Stadtpark,strassenbahn,"52.562274096642426, 13.196938450510638",['54'],nan
755,1951755,Spandau West,s-bahn,"52.5347,13.1958","['KBS 101', 'KBS 103']",Q111325678
756,1951756,"Spandau, Askanierring",bus,"52.54583446317149, 13.19375616188106",['A34'],nan
757,1951757,"Spandau, Johannesstift",strassenbahn,"52.567653498027326, 13.191830361576441",['54'],nan
758,1951758,"Spandau, Markt",bus,"52.537581553341596, 13.203797305616401",['A13'],nan
759,1951759,"Spandau, Markt",strassenbahn,"52.53784349532438, 13.204135429364628",['55'],nan
760,1951760,"Spandau, Nauener Strasse",strassenbahn,"52.53843568558554, 13.182420240959752",['55'],nan
761,1951761,"Spandau, Rathaus",bus,"52.53499298559709, 13.198169626471378","['A5', 'A31']",nan
762,1951762,"Spandau, Weinmeisterhornweg",bus,"52.51105909016346, 13.171587026206698",['A13'],nan
763,1951763,Spandauer Bock,strassenbahn,"52.523899111257855, 13.249432348821601",['54'],nan
764,1951764,Spandauer Damm Ecke Königin-Elisabeth-Strasse,strassenbahn,"52.518382794187715, 13.280160730425454",['60'],nan
765,1951765,Spindlersfeld,s-bahn,"52.4472,13.5613",['KBS 100d'],Q4892371
766,1951766,Spittelmarkt,strassenbahn,"52.511243321361405, 13.40494539543245","['73', '64', '72', '74']",nan
767,1951767,Spittelmarkt,u-bahn,"52.511111111111,13.403611111111",['A I'],Q569489
768,1951768,Sportplatz (Reinickendorf-West),strassenbahn,"52.56795889171696, 13.312035395866104","['29', '41', '25', '28']",nan
769,1951769,Spreetunnel,strassenbahn,"52.446888657139446, 13.62426285838549",['87'],nan
770,1951770,Springpfuhl,bus,"52.52561231977731, 13.533687321893124",['A43'],nan
771,1951771,Staaken,s-bahn,"52.5378,13.1414",['KBS 101'],Q477545
772,1951772,"Staaken, Heidelbergplan",bus,"52.541199833983136, 13.1468428723857",['A31'],nan
773,1951773,Stadtmitte,u-bahn,"52.5122,13.3894",['C I'],Q660066
774,1951774,Stadtmitte (Mohrenstr.),u-bahn,"52.5122,13.3894",['A I'],Q660066
775,1951775,Stadtpark Steglitz,bus,"52.45110500206577, 13.337263231840865","['A32 (Obus)', 'A2', 'A33 (Obus)']",nan
776,1951776,Stalinallee,s-bahn,"52.514166666667,13.474722222222",['KBS 100'],Q111250033
777,1951777,Stalinallee,strassenbahn,"52.51808306742478, 13.432938339097822",['3'],nan
778,1951778,Stalinallee,u-bahn,"52.514166666667,13.474722222222",['E'],Q552872
779,1951779,Steglitz,s-bahn,"52.4562,13.3216",['KBS 104'],Q111264179
780,1951780,Steglitz Rathaus,strassenbahn,"52.45687300767844, 13.320753680030487","['78', '40']",nan
781,1951781,"Steglitz, Birkbuschstrasse Ecke Siemensstrasse",strassenbahn,"52.44243083769542, 13.332094600927585",['40'],nan
782,1951782,"Steglitz, Stadtpark",strassenbahn,"52.45104341804188, 13.337979324650034",['88'],nan
783,1951783,Stettiner Bhf./Nordbahnhof,bus,"52.531654796655225, 13.388707566743538",['A19'],nan
784,1951784,Steuerhaus,strassenbahn,"52.530493,13.4614989",['64'],Q65553632
785,1951785,Stralauer Allee Ecke Warschauerstrasse,strassenbahn,"52.5027447631683, 13.446710396391275","['4', '82']",nan
786,1951786,Strassenbahnhof Köpenick,strassenbahn,"52.4399134,13.5817824",['83'],Q66370900
787,1951787,Strassenbahnhof Spandau,strassenbahn,"52.5189,13.1993",['75'],Q25089689
788,1951788,Strausberg,s-bahn,"52.531933,13.836933",['KBS 101'],Q7622326
789,1951789,Strausberger Platz,u-bahn,"52.518055555556,13.430833333333",['E'],Q570999
790,1951790,Strelitzerstrasse Ecke Bernauerstrasse,strassenbahn,"52.53743929261797, 13.393268074777138",['4'],nan
791,1951791,Stromstrasse Ecke Alt-Moabit,strassenbahn,"52.525423127112404, 13.34283986840417",['44'],nan
792,1951792,Stromstrasse Ecke Turmstrasse,strassenbahn,"52.52632254227867, 13.343185347872527","['35', '2', '25', '21']",nan
793,1951793,Stuttgarter Platz,strassenbahn,"52.50566810519856, 13.306864497506904",['60'],nan
794,1951794,"Stölpchensee, Wilhelmplatz",bus,"52.41240583089011, 13.141644518533106",['A3'],nan
795,1951795,Sundgauer Str.,s-bahn,"52.436291,13.273772",['KBS 104'],Q800513
796,1951796,Südende,s-bahn,"52.4481,13.3536",['KBS 106'],Q800511
797,1951797,Südstern,strassenbahn,"52.489200004098294, 13.407589825806399",['3'],nan
798,1951798,Südstern,u-bahn,"52.489444444444,13.407777777778",['C I'],Q656081
799,1951799,Tauroggenerstrasse Ecke Osnabrückerstrasse,strassenbahn,"52.52583942409434, 13.301930866209489",['55'],nan
800,1951800,Tegel,s-bahn,"52.5886,13.2894",['KBS 105'],Q800493
801,1951801,"Tegel, Alt-Tegel",strassenbahn,"52.589904229457645, 13.283306953160388","['41', '25']",nan
802,1951802,"Tegelort, Kurzestrasse",strassenbahn,"52.57057206458455, 13.229144292870291",['28'],nan
803,1951803,Teichstrasse Ecke Gotthardstrasse,strassenbahn,"52.56698166717639, 13.346641689520075",['41'],nan
804,1951804,Teltow,s-bahn,"52.388056,13.299444",['KBS 106'],Q7697868
805,1951805,Teltower Damm Ecke Beeskowdamm,bus,"52.40898247800021, 13.267419069153956",['A1 (Obus)'],nan
806,1951806,Tempelhof,s-bahn,"52.4708,13.3854","['KBS 100a', 'KBS 100']",Q111264368
807,1951807,Tempelhof (Südring),strassenbahn,"52.4707525200543, 13.385657096051446",['96'],nan
808,1951808,Tempelhof (Südring),u-bahn,"52.47075,13.385361111111",['C II'],Q3983109
809,1951809,Tempelhofer Damm Ecke Alt-Tempelhof,strassenbahn,"52.46597106229217, 13.385653163707664",['6'],nan
810,1951810,Thielallee Ecke Berlinerstrasse,bus,"52.44187703328261, 13.282715632576368",['A10'],nan
811,1951811,Thielplatz,u-bahn,"52.451111111111,13.282222222222",['A II'],Q571331
812,1951812,Thälmannplatz,u-bahn,"52.51167,13.38472",['A I'],Q658391
813,1951813,Tiergarten,s-bahn,"52.5144,13.3365","['KBS 101', 'KBS 103', 'KBS 102']",Q572112
814,1951814,Titania-Palast,bus,"52.46399077613775, 13.32747517847164",['A17'],nan
815,1951815,Titania-Palast,strassenbahn,"52.464032555260935, 13.32750541098576",['44'],nan
816,1951816,"Treptow, Elsenstrasse",strassenbahn,"52.493944205822736, 13.460794560225086",['3'],nan
817,1951817,"Treptow, Rathaus",strassenbahn,"52.483613037029144, 13.480317575778315",['91'],nan
818,1951818,Treptower Park,s-bahn,"52.4938,13.4618","['KBS 103', 'KBS 100']",Q559274
819,1951819,Treskow Allee Ecke Marksburgstrasse,strassenbahn,"52.48658530915394, 13.526841376429443",['69'],nan
820,1951820,Turmstrasse Ecke Gotzkowskystrasse,strassenbahn,"52.5272342163684, 13.330508113555048",['3'],nan
821,1951821,U-Bhf. Boddinstrasse,bus,"52.48028651973042, 13.425279574612379",['A4'],nan
822,1951822,U-Bhf. Boddinstrasse,strassenbahn,"52.48027865367161, 13.4251690465859",['27'],nan
823,1951823,U-Bhf. Breitenbachplatz,bus,"52.46728214655765, 13.309329229574995","['A1 (Obus)', 'A16']",nan
824,1951824,U-Bhf. Dahlem-Dorf,bus,"52.45807069736877, 13.289706947871178",['A11'],nan
825,1951825,U-Bhf. Dahlem-Dorf,strassenbahn,"52.45806630220509, 13.290310484320848",['40'],nan
826,1951826,U-Bhf. Danzigerstrasse,strassenbahn,"52.5401928,13.4113979",['70'],Q65088313
827,1951827,U-Bhf. Ernst-Reuter-Platz,strassenbahn,"52.511726576083134, 13.32260139821175",['44'],nan
828,1951828,U-Bhf. Fehrbelliner Platz,bus,"52.490390927187676, 13.31417745809863",['A1 (Obus)'],nan
829,1951829,U-Bhf. Flughafen,bus,"52.48488595983176, 13.38599654703171",['A4'],nan
830,1951830,U-Bhf. Friedrichsfelde,bus,"52.50624112361932, 13.512853060220209","['A8', 'A43']",nan
831,1951831,U-Bhf. Gesundbrunnen,strassenbahn,"52.54821570803947, 13.38830480823042",['41'],nan
832,1951832,U-Bhf. Grenzallee,strassenbahn,"52.46348178875844, 13.444377273631815",['47'],nan
833,1951833,U-Bhf. Görlitzer Bahnhof,strassenbahn,"52.4992556401354, 13.42774699131215",['88'],nan
834,1951834,U-Bhf. Innsbrucker Platz,strassenbahn,"52.47848210264891, 13.344083127580424","['73', '66', '74']",nan
835,1951835,U-Bhf. Krumme Lanke,bus,"52.44308074990891, 13.24046555211665",['A3'],nan
836,1951836,U-Bhf. Kurfürstenstrasse,strassenbahn,"52.49973823930099, 13.362738138080232",['88'],nan
837,1951837,U-Bhf. Moritzplatz,strassenbahn,"52.503642228347914, 13.410708942561621","['1', '88']",nan
838,1951838,U-Bhf. Neanderstrasse,strassenbahn,"52.511034507689814, 13.41638558442145","['64', '92', '87']",nan
839,1951839,U-Bhf. Neu-Westend,bus,"52.51625397204876, 13.260832878941526",['A10'],nan
840,1951840,U-Bhf. Neukölln,strassenbahn,"52.46965567921364, 13.441614939772098","['6', '26', '47']",nan
841,1951841,U-Bhf. Nollendorfplatz,strassenbahn,"52.499565979571884, 13.353853593850566",['2'],nan
842,1951842,U-Bhf. Onkel-Toms-Hütte,bus,"52.45007713385221, 13.251272593463492",['A3'],nan
843,1951843,U-Bhf. Oskar-Helene-Heim,bus,"52.450279005868815, 13.270361987159156","['A3E', 'A1 (Obus)', 'A3']",nan
844,1951844,U-Bhf. Rathaus Neukölln,strassenbahn,"52.48155631900372, 13.434303920603828",['6'],nan
845,1951845,U-Bhf. Reichskanzlerplatz,bus,"52.50952698324031, 13.272643160067748",['A10'],nan
846,1951846,"U-Bhf. Richard-Wagner-Platz, Wintersteinstrasse",strassenbahn,"52.517877534430404, 13.306494704650317",['54'],nan
847,1951847,U-Bhf. Ruhleben,strassenbahn,"52.52595776615238, 13.241371866188729",['54'],nan
848,1951848,U-Bhf. Rüdesheimer Platz,bus,"52.4720831087791, 13.314909778144818",['A17'],nan
849,1951849,U-Bhf. Schlesisches Tor,strassenbahn,"52.5011243910834, 13.441872762233045","['92', '87']",nan
850,1951850,U-Bhf. Seestrasse,bus,"52.550315408708514, 13.352298502985231",['A16'],nan
851,1951851,U-Bhf. Spittelmarkt,strassenbahn,"52.51132766840338, 13.401454563510097","['92', '87']",nan
852,1951852,U-Bhf. Tempelhof,strassenbahn,"52.46650157483068, 13.385608599208812",['98'],nan
853,1951853,U-Bhf. Thielplatz,bus,"52.45104520805668, 13.281736418792137","['A11', 'A10']",nan
854,1951854,U-Bhf. Uhlandstrasse,strassenbahn,"52.50265789390516, 13.325933098024459","['76', '76E']",nan
855,1951855,U-Bhf. Vinetastrasse,strassenbahn,"52.5596168,13.413232",['49'],Q65075426
856,1951856,U-Bhf. Wittenbergplatz,strassenbahn,"52.50183316129106, 13.342981930307726","['25', '2', '6']",nan
857,1951857,Uhlandstrasse,u-bahn,"52.5025,13.325555555556",['B II'],Q568224
858,1951858,Unter den Linden,s-bahn,"52.516388888889,13.380833333333","['KBS 105', 'KBS 104', 'KBS 105b', 'KBS 106']",Q477185
859,1951859,Velten (Mark),s-bahn,"52.685,13.172222",['KBS 105'],Q19274518
860,1951860,Verwaltungsgebäude,strassenbahn,"52.53699730933042, 13.262264223562065",['55'],nan
861,1951861,Viktoria-Luise-Platz,u-bahn,"52.496161111111,13.342702777778",['B I'],Q178685
862,1951862,Vollkropfgraben,strassenbahn,"52.4386665,13.5714889",['86'],Q66493847
863,1951863,Voltastr.,u-bahn,"52.542093,13.393022",['D'],Q663308
864,1951864,Voltastrasse Ecke Hultschiner Damm,strassenbahn,"52.4910656264331, 13.607738486476617",['83'],nan
865,1951865,Waidmannslust,s-bahn,"52.6064,13.321",['KBS 104'],Q800492
866,1951866,Waidmannsluster Damm,bus,"52.60784248016468, 13.323835696471509",['A12'],nan
867,1951867,Waidmannslusterdamm Ecke Buddestrasse,bus,"52.59451667615977, 13.284270812031531",['A14'],nan
868,1951868,Waldstrasse Ecke Gotzkowskystrasse,strassenbahn,"52.52718286822992, 13.330566602914939",['2'],nan
869,1951869,Waldstrasse/Gotzkowskystrasse,strassenbahn,"52.52721175887857, 13.330516645236623",['25'],nan
870,1951870,Walter-Ulbricht-Stadion,u-bahn,"52.533889,13.376667",['C I'],Q467373
871,1951871,Walterdorferstrasse Ecke Waldstrasse,bus,"52.38941334365468, 13.570694221967981",['A38'],nan
872,1951872,Waltersdorfer Chaussee (Spinne),bus,"52.392853002264665, 13.522677096747554",['A36'],nan
873,1951873,Waltersdorfer Chaussee Ecke Neuköllnerstrasse,strassenbahn,"52.415179182196056, 13.497877290826006",['47'],nan
874,1951874,Wannsee,Fähre,"52.421928022812146, 13.175815964118582",['Wannsee<>Kladow (Betrieb durch Stern und Kreisschiffahrt)'],nan
875,1951875,Wannsee,s-bahn,"52.4214,13.1792","['KBS 104', 'KBS 102']",Q111325896
876,1951876,Warschaerstrasse Ecke Boxhagenerstrasse,strassenbahn,"52.51415126546135, 13.453415294159813",['13'],nan
877,1951877,Warschauer Brücke,strassenbahn,"52.506746741445006, 13.449684491939852","['3', '4']",nan
878,1951878,Warschauer Brücke,u-bahn,"52.5051,13.4491",['B II'],Q18380174
879,1951879,Warschauer Str.,s-bahn,"52.506416666667,13.450955555556","['KBS 101', 'KBS 103', 'KBS 102']",Q111252298
880,1951880,"Wartenberg, Siedlung",bus,"52.58402507545126, 13.53101715685476",['A39'],nan
881,1951881,Wartenbergerstrasse Ecke Falkenbergerstrasse,bus,"52.565301581726644, 13.512584903878562",['A39'],nan
882,1951882,Wasserwerk,bus,"52.57559434763526, 13.265051965662359",['A13'],nan
883,1951883,Wedding,s-bahn,"52.5425,13.3661",['KBS 100'],Q638604
884,1951884,Weddingplatz,strassenbahn,"52.54152535588228, 13.369198549039789","['35', '25', '23']",nan
885,1951885,Weg nach Saatwinkel,bus,"52.56198891016255, 13.254628464556555",['A13'],nan
886,1951886,Weidenweg Ecke Bersarinstrasse,strassenbahn,"52.5184726506845, 13.452953128176693","['13', '65', '4']",nan
887,1951887,Weinmeisterstr.,u-bahn,"52.525833333333,13.403888888889",['D'],Q661876
888,1951888,Weinmeisterstrasse,strassenbahn,"52.5253215,13.4035047",['65'],Q65094293
889,1951889,"Weißensee, Buschallee",strassenbahn,"52.553902934807, 13.467551967040292",['70'],nan
890,1951890,"Weißensee, Lindenallee",bus,"52.550728390696705, 13.461950622649299",['A45'],nan
891,1951891,"Weißensee, Rennbahnstrasse Ecke Parkstrasse",strassenbahn,"52.558956439159395, 13.462042583727074",['72'],nan
892,1951892,Weißenseer Weg,strassenbahn,"52.532258,13.476705",['64'],Q65942700
893,1951893,Weißenseer Weg Ecke Landsbergerstrasse,bus,"52.53305514649425, 13.476108495324048",['A41'],nan
894,1951894,Wendenschloß Ecke Ekhofstrasse,strassenbahn,"52.41633000736971, 13.589690772826726",['83'],nan
895,1951895,Wendenschloßstrasse Ecke Müggelheimerstrasse,strassenbahn,"52.4429928,13.5812285",['95'],Q66095671
896,1951896,Werftstrasse Ecke Alt-Moabit,strassenbahn,"52.527226031588214, 13.330495129392713",['2'],nan
897,1951897,Wernerwerk,s-bahn,"52.534863,13.27599",['KBS 100b'],Q96077001
898,1951898,Wernerwerk,strassenbahn,"52.53552540037026, 13.275770067588141",['55'],nan
899,1951899,Westend,s-bahn,"52.5181,13.2844",['KBS 100'],Q323214
900,1951900,"Westend, Königin-Elisabeth-Strasse",bus,"52.518416777757736, 13.280170814829948",['A10'],nan
901,1951901,Westkreuz,s-bahn,"52.5011,13.2839","['KBS 102', 'KBS 101', 'KBS 103', 'KBS 100']",Q678125
902,1951902,Wiener Brücke,strassenbahn,"52.49588477409083, 13.43650068505988",['88'],nan
903,1951903,Wiesenbaude,bus,"52.430495242672045, 13.31180861060395",['A11'],nan
904,1951904,Wiesenbaude,strassenbahn,"52.43330952304924, 13.307272184416341",['74'],nan
905,1951905,"Wiesenbaude, Giesendorferstrasse",strassenbahn,"52.43129460045176, 13.309610313200116",['73'],nan
906,1951906,Wildau,s-bahn,"52.32,13.634",['KBS 103'],Q8000974
907,1951907,Wilder Eber,bus,"52.47049616964302, 13.289623891934786",['A10'],nan
908,1951908,Wilhelm-Borgmann Brücke,strassenbahn,"52.456505625708786, 13.427170708592074",['26'],nan
909,1951909,Wilhelminenhofstrasse Ecke Edisonstrasse,strassenbahn,"52.4619496,13.5139049","['69', '95']",Q65951882
910,1951910,Wilhelmshagen,s-bahn,"52.4386,13.7222",['KBS 102'],Q800494
911,1951911,Wilhelmsruh,s-bahn,"52.5814,13.3631",['KBS 104'],Q800495
912,1951912,"Wilhelmsruh, Fontanestrasse",bus,"52.58985938767378, 13.361193570257216",['A45'],nan
913,1951913,"Wilhelmsruh, Hauptstrasse",strassenbahn,"52.59724375258745, 13.375518833120681","['36', '35']",nan
914,1951914,Wilhelmstrasse/Oberhoferweg,strassenbahn,"52.427777552625784, 13.326624753321346",['96'],nan
915,1951915,Wilmersdorf,s-bahn,"52.477658333333,13.328525","['KBS 100a', 'KBS 100']",Q464094
916,1951916,Wilmersdorfer Strasse Ecke Berlinerstrasse,strassenbahn,"52.51810404338167, 13.30449191797482",['44'],nan
917,1951917,Wilmersdorferstrasse Ecke Kurfürsten Damm,strassenbahn,"52.50000734428624, 13.307123939972875","['76', '76E']",nan
918,1951918,Wittenau (Kremmener Bahn),s-bahn,"52.597013,13.334329",['KBS 105'],Q111264319
919,1951919,Wittenau (Nordbahn),s-bahn,"52.597013,13.334329",['KBS 104'],Q111264319
920,1951920,"Wittenau, Heilanstalt",strassenbahn,"52.58284634558199, 13.33436306449741",['68'],nan
921,1951921,"Wittenau, Nordbahn",strassenbahn,"52.597716052663074, 13.331731491819776",['68'],nan
922,1951922,Wittenbergplatz,strassenbahn,"52.50185025953713, 13.343098350806866","['76', '77', '76E']",nan
923,1951923,Wittenbergplatz,u-bahn,"52.501944444444,13.343055555556","['A I', 'B II', 'A II']",Q692727
924,1951924,Witzleben,s-bahn,"52.5078,13.2836",['KBS 100'],Q321266
925,1951925,Wollankstrasse,s-bahn,"52.5651525,13.3923627","['KBS 105', 'KBS 104']",Q800515
926,1951926,Wuhlheide,s-bahn,"52.4689,13.5533",['KBS 102'],Q800514
927,1951927,Yorckstr.,s-bahn,"52.491777777778,13.372141666667","['KBS 106', 'KBS 105b']",Q21776729
928,1951928,Yorckstrasse/Gneisenaustrasse,strassenbahn,"52.492962048633196, 13.387727495303821",['99'],nan
929,1951929,Zehlendorf,s-bahn,"52.4309,13.2584","['KBS 104', 'KBS 104a']",Q737962
930,1951930,Zehlendorf West,s-bahn,"52.4375,13.2325",['KBS 104'],Q315891
931,1951931,Zentralviehhof,s-bahn,"52.5238,13.4644",['KBS 100'],Q800512
932,1951932,Zepernick (Kr Niederbarnim),s-bahn,"52.6598,13.5342",['KBS 106'],Q801657
933,1951933,Zeuthen,s-bahn,"52.3486,13.6274",['KBS 103'],Q8069824
934,1951934,Zionskirchplatz,strassenbahn,"52.5344603,13.4055497","['70', '46']",Q65093880
935,1951935,Zionskirchstrasse,strassenbahn,"52.53410664596866, 13.404963978167501",['49'],nan
936,1951936,Zoologischer Garten,s-bahn,"52.507222222222,13.3325","['KBS 101', 'KBS 103', 'KBS 102']",Q111326238
937,1951937,Zoologischer Garten,u-bahn,"52.5058669,13.3330236",['A I'],Q4024764
938,1951938,Zossenerstrasse Ecke Gneisenaustrasse,strassenbahn,"52.49155139459289, 13.39446910449039",['3'],nan
939,1951939,Zur Haveldüne (Weinmeisterhöhe),bus,"52.503157809701875, 13.179763143912808",['A34'],nan
