,line_id,stop_name,stop_order,stop_id
0,19641,Ostbahnhof,0,1964878
1,19641,U-Bhf. Strausberger Platz,1,19641312
2,19641,Leninplatz,2,1964704
3,19641,"Alexanderplatz, Memhardstr.",3,196414
4,19641,Rosenthaler Platz,4,19641024
5,19641,Invalidenstrasse Ecke Chausseestrasse,5,1964554
6,19641,Oranienburger Tor,6,1964864
7,19641,Hannoversche Strasse,7,1964451
8,19642,Adalbertstrasse,0,19641
9,19642,S-Bhf. Jannowitzbrücke,1,19641053
10,19642,"Alexanderplatz, Grunerstrasse",2,196411
11,19643,S-Bhf. Warschauer Strasse,0,19641075
12,19643,Kopernikusstrasse,1,1964629
13,19643,Holteistrasse Ecke Boxhagenerstrasse,2,1964526
14,19643,Bhf. Frankfurter Allee,3,1964125
15,19643,Roederplatz,4,19641018
16,19643,Hohenschönhauser Strasse,5,1964516
17,19643,Omnibus-Bhf. Lichtenberger Strasse,6,1964856
18,19643,Klement-Gottwald-Allee,7,1964611
19,19643,Antonplatz,8,196469
20,19643,Prenzlauer Promenade,9,1964941
21,19643,Schönhauser Allee,10,19641135
22,19643,Björnsonstrasse,11,1964158
23,19644,S-Bhf. Warschauer Strasse,0,19641075
24,19644,Grünberger Strasse,1,1964423
25,19644,Frankfurter Tor,2,1964337
26,19644,Bersarinplatz,3,1964120
27,19644,Leninallee,4,1964702
28,19644,Kniprodestrasse,5,1964621
29,19644,Greifswalder Strasse,6,1964402
30,19644,Prenzlauer Allee,7,1964938
31,19644,U-Bhf. Dimitroffstrasse,8,19641278
32,19644,Eberswalderstrasse Ecke Oderberger Strasse,9,1964280
33,19645,Heinrich-Heine-Strasse,0,1964481
34,19645,S-Bhf. Jannowitzbrücke,1,19641054
35,19645,"Alexanderplatz, Memhardstrasse",2,196415
36,19645,Rosenthaler Platz,3,19641024
37,19645,Brunnenstrasse Ecke Invalidenstrasse,4,1964195
38,19645,Oranienburger Tor,5,1964864
39,19645,Bhf. Friedrichstrasse,6,1964127
40,19645,Am Kupfergraben,7,196450
41,19646,Hönower Wiesenweg Ecke Blockdammweg,0,1964542
42,19646,Kraftwerk Klingenberg,1,1964634
43,19646,Karlshorster Strasse,2,1964589
44,19646,Holteistrasse Ecke Boxhagenerstrasse,3,1964526
45,19646,Frankfurter Tor,4,1964337
46,19646,Bersarinplatz,5,1964120
47,19646,Leninallee,6,1964702
48,19646,Kniprodestrasse,7,1964621
49,19646,Greifswalder Strasse,8,1964402
50,19646,Prenzlauer Allee,9,1964938
51,19646,U-Bhf. Dimitroffstrasse,10,19641278
52,19646,Oderberger Strasse Ecke Eberswalderstrasse,11,1964852
53,19647,Daimlerstrasse,0,1964249
54,19647,Großbeerenstrasse Ecke Lankwitzer Strasse,1,1964410
55,19647,Körtingstrasse,2,1964685
56,19647,Mariendorfer Damm,3,1964773
57,19647,Imbrosweg,4,1964545
58,19647,Mariendorfer Friedhof,5,1964776
59,19647,Industriestrasse,6,1964548
60,19647,Germaniastrasse,7,1964376
61,19647,Frauenklinik,8,1964341
62,19647,Hermannstrasse,9,1964490
63,19647,U-Bhf. Neukölln,10,19641298
64,19647,Richardstrasse,11,19641008
65,19647,Saalestrasse Ecke Sonnenallee,12,19641078
66,19647,Dammweg,13,1964251
67,19647,Schulenburgpark,14,19641112
68,19648,"Rosenthal, Hauptstrasse",0,19641022
69,19648,Nordendstrasse,1,1964843
70,19648,Kurt-Fischer-Platz,2,1964664
71,19648,"Pankow, Kirche",3,1964892
72,19648,S-Bhf. Pankow,4,19641065
73,19648,U-Bhf. Vinetastrasse,5,19641319
74,19648,S-Bhf. Schönhauser Allee,6,19641072
75,19648,U-Bhf. Dimitroffstrasse,7,19641278
76,19648,Rosenthaler Platz,8,19641024
77,19648,"Alexanderplatz, Memhardstrasse",9,196415
78,19648,S-Bhf. Jannowitzbrücke,10,19641054
79,19649,"Niederschönhausen, Schillerstrasse",0,1964836
80,19649,Nordend,1,1964842
81,19649,Ossietzkyplatz,2,1964875
82,19649,Kurt-Fischer-Platz,3,1964664
83,19649,"Pankow, Kirche",4,1964892
84,19649,S-Bhf. Pankow,5,19641065
85,19649,U-Bhf. Vinetastrasse,6,19641319
86,19649,S-Bhf. Schönhauser Allee,7,19641072
87,19649,U-Bhf. Dimitroffstrasse,8,19641278
88,19649,Brunnenstrasse,9,1964194
89,19649,Oranienburger Tor,10,1964864
90,19649,Bhf. Friedrichstrasse,11,1964127
91,19649,Am Kupfergraben,12,196450
92,196410,Gradestrasse Ecke Tempelhofer Weg,0,1964398
93,196410,U-Bhf. Blaschko-Allee,1,19641275
94,196410,Buschkrug,2,1964215
95,196410,Onkel-Herse-Strasse,3,1964858
96,196410,Parachimer Allee Ecke Buschkrug Allee,4,1964901
97,196410,Grüner Weg Ecke Buschkrug Allee,5,1964426
98,196410,Krankenhaus Neukölln,6,1964642
99,196410,Johannisthaler Chaussee Ecke Rudower Strasse,7,1964567
100,196410,Wildmeisterdamm Ecke Neuköllner Strasse,8,19641397
101,196410,Stubenrauchstrasse,9,19641216
102,196410,Köpenicker Strasse Ecke Neuköllner Strasse,10,1964683
103,196410,Große-Ziethen Chaussee Ecke Waltersdorfer Chaussee,11,1964412
104,196411,"Buchholz, Hauptstrasse",0,1964199
105,196411,Rosenthaler Strasse,1,19641025
106,196411,Galenusstrasse,2,1964363
107,196411,S-Bhf. Pankow-Heinersdorf,3,19641066
108,196411,"Pankow, Kirche",4,1964892
109,196411,S-Bhf. Pankow,5,19641065
110,196411,U-Bhf. Vinetastrasse,6,19641319
111,196411,Bornholmer Strasse,7,1964173
112,196411,S-Bhf. Schönhauser Allee,8,19641072
113,196411,U-Bhf. Dimitroffstrasse,9,19641278
114,196411,Rosenthaler Platz,10,19641024
115,196411,"Hackescher Markt, Große Präsidentenstrasse",11,1964438
116,196412,Richard-Wagner-Platz,0,19641005
117,196412,Luisenplatz,1,1964740
118,196412,Klausenerplatz,2,1964609
119,196412,Königin-Elisabeth-Strasse,3,1964670
120,196412,Kirschenallee,4,1964605
121,196412,Schloss Ruhwald,5,19641100
122,196412,U-Bhf. Ruhleben,6,19641305
123,196412,Teltower Strasse,7,19641242
124,196412,Freiheit,8,1964345
125,196412,"Spandau, Markt",9,19641172
126,196412,Hafenplatz,10,1964441
127,196412,Lynastrasse Ecke Neuendorfer Strasse,11,1964746
128,196412,Hohenzollernring,12,1964522
130,196412,Hakenfelde,13,1964444
131,196413,Richard-Wagner-Platz,0,19641005
132,196413,Luisenplatz,1,1964740
133,196413,Klausenerplatz,2,1964609
134,196413,Königin-Elisabeth-Strasse,3,1964670
135,196413,Kirschenallee,4,1964605
136,196413,Schloss Ruhwald,5,19641100
137,196413,U-Bhf. Ruhleben,6,19641305
138,196413,Teltower Strasse,7,19641242
139,196413,Freiheit,8,1964345
140,196413,"Spandau, Markt",9,19641172
141,196413,Hafenplatz,10,1964441
142,196413,Lynastrasse Ecke Neuendorfer Strasse,11,1964746
143,196413,Hohenzollernring,12,1964522
145,196413,Johannesstift,13,1964564
146,196414,Bhf. Zoo,0,1964148
147,196414,U-Bhf. Ernst-Reuter-Platz,1,19641280
148,196414,Richard-Wagner-Platz,2,19641005
149,196414,Luisenplatz,3,1964740
150,196414,Osnabrücker Strasse,4,1964874
151,196414,Jakob-Kaiser-Platz,5,1964556
152,196414,Quellweg,6,1964962
153,196414,Paulsternstrasse,7,1964910
154,196414,Zitadellenweg,8,19641447
155,196414,Carl-Schurz-Strasse Ecke Am Juliusturm,9,1964224
156,196414,Hafenplatz,10,1964441
157,196414,Hohenzollernring,11,1964522
159,196414,Hakenfelde,12,1964444
160,196415,"Hohenschönhausen, Gartenstadt",0,1964514
161,196415,Falkenbergerstrasse Ecke Wartenberger Strasse,1,1964316
162,196415,"Hohenschönhausen, Hauptstrasse",2,1964515
163,196415,Degnerstrasse,3,1964254
164,196415,Weißenseer Weg,4,19641377
165,196415,Steuerhaus,5,19641198
166,196415,Dimitroffstrasse,6,1964262
169,196415,Leninplatz,7,1964704
170,196415,"Alexanderplatz, Memhardstrasse",8,196415
171,196415,"Hackescher Markt, Große Präsidentenstrasse",9,1964438
172,196416,"Hohenschönhausen, Falkenberger Strasse",0,1964513
173,196416,"Hohenschönhausen, Hauptstrasse",1,1964515
174,196416,Degnerstrasse,2,1964254
175,196416,Weißenseer Weg,3,19641377
176,196416,Steuerhaus,4,19641198
177,196416,Dimitroffstrasse,5,1964262
180,196416,Leninplatz,6,1964704
181,196416,"Alexanderplatz, Leninallee",7,196413
182,196416,S-Bhf. Jannowitzbrücke,8,19641054
183,196416,Spittelmarkt,9,19641181
184,196416,Dönhoffplatz,10,1964277
185,196417,"Johannisthal, Haeckelstrasse",0,1964565
186,196417,Bhf. Schöneweide,1,1964140
187,196417,Wilhelminenhofstrasse,2,19641398
188,196417,S-Bhf. Karlshorst,3,19641055
189,196417,Hochschule für Ökonomie,4,1964509
190,196417,Tierpark Berlin,5,19641263
191,196417,Alt-Friedrichsfelde Ecke Am Tierpark,6,196422
192,196417,Bhf. Lichtenberg,7,1964133
193,196417,Strab. Bhf. Siegfriedstrasse,8,19641202
194,196417,Herzbergstrasse,9,1964497
195,196417,Roederplatz,10,19641018
196,196417,Steuerhaus,11,19641198
197,196417,Dimitroffstrasse,12,1964262
200,196417,Leninplatz,13,1964704
201,196417,"Alexanderplatz, Memhardstrasse",14,196415
202,196417,Hackescher Markt,15,1964437
203,196417,Oranienburger Tor,16,1964864
204,196417,Walter-Ulbricht-Stadion,17,19641353
205,196418,"Johannisthal, Haeckelstrasse",0,1964565
206,196418,Bhf. Schöneweide,1,1964140
207,196418,Wilhelminenhofstrasse,2,19641398
208,196418,S-Bhf. Karlshorst,3,19641055
209,196418,Hochschule für Ökonomie,4,1964509
210,196418,Tierpark Berlin,5,19641263
211,196418,Alt-Friedrichsfelde Ecke Am Tierpark,6,196422
212,196418,Alt-Friedrichsfelde,7,196421
213,196418,Bhf. Lichtenberg,8,1964133
214,196418,Strab. Bhf. Siegfriedstrasse,9,19641202
215,196418,Herzbergstrasse,10,1964497
216,196418,Roederplatz,11,19641018
217,196418,Steuerhaus,12,19641198
218,196418,Dimitroffstrasse,13,1964262
221,196418,Kniprodestrasse,14,1964621
222,196419,"Hohenschönhausen, Falkenberger Strasse",0,1964513
223,196419,Berliner Strasse Ecke Suermondtstrasse,1,1964113
224,196419,Stadion Buschallee,2,19641185
225,196419,Buschallee Ecke Klement-Gottwald-Allee,3,1964214
226,196419,Lichtenberger Strasse,4,1964716
227,196419,Antonplatz,5,196469
228,196419,Prenzlauer Promenade,6,1964941
229,196419,Humannplatz,7,1964534
230,196419,U-Bhf. Dimitroffstrasse,8,19641278
231,196419,Brunnenstrasse,9,1964194
232,196419,Oranienburger Tor,10,1964864
233,196419,Bhf. Friedrichstrasse,11,1964127
234,196419,Am Kupfergraben,12,196450
235,196420,"Weißensee, Pasedagplatz",0,19641375
236,196420,Klement-Gottwald-Allee Ecke Rennbahnstrasse,1,1964613
237,196420,Lichtenberger Strasse,2,1964716
238,196420,Antonplatz,3,196469
239,196420,Prenzlauer Promenade,4,1964941
240,196420,S-Bhf. Prenzlauer Allee,5,19641068
241,196420,Dimitroffstrasse,6,1964262
244,196420,Saarbrücker Strasse,7,19641080
245,196420,"Alexanderplatz, Memhardstrasse",8,196415
246,196420,Molkenmarkt,9,1964806
247,196420,Spittelmarkt,10,19641181
248,196420,Charlottenstrasse,11,1964230
249,196420,Taubenstrasse Ecke Glinkastrasse,12,19641231
250,196421,"Wießensee, Pasedagplatz",0,19641394
251,196421,Klement-Gottwald-Allee Ecke Rennbahnstrasse,1,1964613
252,196421,Lichtenberger Strasse,2,1964716
253,196421,Antonplatz,3,196469
254,196421,S-Bhf. Greifswalder Strasse,4,19641049
255,196421,Königstor,5,1964676
256,196421,"Alexanderplatz, Memhardstrasse",6,196415
257,196421,Molkenmarkt,7,1964806
258,196421,Spittelmarkt,8,19641181
259,196421,Leipziger Strasse Ecke Wilhelmstrasse,9,1964700
260,196422,Klement-Gottwald-Allee Ecke Rennbahnstrasse,0,1964613
261,196422,Lichtenberger Strasse,1,1964716
262,196422,Antonplatz,2,196469
263,196422,S-Bhf. Greifswalder Strasse,3,19641049
264,196422,Dimitroffstrasse,4,1964262
267,196422,Königstor,5,1964676
268,196422,"Alexanderplatz, Memhardstrasse",6,196415
269,196422,S-Bhf. Jannowitzbrücke,7,19641054
270,196422,Spittelmarkt,8,19641181
271,196423,"Bhf. Zoo, Kantstrasse",0,1964150
272,196423,Wilmersdorfer Strasse,1,19641408
273,196423,Amtsgericht,2,196463
274,196423,Messedamm,3,1964800
275,196423,Theodor-Heuss-Platz,4,19641252
276,196423,Preußenallee Ecke Heerstrasse,5,1964947
277,196423,Reichssportfeldstrasse,6,1964994
278,196423,StößenseeBrücke,7,19641221
279,196423,Pichelsdorfer Strasse,8,1964918
280,196423,"Weverstrasse, Strassenbahnhof",9,19641385
281,196423,Seeburger Strasse,10,19641142
282,196423,Rathaus Spandau,11,1964980
283,196423,"Spandau, Markt",12,19641172
284,196423,Hafenplatz,13,1964441
285,196423,Hohenzollernring,14,1964522
287,196423,Hakenfelde,15,1964444
288,196424,"Bhf. Zoo, Kantstrasse",0,1964150
289,196424,Wilmersdorfer Strasse,1,19641408
290,196424,Amtsgericht,2,196463
291,196424,Messedamm,3,1964800
292,196424,Theodor-Heuss-Platz,4,19641252
293,196424,Preußenallee Ecke Heerstrasse,5,1964947
294,196424,Reichssportfeldstrasse,6,1964994
295,196424,Stößenseebrücke,7,19641222
296,196424,Pichelsdorfer Strasse,8,1964918
297,196424,"Weverstrasse, Strassenbahnhof",9,19641385
298,196424,Seeburger Strasse,10,19641142
299,196424,Rathaus Spandau,11,1964980
300,196424,"Spandau, Markt",12,19641172
301,196424,Hafenplatz,13,1964441
302,196424,Hohenzollernring Ecke Schönwalder Allee,14,1964524
303,196424,Johannesstift,15,1964564
304,196425,"Mahlsdorf-Süd, Hubertus",0,1964760
305,196425,S-Bhf. Köpenick,1,19641058
306,196425,Lindenstrasse Ecke Hegelschule,2,1964730
307,196425,Pionierpark,3,1964920
308,196425,Wilhelminenhofstrasse Ecke Edisonstrasse,4,19641399
309,196425,Heinrich-Duncker-Strasse Ecke Ehrlichstrasse,5,1964480
310,196425,Kraftwerk Klingenberg,6,1964634
311,196425,S-Bhf. Ostkreuz,7,19641063
312,196425,Stralauer Allee Ecke Markgrafendamm,8,19641203
313,196425,Warschauer Strasse,9,19641362
314,196425,Ostbahnhof,10,1964878
315,196425,S-Bhf. Jannowitzbrücke,11,19641054
316,196425,"Alexanderplatz, Memhardstrasse",12,196415
317,196425,Invalidenstrasse,13,1964553
318,196425,Chausseestrasse,14,1964231
319,196425,Walter-Ulbricht-Stadion,15,19641353
320,196426,Kinderheim,0,1964602
321,196426,Friedrich-Junge-Strasse,1,1964350
322,196426,Markgrafendamm,2,1964784
323,196427,Wendenschloß Ecke Ekhofstrasse,0,19641379
324,196427,VEB Schiffswerft,1,19641334
325,196427,RFT-Werk,2,1964965
326,196427,Strab. Bhf. Köpenick,3,19641201
327,196427,Lindenstrasse Ecke Bahnhofstrasse,4,1964729
328,196427,S-Bhf. Köpenick,5,19641058
329,196427,Mahlsdorf-Süd,6,1964759
330,196427,Bürgerwäldchen,7,1964221
331,196427,Rahnsdorfer Strasse,8,1964969
332,196427,S-Bhf. Mahlsdorf,9,19641061
333,196428,Am Falkenberg,0,196445
334,196428,"Altglienicke, Kirche",1,196442
335,196428,S-Bhf. Adlershof,2,19641040
336,196428,S-Bhf. Spindlersfeld,3,19641073
337,196428,Luisenhain,4,1964738
338,196428,Bahnhofstrasse Ecke Lindenstrasse,5,196489
339,196428,Seelenbinderstrasse Ecke Bahnhofstrasse,6,19641146
340,196428,Hirschgarten,7,1964504
341,196428,S-Bhf. Friedrichshagen,8,19641047
342,196428,"Bölschestrasse, Brauerei",9,1964217
343,196428,"Friedrichshagen, Wasserwerk",10,1964355
344,196429,Wendenschloß,0,19641378
345,196429,VEB Schiffswerft,1,19641334
346,196429,RFT-Werk,2,1964965
347,196429,Strab. Bhf. Köpenick,3,19641201
348,196429,Lindenstrasse Ecke Hegelschule,4,1964730
349,196429,Parkstrasse,5,1964908
350,196429,Edisonstrasse,6,1964282
351,196429,Bhf. Schöneweide,7,1964140
352,196429,"Johannisthal, Haeckelstrasse",8,1964565
353,196430,Alt-Schmöckwitz,0,196435
354,196430,Karolinenhof Mitte,1,1964590
355,196430,Richtershorn,2,19641009
356,196430,Freibad Grünau,3,1964343
357,196430,S-Bhf. Grünau,4,19641051
358,196430,Chemische Fabrik,5,1964232
359,196430,Grünstrasse,6,1964427
360,196430,Lindenstrasse Ecke Bahnhofstrasse,7,1964729
361,196430,S-Bhf. Köpenick,8,19641058
362,196430,Hirtestrasse,9,1964505
363,196430,"Mahlsdorf-Süd, Hubertus",10,1964760
364,196431,Rahnsdorf,0,1964968
365,196431,S-Bhf. Friedrichshagen,1,19641047
366,196431,"Bölschestrasse, Brauerei",2,1964217
367,196431,Hirschgarten,3,1964504
368,196431,Seelenbinderstrasse Ecke Bahnhofstrasse,4,19641146
369,196431,Bahnhofstrasse Ecke Lindenstrasse,5,196489
370,196431,Parkstrasse,6,1964908
371,196431,Wilhelminenhofstrasse Ecke Edisonstrasse,7,19641399
372,196431,Bhf. Schöneweide,8,1964140
373,196431,Kali-Chemie,9,1964582
374,196431,Köpenicker Landstrasse Ecke Baumschulenstrasse,10,1964681
375,196431,S-Bhf. Plänterwald,11,19641067
376,196431,Am Treptower Park Ecke Elsenstrasse,12,196458
377,196431,Wiener Brücke,13,19641390
378,196432,"Oberspree, Bruno-Bürgel-Weg",0,1964850
379,196432,Bhf. Schöneweide,1,1964140
380,196432,Kali-Chemie,2,1964582
381,196432,Baumschulenstrasse,3,196491
382,196432,S-Bhf. Baumschulenweg,4,19641044
383,196432,Sonnenallee Ecke Baumschulenstrasse,5,19641161
384,196433,Krankenhaus Köpenick,0,1964640
385,196433,Lindenstrasse Ecke Hegelschule,1,1964730
386,196433,Parkstrasse,2,1964908
387,196433,Edisonstrasse,3,1964282
388,196433,Bhf. Schöneweide,4,1964140
389,196433,Kali-Chemie,5,1964582
390,196433,Baumschulenstrasse,6,196491
391,196433,S-Bhf. Plänterwald,7,19641067
392,196433,Elsenstrasse,8,1964297
393,196433,Wiener Brücke,9,19641390
394,196434,Mehringplatz,0,1964798
395,196434,Zossener Strasse Ecke Blücherstrasse,1,19641452
396,196434,Baerwaldstrasse Ecke Urbanstrasse,2,196483
397,196434,Urban-Krankenhaus,3,19641330
398,196434,Hermannplatz,4,1964487
399,196434,Erkstrasse Ecke Sonnenallee,5,1964308
400,196434,Hertzbergplatz,6,1964496
401,196434,Saalestrasse Ecke Sonnenallee,7,19641078
402,196434,Dammweg Ecke Sonnenallee,8,1964252
403,196434,Schulenburgpark,9,19641112
404,196434,Schwarzer Weg Ecke Sonnenallee,10,19641118
405,196435,Lindenstrasse,0,1964728
406,196435,Mehringplatz,1,1964798
407,196435,Yorckstrasse,2,19641434
408,196435,U-Bhf. Flughafen,3,19641283
409,196435,Adolf-Scheidt-Platz,4,19644
410,196435,Berlinickeplatz,5,1964114
411,196435,Attilaplatz,6,196478
412,196435,Ringstrasse Ecke Attilastrasse,7,19641012
413,196435,"Lankwitz, Kirche",8,1964692
414,196435,Seydlitzstrasse Ecke Kaiser-Wilhelm-Strasse,9,19641154
415,196435,Kranoldplatz,10,1964646
416,196435,Ostpreußendamm Ecke Morgenstern Strasse,11,1964882
417,196435,Giesendorferstrasse Ecke Ostpreußendamm,12,1964381
418,196435,Wismarer Strasse Ecke Ostpreußendamm,13,19641416
419,196435,Goerzallee,14,1964389
420,196436,"Moabit, Waldstrasse Ecke Turmstrasse",0,1964804
421,196436,Otto-Suhr-Allee Ecke Cauer Strasse,1,1964886
422,196436,Kurfürstendamm Ecke Konstanzer Strasse,2,1964657
423,196436,U-Bhf. Fehrbelliner Platz,3,19641281
424,196436,Detmolder Strasse Ecke Blissestrasse,4,1964256
425,196436,Breitenbachplatz,5,1964184
426,196436,Botanischer Garten,6,1964177
427,196436,Pacelli/Theilallee,7,1964888
428,196436,Clayallee Ecke Königin-Luise-Strasse,8,1964236
429,196436,U-Bhf. Oskar-Helene-Heim,9,19641300
430,196436,Potsdamer Strasse Ecke Clayallee,10,1964928
431,196436,Rathaus Zehlendorf,11,1964985
432,196436,Beeskowdamm Ecke Goerz Allee,12,196498
433,196436,Wismarer Strasse Ecke Lindenstrasse,13,19641415
434,196436,Lindenstrasse Ecke Müllerstrasse,14,1964731
435,196437,Bhf. Zoo,0,1964147
436,196437,Spichernstrasse Ecke Joachimstaler Strasse,1,19641179
437,196437,Berliner Strasse Ecke Bundesallee,2,1964111
438,196437,Bundesplatz,3,1964209
440,196437,Friedrich-Wilhelm-Platz,4,1964351
441,196437,Schloßstrasse Ecke Feuerbachstrasse,5,19641108
442,196437,Bergstrasse Ecke Bismarckstrasse,6,1964105
443,196437,Feuerbachstrasse Ecke Bismarckstrasse,7,1964327
444,196437,Steglitzer Damm Ecke Halske Strasse,8,19641195
445,196437,Leonorenstrasse Ecke Albrechstrasse,9,1964706
446,196437,"Lankwitz, Kirche",10,1964691
447,196437,Havensteinstrasse Ecke Gallwitzstrasse,11,1964465
448,196437,Lerbacher Weg Ecke Tautenbergstrasse,12,1964711
449,196437,Trippsteinstrasse,13,19641269
450,196438,Rathaus Zehlendorf,0,1964985
451,196438,Winifriedstrasse Ecke Clayallee,1,19641414
452,196438,U-Bhf. Oskar-Helene-Heim,2,19641300
453,196438,U-Bhf. Onkel-Toms-Hütte,3,19641299
454,196438,U-Bhf. Krumme Lanke,4,19641293
455,196438,Bhf. Lindenthaler Allee,5,1964136
456,196438,Benschallee Ecke Potsdamer Chaussee,6,1964103
457,196438,Schopenhauer-Strasse Ecke Spanische Allee,7,19641110
458,196438,Borussenstrasse Ecke Kronprizessinnen Weg,8,1964176
459,196438,Am Beelitzhof,9,196443
460,196438,Bhf. Wannsee,10,1964144
461,196438,Am Großen Wannsee Ecke Königstrasse,11,196448
462,196438,Pfaueninsel-Chaussee Ecke Königstrasse,12,1964915
463,196438,Rathaus Wannsee,13,1964984
464,196438,"Stölpchensee, Wilhelmplatz",14,19641220
465,196439,"Haselhorst, Kirche",0,1964458
466,196439,Paulsternstrasse,1,1964909
467,196439,Verwaltungs-Gebäude,2,19641336
468,196439,Spandauer Damm,3,19641173
469,196439,U-Bhf. Kaiserdamm,4,19641290
470,196439,Amtsgericht,5,196462
471,196439,Kurfürstendamm Ecke Joachimsthaler Strasse,6,1964656
472,196439,Henriettenplatz,7,1964485
473,196439,Elsterplatz,8,1964299
474,196439,Hundekehlestrasse,9,1964537
475,196439,Königin-Luise-Strasse,10,1964671
477,196439,U-Bhf. Thielplatz,11,19641315
478,196439,Dahlemer Weg,12,1964247
479,196439,Teltower Damm,13,19641240
480,196439,Behring-Krankenhaus,14,196499
481,196439,Lupsteiner Weg,15,1964741
482,196440,Saargemünder Strasse,0,19641081
483,196440,U-Bhf. Oskar-Helene-Heim,1,19641300
484,196440,Ihnestrasse,2,1964543
485,196440,Corrensplatz,3,1964241
486,196440,Unter den Eichen Ecke Habelschwerdter-Allee,4,19641328
487,196440,Bhf. Lichterfelde-West,5,1964135
488,196440,Ringstrasse,6,19641011
489,196440,Wiesenbaude,7,19641392
490,196440,Ostpreußendamm Ecke Wilhelmstrasse,8,1964883
491,196440,Marienstrasse,9,1964783
492,196440,Morgensternstrasse Ecke Wilhelmstrasse,10,1964809
493,196440,Kranoldplatz,11,1964645
494,196440,Langestrasse,12,1964689
495,196440,Hildburghauser Strasse,13,1964499
496,196440,Stadtilmer Weg,14,19641187
497,196440,"Marienfelde, Alt-Marienfelde",15,1964779
498,196441,Gartenstrasse Ecke Bernauer Strasse,0,1964370
499,196441,Grenzstrasse,1,1964406
500,196441,U-Bhf. Leopold-Platz,2,19641296
501,196441,U-Bhf. Seestrasse,3,19641309
502,196441,Bristolstrasse,4,1964188
503,196441,Emmentaler Strasse,5,1964301
505,196441,Lindauer Strasse,6,1964725
506,196441,Tessenowstrasse Ecke Oranienburgerstrasse,7,19641249
507,196441,Eichborndamm Ecke Alt-Wittenau,8,1964287
508,196441,Cyclopstrasse,9,1964242
509,196441,Zabel-Krüger-Damm,10,19641435
510,196441,Almutstrasse Ecke Berliner Strasse,11,196418
511,196441,Hermsdorfer Damm Ecke Berlinerstrasse,12,1964493
512,196441,Zeltinger Platz,13,19641439
513,196441,Donnersmarckplatz,14,1964268
514,196441,Hainbuchenstrasse Ecke Kastanienallee,15,1964443
515,196442,Leopoldplatz,0,1964708
516,196442,U-Bhf. Seestrasse,1,19641309
517,196442,Barfusstrasse,2,196490
518,196442,Emmentaler Strasse,3,1964301
520,196442,Lindauer Strasse,4,1964725
521,196442,Oranienburger Strasse,5,1964861
522,196442,Rathaus Reinickendorf,6,1964977
523,196442,Cyclopstrasse,7,1964242
524,196442,Zabel-Krüger-Damm,8,19641435
525,196442,Schildower Strasse,9,19641094
526,196442,Hermsdorfer Damm Ecke Berlinerstrasse,10,1964493
527,196442,Oswinsteig,11,1964884
528,196442,Hohefeldstrasse,12,1964510
529,196442,Im Fischgrund,13,1964544
530,196442,Zeltinger Platz,14,19641439
531,196443,Alt-Heiligensee,0,196424
532,196443,Am Dachsbau,1,196444
533,196443,Gabelung,2,1964362
534,196443,Ruppiner Chaussee,3,19641029
535,196443,U-Bhf. Tegel,4,19641313
536,196443,Bernauer Strasse,5,1964117
537,196443,Krankenhaus Tegel-Süd,6,1964643
538,196443,Strasse nach Saatwinkel,7,19641206
539,196443,Paulsternstrasse,8,1964909
540,196443,Daumstrasse,9,1964253
541,196443,Carl-Schurz-Strasse Ecke Neuendorfer Strasse,10,1964225
542,196443,Rathaus Spandau,11,1964979
543,196443,Seebugerstrasse Ecke Pichelsdorferstrasse,12,19641141
544,196443,Päwesiner Weg,13,1964959
545,196443,Heerstrasse Ecke Wilhelmstrasse,14,1964470
546,196443,Weinmeisterhornweg,15,19641370
548,196444,Alt-Heiligensee,0,196424
549,196444,Mattenbuder Pfad Chaussee Ecke Hennigsdorfer Strasse,1,1964794
550,196444,Ruppiner Chaussee Ecke Hennigsdorfer Strasse,2,19641031
551,196444,Ruppiner Chaussee & Schulzendorferstrasse,3,19641030
552,196444,Heiligenseestrasse Ecke Ruppiner Chaussee,4,1964476
553,196444,U-Bhf. Tegel,5,19641313
554,196444,Ziekowstrasse Ecke Gorkistrasse,6,19641445
555,196444,Alt-Wittenau Ecke Eichborndamm,7,196438
556,196444,Tessenowstrasse Ecke Roedernallee,8,19641250
557,196444,Aroser Allee,9,196473
558,196444,Kopenhagener Strasse,10,1964628
559,196444,Pankower Allee,11,1964895
560,196444,Pankstrasse,12,1964898
561,196444,U-Bhf. Gesundbrunnen,13,19641285
562,196444,Rügener Strasse,14,19641039
563,196445,Lübarser Strasse Ecke Eichhorster Weg,0,1964748
564,196445,Cyclopstrasse Ecke Oranienburger Strasse,1,1964243
565,196445,Alt-Wittenau Ecke Eichborndamm,2,196438
566,196445,Breitenbachstrasse Ecke Eichborndamm,3,1964186
567,196445,Holzhauser Strasse,4,1964529
569,196445,Borsigwalder Weg,5,1964174
570,196445,Gorkistrasse,6,1964392
571,196445,U-Bhf. Tegel,7,19641313
572,196445,Hermsdorfer Damm Ecke Karolinenstrasse,8,1964494
573,196445,Schulzendorfer Strasse,9,19641115
574,196445,Bhf. Hermsdorf,10,1964129
575,196445,Dominikus-Krankenhaus,11,1964267
576,196445,Donnersmarckplatz,12,1964268
577,196445,Zeltinger Platz,13,19641439
578,196445,Am Pilz,14,196454
579,196445,"Frohnau, Invalidensiedlung",15,1964359
580,196446,Osloer Strasse,0,1964870
582,196446,Louise-Schroeder-Platz,1,1964735
583,196446,U-Bhf. Seestrasse,2,19641309
584,196446,Virchow-Krankenhaus,3,19641341
585,196446,Fennstrasse Ecke Tegeler Strasse,4,1964325
586,196446,Wilsnacker Strasse Ecke Turmstrasse,5,19641412
587,196446,Hansaplatz,6,1964452
588,196446,Großer Stern,7,1964413
589,196446,Lützowplatz,8,1964749
590,196446,Nollendorfplatz,9,1964839
591,196446,Rathaus Schöneberg,10,1964978
592,196446,Innsbrucker Platz,11,1964549
593,196446,Bundesplatz,12,1964209
595,196446,Wiesbadener Strasse,13,19641391
596,196446,Breitenbachplatz,14,1964184
597,196446,Englerallee,15,1964304
598,196447,"Grunewald, Fontanestrasse",0,1964417
599,196447,Hagenplatz,1,1964442
600,196447,Roseneck,2,19641020
601,196447,Warnemünder Strasse,3,19641358
602,196447,U-Bhf. Rüdesheimer Platz,4,19641306
603,196447,Friedrich-Wilhelm-Platz,5,1964351
604,196447,Bundesallee Ecke Rheinstrasse,6,1964207
605,196447,Rathaus Steglitz,7,1964981
606,196447,Stadtpark,8,19641189
607,196447,Leonorenstrasse,9,1964705
608,196447,Stadion Lichterfelde,10,19641186
609,196447,Ostpreußendamm Ecke Wilhelmstrasse,11,1964883
610,196447,Morgensternstrasse Ecke Wilhelmstrasse,12,1964809
611,196447,Oberhofer Platz,13,1964847
612,196447,Saaleckplatz,14,19641077
613,196448,Saargemünder Strasse,0,19641081
614,196448,U-Bhf. Oskar-Helene-Heim,1,19641300
615,196448,Sophie-Charlotten-Strasse,2,19641166
616,196448,Scharfestrasse,3,19641089
617,196448,Potsdamer Strasse Ecke Berliner Strasse,4,1964927
618,196448,Mittelstrasse,5,1964803
619,196448,Wolzogenstrasse,6,19641428
620,196448,Benschallee,7,1964102
621,196448,Waldfriedhof,8,19641347
622,196448,Quantzstrasse,9,1964961
623,196448,Kronprinzessinen Weg,10,1964648
624,196448,Am Grossen Wannsee,11,196446
625,196448,Pfaueninsel-Chaussee,12,1964914
626,196448,Rathaus Wannsee,13,1964984
627,196448,Stölpchensee,14,19641219
628,196448,Kohlhasenbrück,15,1964625
629,196449,Roseneck,0,19641020
630,196449,Hagenplatz,1,1964442
631,196449,Erdener Strasse,2,1964305
632,196449,Henriettenplatz,3,1964485
633,196449,Wilmersdorfer Strasse,4,19641407
634,196449,Olivaer Platz,5,1964854
635,196449,Joachimstaler Strasse Ecke Kurfürstendamm,6,1964562
636,196449,Breitscheidplatz,7,1964187
637,196449,Wittenbergplatz,8,19641420
638,196449,Nollendorfplatz,9,1964839
639,196449,Bülowstrasse Ecke Potsdamer Strasse,10,1964220
640,196449,Bautzener Strasse Ecke Yorckstrasse,11,196494
641,196449,Katzbachstrasse,12,1964595
642,196449,Mehringdamm,13,1964795
643,196449,Flughafen,14,1964332
644,196450,Tegelort,0,19641238
645,196450,Gerlindeweg Ecke Friederikestrasse,1,1964374
646,196450,Falkenplatz,2,1964318
647,196450,Mühlenstrasse,3,1964821
648,196450,Heiligenseestrasse,4,1964475
649,196450,Karolinenstrasse,5,1964591
650,196450,U-Bhf. Tegel,6,19641313
651,196450,Hatzfeldtallee,7,1964459
652,196450,Martin-Luther-Friedhof,8,1964786
653,196450,Freie Scholle,9,1964344
654,196450,Waldhornstrasse,10,19641348
655,196450,Cyclopstrasse Ecke Waidmannsluster Damm,11,1964244
656,196450,Oraniendamm Ecke Zabel-Krüger-Damm,12,1964865
657,196450,Am Vierrutenberg Ecke Zabel-Krüger-Damm,13,196459
658,196450,"Lübars, Dorfaue",14,1964747
659,196451,Wentowsteig,0,19641380
660,196451,Oranienburger Strasse Ecke Wilhelmsruher Damm,1,1964862
661,196451,Alt-Wittenau Ecke Eichborndamm,2,196438
662,196451,Kienhorststrasse,3,1964600
663,196451,Scharnweberstrasse,4,19641092
664,196451,Kurt-Schumacher-Platz,5,1964666
665,196451,Kaserne Südtor,6,1964594
666,196451,Heckerdamm,7,1964466
667,196451,Olbersstrasse,8,1964853
668,196451,Luisenplatz,9,1964739
669,196451,Kantstrasse,10,1964584
670,196451,Stuttgarter Platz,11,19641218
671,196451,Amtsgericht Charlottenburg,12,196464
672,196451,Kurfürstendamm Ecke Joachimsthaler Strasse,13,1964656
673,196451,Bhf. Hohenzollerndamm,14,1964130
674,196451,U-Bhf. Fehrbelliner Platz,15,19641281
675,196452,"Hessenwinkel, Lindenstrasse",0,1964498
676,196452,Fahlenbergstrasse Ecke Fürstenwalder Allee,1,1964314
677,196452,S-Bhf. Wilhelmshagen,2,19641076
678,196452,Zentralschule,3,19641441
679,196452,Waldschänke,4,19641350
680,196452,S-Bhf. Rahnsdorf,5,19641069
681,196452,"Fichtenau, Stadtgrenze",6,1964328
682,196453,Falkenhöhe,0,1964317
683,196453,S-Bhf. Altglienicke,1,19641042
684,196453,Normannenstrasse,2,1964844
685,196453,Wolfmarsteig,3,19641424
686,196453,Schönefelder Chaussee,4,19641125
687,196453,"Altglienicke, Kirche",5,196441
688,196454,Wiebestrasse,0,19641387
689,196454,Gotzkowskystrasse,1,1964397
690,196454,Stromstrasse,2,19641213
691,196454,Rathenower Strasse,3,1964987
693,196454,Alt-Moabit,4,196432
694,196454,John-Foster-Dulles-Allee,5,1964568
695,196454,Tiergartenstrasse,6,19641262
696,196454,Lützowplatz,7,1964749
697,196454,Potsdamer Strasse Ecke Schöneberger Ufer,8,1964933
698,196454,Hafenplatz,9,1964439
700,196454,Askanischer Platz,10,196476
701,196454,U-Bhf. Hallesches Tor,11,19641288
702,196454,Alexandrinenstrasse Ecke Neuenburgerstrasse,12,196417
703,196454,Gneisenaustrasse Ecke Zossener Strasse,13,1964386
704,196454,Columbiadamm Ecke Friesenstrasse,14,1964240
705,196454,Flughafen,15,1964332
706,196455,Unionplatz,0,19641327
707,196455,Gotzkowskybrücke,1,1964396
708,196455,Hansaplatz,2,1964452
709,196455,U-Bhf. Ernst-Reuter-Platz,3,19641279
710,196455,Bhf. Zoo,4,1964147
711,196455,Pariser Strasse Ecke Joachimstaler Strasse,5,1964906
712,196455,Berliner Strasse Ecke Bundesallee,6,1964111
713,196455,Bundesplatz,7,1964209
715,196455,Kaisereiche,8,1964577
716,196455,Grazer Platz,9,1964399
717,196455,Attilaplatz,10,196477
718,196455,Tempelhofer Damm Ecke Ordensmeisterstrasse,11,19641248
719,196455,Gottlieb-Dunkel-Strasse Ecke Germaniastrasse,12,1964394
720,196455,Britzer Damm Ecke Tempelhofer Weg,13,1964191
721,196455,U-Bhf. Parchimer Allee,14,19641302
722,196455,Grüner Weg Ecke Buschkrug Allee,15,1964425
723,196456,VEB Bautransporte,0,19641333
724,196456,Bhf. Schöneweide,1,1964139
725,196457,"S-Bhf. Kaulsdorf, Planitzstrasse",0,19641056
726,196457,Chemnitzer Strasse Ecke Alt-Kaulsdorf,1,1964234
727,196457,Ulmenstrasse,2,19641326
728,196457,Wongrowitzer Strasse,3,19641429
729,196457,S-Bhf. Köpenick,4,19641057
730,196457,Bahnhofstrasse Ecke Lindenstrasse,5,196488
731,196457,"Köpenick, Krankenhaus",6,1964680
732,196457,Müggelseeperle,7,1964819
733,196457,Müggelheim,8,1964818
734,196458,Loewenhardtdamm,0,1964734
735,196458,Dudenstrasse,1,1964275
736,196458,Kreuzbergstrasse,2,1964647
737,196458,Yorckstrasse,3,19641433
738,196458,Mehringdamm,4,1964795
739,196458,Zossener Strasse,5,19641451
740,196458,Südstern,6,19641229
741,196458,Urban-Krankenhaus,7,19641329
742,196458,U-Bhf. Prinzenstrasse,8,19641303
743,196458,U-Bhf Kottbusser Tor,9,19641274
744,196458,Oranienstrasse,10,1964867
745,196458,Waldemarstrasse,11,19641345
746,196458,Mariannenplatz,12,1964769
747,196458,Manteuffelstrasse Ecke Köpenickerstrasse,13,1964765
748,196458,U-Bhf. Schlesisches Tor,14,19641308
749,196458,Heckmannufer,15,1964467
750,196459,Roseneck,0,19641020
751,196459,Berkaer Strasse,1,1964107
752,196459,Bismarckplatz,2,1964155
753,196459,Henriettenplatz,3,1964485
754,196459,Joachim-Friedrich-Strasse,4,1964559
755,196459,Wilmersdorfer Strasse,5,19641407
756,196459,Olivaer Platz,6,1964854
757,196459,Uhlandstrasse,7,19641321
759,196459,Joachimstaler Strasse,8,1964561
760,196459,Breitscheidplatz,9,1964187
761,196459,Wittenbergplatz,10,19641420
762,196459,Lutherstrasse,11,1964742
763,196459,Lützowstrasse,12,1964750
765,196459,Lützowstrasse Ecke Potsdamer Strasse,13,1964752
766,196459,Askanischer Platz,14,196476
767,196459,U-Bhf. Kochstrasse,15,19641291
768,196459,Oranienplatz,16,1964866
769,196460,Machandelweg,0,1964753
770,196460,U-Bhf. Ruhleben,1,19641304
771,196460,Friedhof Ruhleben,2,1964349
772,196460,Kinderheim Ruhleben,3,1964603
773,196460,Teltower Strasse,4,19641241
774,196460,Grenadierstrasse,5,1964404
775,196460,Stresowplatz,6,19641212
776,196460,Breite Strasse Ecke Charlottenstrasse,7,1964183
777,196460,Rathaus Spandau,8,1964979
778,196460,Nauener Strasse,9,1964824
779,196460,Egelpfuhlstrasse,10,1964285
780,196460,Magistratsweg,11,1964756
781,196460,Spandauer Strasse,12,19641176
782,196460,Hackbuschstrasse,13,1964436
783,196460,Heidebergplan,14,1964471
784,196461,Breitenbachplatz,0,1964184
785,196461,Gritznerstrasse,1,1964407
786,196461,Schlossstrasse Ecke Albrechtstrasse,2,19641102
787,196461,Rathaus Steglitz,3,1964981
788,196461,Kuhligkshofstrasse Ecke Albrechtstrasse,4,1964651
789,196461,Sedanstrasse,5,19641140
790,196461,Stindestrasse,6,19641199
791,196461,Leonorenstrasse,7,1964705
792,196461,"Lankwitz, Kirche",8,1964691
793,196461,Malteserstrasse Ecke Belßstrasse,9,1964763
794,196461,Marchandstrasse,10,1964767
795,196461,Marienfelder Allee,11,1964781
796,196461,Stegerwaldstrasse,12,19641193
797,196461,Bhf. Marienfelde,13,1964137
798,196462,Berlinickestrasse Ecke Albrechtstrasse,0,1964115
799,196462,Klingsorstrasse,1,1964614
800,196462,Sedanstrasse,2,19641140
801,196462,Bismarckstrasse Ecke Steglitzer Damm,3,1964157
802,196462,Halskestrasse Ecke Attilastrasse Ecke Steglitzer Damm,4,1964448
803,196462,Kaiserstrasse/Ringstrasse,5,1964581
804,196462,Rathaus Mariendorf,6,1964975
805,196462,"Mariendorf, Kaiserstrasse",7,1964771
806,196463,"Spandau, Friedhof",0,19641171
807,196463,Askanierring Ecke Falkenhagener Strasse,1,196474
809,196463,Hafenplatz,2,1964440
810,196463,Rathaus Spandau,3,1964979
811,196463,Wilhelmstrasse Ecke Pichelsdorferstrasse,4,19641405
812,196463,Adamstrasse,5,19642
813,196463,Heerstrasse Ecke Gatower Strasse,6,1964469
814,196463,Gatower Strasse,7,1964373
815,196463,Weinmeisterhornweg,8,19641370
817,196463,Ortsgrenze Gatow,9,1964868
818,196463,"Gatow, Kirche",10,1964372
819,196463,Großglienicker Weg,11,1964414
820,196463,Krankenhaus Hohengatow,12,1964639
821,196463,Krankenhaus Havelhöhe,13,1964637
822,196463,Alt-Kladow,14,196426
823,196463,Schwiezerhaus,15,19641120
824,196463,Gutshof,16,1964431
825,196464,"Spandau, Friedhof",0,19641171
826,196464,Askanierring Ecke Falkenseer Chaussee,1,196475
827,196464,Rathaus Spandau,2,1964979
828,196464,Wilhelmstrasse Ecke Pichelsdorferstrasse,3,19641405
829,196464,Adamstrasse,4,19642
830,196464,Heerstrasse Ecke Gatower Strasse,5,1964469
831,196464,Gatower Strasse,6,1964373
832,196464,Weinmeisterhornweg,7,19641370
834,196464,Ortsgrenze Gatow,8,1964868
835,196464,"Gatow, Kirche",9,1964372
836,196464,Großglienicker Weg,10,1964414
837,196464,Krankenhaus Hohengatow,11,1964639
838,196464,Krankenhaus Havelhöhe,12,1964637
839,196464,Alt-Kladow,13,196426
840,196464,Krampnitzer Weg,14,1964636
841,196464,Hottengrund,15,1964532
842,196465,Altenheim Hottengrund,0,196439
843,196465,Pottensteiner Weg Ecke Selbitzer Strasse,1,1964935
844,196465,Selbitzer Strasse Ecke Krampnitzer Weg,2,19641152
845,196465,Sakrower Strasse Ecke Landstrasse,3,19641085
846,196465,Alt-Kladow Ecke Kladower Damm,4,196427
847,196466,Zentralflughafen,0,19641440
848,196466,"Schönefeld, Kirche",1,19641124
849,196466,Gartenstrasse,2,1964369
850,196466,S-Bhf. Grünbergallee,3,19641052
851,196466,"Bohnsdorf, Kirche",4,1964168
852,196466,Gartenstadtweg,5,1964368
853,196466,S-Bhf. Grünau,6,19641050
854,196467,"Wartenberg, Siedlung",0,19641364
855,196467,"Wartenberg, Dorfstrasse",1,19641363
856,196467,Falkenberger Chaussee,2,1964315
857,196467,"Kolonie ""Land in Sonne""",3,1964626
858,196467,"Hohenschönhausen, Falkenberger Strasse",4,1964512
859,196468,Brixplatz,0,1964192
860,196468,Theodor-Heuss-Platz,1,19641251
861,196468,Messedamm,2,1964799
862,196468,Henriettenplatz,3,1964485
863,196468,Hochmeisterplatz,4,1964508
864,196468,U-Bhf. Fehrbelliner Platz,5,19641281
865,196468,Bundesallee Ecke Badenische Strasse,6,1964205
866,196468,Rathaus Schöneberg,7,1964978
867,196468,Innsbrucker Platz,8,1964549
868,196468,Kaiser-Wilhelm-Platz,9,1964575
869,196468,U-Bhf. Flughafen,10,19641282
870,196468,Columbiadamm,11,1964239
871,196468,Kienitzer Strasse,12,1964601
872,196468,Sonnenallee Ecke Erkstrasse,13,19641162
873,196468,Harzer Strasse,14,1964457
874,196469,"Buch, Kiesgruben",0,1964198
875,196469,"Karower Strasse, Alt-Buch",1,1964593
876,196469,Strasse 78,2,19641205
877,196469,Alt-Karow,3,196425
878,196469,Güteraußenring,4,1964434
879,196469,"Blankenburg, Bahnhofstrasse",5,1964160
880,196469,"Heinersdorf, Kirche",6,1964477
881,196469,Am Steinberg,7,196456
882,196469,Prenzlauer Promenade (Spitze),8,1964942
883,196470,Bürknersfelde,0,1964222
884,196470,"Marzahn, Berliner Chaussee",1,1964792
885,196470,Güterbahnhof Springpfuhl,2,1964435
886,196470,S-Bhf. Friedrichsfelde-Ost,3,19641046
887,196470,"Alt-Friedrichsfelde, Am Tierpark",4,196423
888,196470,U-Bhf. Friedrichsfelde,5,19641284
889,196470,Weitlingstrasse,6,19641372
890,196470,S-Bhf. Nöldnerplatz,7,19641062
891,196471,"Hönow, Dorfstrasse",0,1964541
892,196471,Greifswalder Strasse,1,1964401
893,196471,Am Rosenhag,2,196455
894,196471,S-Bhf. Mahlsdorf,3,19641060
895,196472,Greifswalder Strasse,0,1964401
896,196472,Am Rosenhag,1,196455
897,196472,S-Bhf. Mahlsdorf,2,19641060
898,196473,"Wilhelmsruh, Fontanestrasse",0,19641402
899,196473,Hauptstrasse Ecke Edelweißstrasse,1,1964462
900,196473,Ehrenmal,2,1964286
901,196473,Heinrich-Mann-Platz,3,1964482
902,196473,"Pankow, Rathaus",4,1964893
903,196473,"Pankow, Kirche",5,1964891
904,196473,Prenzlauer Promenade Ecke Kissingenstrasse,6,1964944
905,196473,Am Steinberg,7,196456
906,196473,Hamburger Platz,8,1964449
907,196473,Pistoriusstrasse Ecke Klement-Gottwald-Allee,9,1964921
908,196473,Lichtenberger Strasse Ecke Klement-Gottwald-Allee,10,1964717
909,196473,Klement-Gottwald-Allee Ecke Rennbahnstrasse,11,1964612
910,196473,"Weißensee, Schwarzelfenweg",12,19641376
911,196474,"Ahrensfeld, Kirche",0,19646
912,196474,LPG Falkenberg,1,1964687
913,196474,Strasse nach Wartenberg,2,19641207
914,196474,Malchower Weg,3,1964762
915,196474,Buschallee Ecke Klement-Gottwald-Alle,4,1964213
916,196474,Klement-Gottwald-Allee Ecke Rennbahnstrasse,5,1964612
917,196474,Feldtmannstrasse,6,1964324
918,196474,"Malchow, Dorfstrasse",7,1964761
919,196475,Bhf. Schöneweide,0,1964139
920,196475,Sterndamm,1,19641197
921,196475,Johannisthaler Chaussee,2,1964566
922,196475,Baumschulenstrasse Ecke Südostallee,3,196492
923,196475,S-Bhf. Baumschulenweg,4,19641043
924,196475,Eichbuschallee,5,1964289
925,196475,"Treptow, Rathaus",6,19641265
926,196475,S-Bhf. Treptower Park,7,19641074
927,196476,Bhf. Schöneweide,0,1964139
928,196476,Königsheideweg,1,1964674
929,196476,Lindhorstweg,2,1964733
930,196476,Stubenrauchstrasse,3,19641215
931,196476,Lindhorstweg,4,1964733
932,196476,Königsheideweg,5,1964674
933,196476,Bhf. Schöneweide,6,1964139
934,196477,Potsdamer Strasse Ecke Fischerhüttenstrasse,0,1964929
935,196477,Teltower Damm,1,19641240
936,196477,Sundgauer Strasse,2,19641226
938,196477,Dahlemer Weg,3,1964247
939,196477,Drakestrasse,4,1964271
940,196477,Hindenburgdamm,5,1964501
941,196477,Rathaus Steglitz,6,1964981
942,196477,Bundesallee Ecke Rheinstrasse,7,1964207
943,196477,Kaisereiche,8,1964577
944,196477,Innsbrucker Platz,9,1964549
945,196477,Kaiser-Wilhelm-Platz,10,1964575
946,196477,Goeben-/Pallasstrasse,11,1964388
947,196477,U-Bhf. Bülowstrasse,12,19641276
948,196477,Lützowstrasse,13,1964750
950,196477,"Philharmonie, Tiergartenstrasse",14,1964916
951,196478,"Kaulsdorf, Bausdorfstrasse",0,1964597
952,196478,Ridbacher Strasse,1,19641010
953,196478,Grottkauer Strasse,2,1964408
954,196478,Uckermarkstrasse,3,19641320
955,196478,"Kaulsdorf, Bausdorfstrasse",4,1964597
956,196479,Machandelweg,0,1964753
957,196479,U-Bhf. Ruhleben,1,19641304
958,196479,Friedhof Ruhleben,2,1964349
959,196479,Teltower Strasse Ecke Charlottenburger Chaussee,3,19641243
960,196479,Stresowplatz,4,19641212
961,196479,Breite Strasse Ecke Charlottenstrasse,5,1964183
962,196479,Rathaus Spandau,6,1964979
963,196479,Falkenseer Chaussee,7,1964320
964,196479,Viersener Strasse,8,19641337
966,196479,Wolburgsweg,9,19641423
967,196479,Stadtrandstrasse,10,19641190
968,196479,Waldkrankenhaus,11,19641349
969,196479,Nervenklinik,12,1964828
970,196480,Roseneck,0,19641020
971,196480,Elsterplatz,1,1964299
972,196480,Forckenbeckstrasse,2,1964335
973,196480,Flinsberger Platz,3,1964330
974,196480,Seesenerstrasse Ecke Hohenzollerndamm,4,19641148
975,196480,U-Bhf. Fehrbelliner Platz,5,19641281
976,196480,Emser Platz,6,1964303
977,196480,Uhlandstrasse Ecke Güntzelstrasse,7,19641323
978,196480,Bundesallee Ecke Tratenaustrasse,8,1964208
979,196480,Prager Platz,9,1964936
980,196481,Bhf. Wannsee,0,1964144
981,196481,Königstrasse/Kronprinzessinnenweg,1,1964678
982,196481,Am Grossen Wannsee,2,196446
983,196481,KoblanckStrasse,3,1964623
984,196481,Colomierstrasse,4,1964238
985,196481,Krankenhaus Wannsee,5,1964644
986,196481,Zum Heckeshorn,6,19641453
987,196481,Krankenhaus Heckeshorn,7,1964638
988,196482,"Marienfelde, Stadtrandsiedlung",0,1964780
989,196482,Alt-Marienfelde,1,196430
990,196482,Kettinger Strasse Ecke Alt-Marienfelde,2,1964598
991,196482,Lichtenrader Damm Ecke Marienfelder Chaussee,3,1964721
992,196482,Bühler Weg,4,1964219
993,196482,Buckower Friedhof,5,1964204
994,196482,Buckower Damm,6,1964203
995,196482,Grüner Weg,7,1964424
996,196482,Triftweg,8,19641267
997,196482,Rudower Strasse,9,19641026
998,196482,Efeuweg,10,1964283
999,196482,Wildmeisterdamm,11,19641396
1000,196482,Köpenicker Strasse,12,1964682
1001,196482,Friedhof Rudow,13,1964348
1002,196482,Kanalstrasse,14,1964583
1003,196482,Mimosenweg,15,1964802
1004,196482,Stubenrauchstrasse Ecke Kanalstrasse,16,19641217
1005,196483,Dreilindenstrasse,0,1964273
1006,196483,"Zehlendorf, Hohenzollernplatz",1,19641438
1007,196483,Krottnaurerstrasse Ecke Alemannenstrasse,2,1964649
1008,196483,Waldemarplatz,3,19641344
1009,196483,Argentinische Allee Ecke Fischerhüttenstrasse,4,196471
1010,196483,U-Bhf. Krumme Lanke,5,19641293
1011,196483,Hartmannsweiler Weg,6,1964456
1012,196483,Potsdamer Strasse Ecke Fischerhüttenstraße,7,1964930
1013,196483,Teltower Damm,8,19641240
1014,196483,Rathaus Zehlendorf,9,1964985
1015,196483,Knesebeckstrasse,10,1964620
1016,196483,Jänickestrasse,11,1964571
1017,196483,Dahlemer Weg,12,1964247
1018,196483,Osteweg,13,1964879
1019,196483,4. Ring,14,19640
1020,196483,Luzerner Strasse,15,1964744
1021,196483,Thuner Platz,16,19641256
1022,196483,Wiesenbaude,17,19641392
1023,196483,Ostpreußendamm Ecke Wilhelmstrasse,18,1964883
1024,196483,Jungfernstieg,19,1964570
1025,196484,Storkowerstrasse Ecke Greifswalderstrasse,0,19641200
1026,196484,S-Bhf. Lenninallee,1,19641059
1027,196484,Dimitroffstrasse Ecke Leninallee,2,1964265
1028,196485,"Wilhelmsruh, Fontanestrasse",0,19641402
1029,196485,Hauptstrasse Ecke Edelweißstrasse,1,1964462
1030,196485,Ehrenmal,2,1964286
1031,196485,Heinrich-Mann-Platz,3,1964482
1032,196485,"Pankow, Rathaus",4,1964893
1033,196485,"Pankow, Kirche",5,1964891
1034,196485,S-Bhf. Pankow,6,19641064
1035,196485,Prenzlauer Promenade Ecke Granitzstrasse,7,1964943
1036,196485,"Heinersdorf, Kirche",8,1964477
1037,196485,Am Steinberg,9,196456
1038,196485,Hamburger Platz,10,1964449
1039,196485,Gustav-Adolf-Strasse Ecke Rennbahnstrasse,11,1964429
1040,196485,Große Seestrasse Ecke Klement-Gottwald-Allee,12,1964411
1041,196485,"Weißensee, Liebermannstrasse Ecke Piesporter Strasse",13,19641373
1042,196486,"Weißensee, Nüßlerstrasse",0,19641374
1043,196486,Rennbahnstrasse Ecke Gustav-Adolf-Strasse,1,19641001
1044,196486,Hamburger Platz,2,1964449
1045,196486,Prenzlauer Promenade,3,1964940
1046,196486,Wicherstrasse Ecke Prenzlauer Allee,4,19641386
1047,196487,Kniprodestrasse Ecke Ermländische Strasse,0,1964622
1048,196487,Dimitroffstrasse,1,1964261
1049,196487,Königstor,2,1964675
1050,196487,S-Bhf. Alexanderplatz,3,19641041
1051,196487,Marx-Engels-Platz,4,1964790
1052,196487,Friedrichstrasse,5,1964357
1053,196487,Bhf. Friedrichstrasse,6,1964126
1054,196487,Schumannstrasse,7,19641116
1055,196487,Robert-Koch-Platz,8,19641016
1056,196488,Fontanestrasse,0,1964334
1057,196488,"Wilhelmsruh, Hauptstrasee",1,19641403
1058,196488,Ehrenmal,2,1964286
1059,196488,Heinrich-Mann-Platz,3,1964482
1060,196488,"Pankow, Rathaus",4,1964893
1061,196488,"Pankow, Kirche",5,1964891
1062,196488,S-Bhf. Pankow,6,19641064
1063,196488,U-Bhf. Pankow,7,19641301
1064,196489,Walther-Ulbricht-Stadion,0,19641355
1065,196489,Invalidenstrasse,1,1964552
1066,196489,Oranienburger Tor,2,1964863
1067,196489,Bhf. Friedrichstrasse,3,1964126
1068,196489,Französische Strasse,4,1964340
1069,196489,U-Bhf. Stadtmitte,5,19641311
1070,196489,U-Bhf. Thälmannplatz,6,19641316
1071,196490,Bhf. Wannsee,0,1964144
1072,196490,Königstrasse,1,1964677
1073,196490,Pfaueninsel-Chaussee,2,1964914
1074,196490,Rathaus Wannsee,3,1964984
1075,196490,Friedenstrasse,4,1964347
1076,196490,Schäferberg,5,19641121
1077,196490,Nikolskoer Weg,6,1964838
1078,196490,Glienicker Brücke,7,1964384
1079,196491,"Roseneck, Hundekehl",0,19641021
1080,196491,Warnemünder/Berkaer Strasse,1,19641359
1081,196491,Zappoter/Oeynhauser Strasse,2,19641436
1082,196491,"Hamburger Strasse, Rudolf-Mosse-Platz",3,1964450
1083,196491,U-Bhf. Heidelberger Platz,4,19641289
1084,196491,Brabanter Platz,5,1964180
1085,196491,Am Volkspark,6,196460
1086,196491,Berliner Strasse Ecke Brandenburgischestrasse,7,1964110
1087,196491,Postamt,8,1964926
1088,196491,Güntzelstrasse,9,1964433
1089,196491,Ludwigkirchstrasse/Pariser Strasse,10,1964736
1090,196491,Kurfürstendamm Ecke Uhlandstrasse,11,1964658
1091,196491,Kurfürstendamm Ecke Joachimstaler Strasse,12,1964653
1092,196491,Breitscheidplatz,13,1964187
1093,196491,Wittenbergplatz,14,19641420
1094,196492,Zobeltitzstrasse,0,19641448
1095,196492,"U-Bhf. Scharnweberstrasse, Sportplatz",1,19641307
1096,196492,Schillingstrasse,2,19641096
1097,196492,U-Bhf. Kurt-Schumacher-Platz,3,19641294
1098,196492,Humboldtstrasse,4,1964536
1099,196492,Sebastianfriedhof,5,19641139
1100,196492,Teichstrasse,6,19641239
1101,196492,Aroser Allee,7,196473
1102,196492,Pankower Allee Ecke Residenzstrasse,8,1964897
1103,196492,Osloer Strasse Ecke Schwedenstrasse,9,1964872
1104,196492,Exerzierstrasse Ecke Badstrasse,10,1964311
1105,196492,Pankstrasse Ecke Badstrasse,11,1964899
1106,196492,Bhf. Gesundbrunnen,12,1964128
1107,196492,Usedomer Strasse Ecke Brunnenstrasse,13,19641332
1108,196492,Bernauer Strasse Ecke Brunnenstrasse,14,1964118
1109,196492,"Gartenplatz, Feldstrasse",15,1964367
1110,196493,Wittenau,0,19641417
1111,196493,Alt-Wittenau,1,196437
1112,196493,Bonhoeffer-Heim,2,1964170
1113,196493,Auguste-Viktoria-Allee,3,196480
1114,196493,U-Bhf. Kurt-Schumacher-Platz,4,19641294
1115,196493,Saatwinkler Damm,5,19641082
1116,196493,Heckerdamm,6,1964466
1117,196493,Bhf. Jungfernheide,7,1964131
1118,196493,Luisenplatz,8,1964739
1119,196493,Richard-Wagner-Platz,9,19641004
1120,196493,Leibnizstrasse Ecke Otto-Suhr-Allee,10,1964698
1121,196493,U-Bhf. Ernst-Reuter-Platz,11,19641279
1122,196493,Bhf. Zoo,12,1964147
1123,196493,Marburger Strasse,13,1964766
1124,196493,Wittenbergplatz,14,19641420
1125,196494,Radelandstrasse Ecke Niederheideweg,0,1964966
1126,196494,Bötzowbahn,1,1964218
1127,196494,Kisselnallee Ecke Pionierstrasse,2,1964606
1128,196494,Zweibrücker Strasse,3,19641454
1129,196494,Askanierring Ecke Falkenseer Chaussee,4,196475
1130,196494,Bezirksamt,5,1964124
1131,196494,Rathaus Spandau,6,1964979
1132,196494,Bhf. Spandau-West,7,1964142
1133,196494,Staakener Strasse,8,19641184
1134,196494,Hochgerichtstrasse Ecke Seegefelder Strasse,9,1964507
1135,196494,Viersener Strasse,10,19641337
1137,196494,Dyotzer Strasse,11,1964276
1138,196494,Leuthingerweg,12,1964714
1139,196494,Strasse 393,13,19641204
1140,196494,Seegefelder Weg,14,19641144
1141,196495,Bernauer Strasse Ecke Wolliner Strasse,0,1964119
1142,196495,Demminer Strasse Ecke Brunnenstrasse,1,1964255
1143,196495,Ramlerstrasse Ecke Brunnenstrasse,2,1964971
1144,196495,U-Bhf. Gesundbrunnen,3,19641285
1145,196495,Prinzenallee Ecke Exerzierstrasse,4,1964952
1146,196495,Schwedenstrasse Ecke Exerzierstrasse,5,19641119
1147,196495,Schulstrasse Ecke Exerzierstrasse,6,19641113
1148,196495,Reinickendorfer Strasse Ecke Schulstrasse,7,1964998
1149,196495,Leopoldplatz,8,1964708
1150,196495,Antwerpener Strasse Ecke Luxemburgerstrasse,9,196470
1151,196495,Virchow Krankenhaus,10,19641340
1152,196495,Seestrasse,11,19641150
1153,196495,Otawistrasse,12,1964885
1154,196495,Müllerstrasse Ecke Londoner Strasse,13,1964822
1155,196495,Höllenderstrasse Ecke Septimer Strasse,14,1964540
1156,196496,Goebelplatz,0,1964387
1157,196496,Kurt-Schumacher-Damm,1,1964665
1158,196496,Jakob-Kaiser-Platz,2,1964555
1159,196496,Spandauer Damm Ecke Stadtautobahn,3,19641175
1160,196496,Messedamm,4,1964799
1161,196496,Rathenauplatz,5,1964986
1162,196496,Hohenzollerndamm Ecke Stadtautobahn,6,1964520
1163,196496,Bundesplatz,7,1964209
1165,196496,Innsbrucker Platz,8,1964549
1166,196496,Ebersstrasse Ecke Dominicusstrasse,9,1964279
1167,196496,Tempelhofer Damm Ecke Alt-Tempelhof,10,19641247
1168,196496,Oberlandstrasse Ecke Germaniastrasse,11,1964848
1169,196496,Hermannstrasse Ecke Silbersteinstrasse,12,1964491
1170,196496,Karl-Marx-Strasse Ecke Saalestrasse,13,1964587
1171,196496,Schulenburgpark,14,19641111
1172,196497,"Doppel-Süd, Berlepschstrasse",0,1964269
1173,196497,Elsheimer Strasse Ecke Berlepschstrasse,1,1964298
1174,196497,Andreezeile,2,196467
1175,196497,Machnower Strasse Ecke Berlepschstrasse,3,1964754
1176,196497,Rathaus Zehlendorf,4,1964985
1177,196497,Clayallee Ecke Berliner Strasse,5,1964235
1178,196497,Schützallee Ecke Onkel-Tom-Strasse,6,19641138
1179,196497,U-Bhf. Onkel-Toms-Hütte,7,19641299
1180,196498,"Jerusalems-Kirche, Lindenstrasse",0,1964558
1181,196498,Moritzplatz,1,1964810
1182,196498,Oranienplatz,2,1964866
1183,196498,U-Bhf. Kottbusser Tor,3,19641292
1184,196498,Kottbusser Brücke,4,1964631
1185,196498,Hohenstaufenplatz,5,1964518
1186,196498,Hermannplatz,6,1964486
1187,196498,Reuterstrasse,7,19641003
1188,196498,Fuldastrasse,8,1964360
1189,196498,Erkstrasse,9,1964307
1190,196498,Hertzbergplatz,10,1964495
1191,196498,Bhf. Sonnenallee,11,1964141
1192,196498,Dammweg,12,1964250
1193,196498,Neuköllnische Allee,13,1964835
1194,196498,Am Oberhafen,14,196453
1195,196498,U-Bhf. Grenzallee,15,19641287
1196,196498,Onkel-Herse-Strasse Ecke Buschkrug Allee,16,1964859
1197,196498,Parchimer Allee Ecke Buschkrug Allee,17,1964905
1198,196498,Otto-Wels-Ring,18,1964887
1199,196499,Clayallee Ecke Königin-Luise-Strasse,0,1964236
1200,196499,Thielallee/Pacelliallee,1,19641254
1201,196499,U-Bhf. Dahlem-Dorf,2,19641277
1202,196499,Arnimallee,3,196472
1203,196499,Botanischer Garten,4,1964177
1204,196499,Lepsiusstrasse,5,1964710
1205,196499,Rathaus Steglitz,6,1964981
1206,196499,Breite Strasse Ecke Albrechtstrasse,7,1964182
1207,196499,Bismarckstrasse Ecke Bergstrasse,8,1964156
1208,196499,Munsterdamm Ecke Bergstrasse,9,1964813
1209,196499,Alboinstrasse Ecke Prellerweg,10,19647
1210,196499,Attilaplatz,11,196477
1211,196499,Tempehofer Damm Ecke Friedrich-Karl-Strasse,12,19641244
1212,196499,Kaiserin-Augusta-Strasse Ecke Tempelhofer Damm,13,1964578
1213,196499,Alt-Tempelhof Ecke Tempelhofer Damm,14,196436
1214,196499,Bhf. Tempelhof,15,1964143
1215,1964100,Eichkamp,0,1964292
1216,1964100,Trabener Strasse,1,19641264
1217,1964100,Henriettenplatz,2,1964485
1218,1964100,Joachim-Friedrich-Strasse Ecke Kurfürsten Damm,3,1964560
1219,1964100,Wilmersdorfer Strasse Ecke Kurfürstendamm,4,19641409
1220,1964100,Leibnizstrasse Ecke Kurfürstendamm,5,1964697
1221,1964100,Bleibtreustrasse Ecke Kurfürstendamm,6,1964164
1222,1964100,Uhlandstrasse Ecke Kurfürstendamm,7,19641324
1223,1964100,Joachimstaler Strasse Ecke Kurfürstendamm,8,1964562
1224,1964100,Nürnberger Strasse Ecke Kurfürstenstrasse,9,1964846
1225,1964100,An der Urania,10,196465
1226,1964100,Lützowplatz,11,1964749
1227,1964100,Tiergartenstrasse,12,19641262
1228,1964100,Großer Stern,13,1964413
1229,1964100,Kongreßhalle,14,1964627
1230,1964100,Moltkebrücke,15,1964807
1231,1964101,"Glienicke, Kirche",0,1964383
1232,1964101,Elsässer Strasse,1,1964300
1233,1964101,"Schildow, Kirche",2,19641093
1234,1964101,"Blankenfelde, Hauptstrasse",3,1964161
1235,1964101,Nordend,4,1964841
1236,1964101,Kurt-Fischer-Platz,5,1964663
1237,1964101,"Pankow, Rathaus",6,1964893
1238,1964101,U-Bhf. Vinetastrasse,7,19641318
1239,1964102,"Schildow, Kirche",0,19641093
1240,1964102,"Blankenfelde, Hauptstrasse",1,1964161
1241,1964102,Nordend,2,1964841
1242,1964102,Kurt-Fischer-Platz,3,1964663
1243,1964102,"Pankow, Rathaus",4,1964893
1244,1964102,U-Bhf. Vinetastrasse,5,19641318
1245,1964103,Bhf. Wollankstrasse,0,1964146
1246,1964103,Osloer Strasse,1,1964870
1248,1964103,Badstrasse,2,196481
1249,1964103,Wiesenstrasse,3,19641393
1250,1964103,Ravenestrasse Ecke Reinickdorferstrasse,4,1964991
1251,1964103,Weddingplatz,5,19641369
1252,1964103,Am Nordhafen,6,196451
1253,1964103,Rathenower Strasse,7,1964987
1255,1964103,Turmstrasse/Rathenower Strasse,8,19641273
1256,1964103,Krankenhaus Moabit,9,1964641
1257,1964103,Stromstrasse,10,19641213
1258,1964103,Rathaus Tiergarten,11,1964983
1259,1964103,Waldstrasse/Gotzkowskystrasse,12,19641352
1260,1964103,Reuchlinstrasse,13,19641002
1261,1964103,"Wiebestrasse, Strassenbahnhof",14,19641389
1262,1964104,Bhf. Wilhelmsruh,0,1964145
1263,1964104,Lindauer Strasse,1,1964725
1264,1964104,Emmentaler Strasse,2,1964301
1266,1964104,"Schäfersee, Pankower Allee",3,19641122
1267,1964104,Provinzstrasse/Pankower Allee,4,1964956
1268,1964104,Ritterlandweg,5,19641015
1269,1964104,Prinzenallee/Soldiner Strasse,6,1964953
1270,1964104,Osloer Strasse,7,1964870
1272,1964104,Badstrasse/Prinzenallee,8,196482
1273,1964104,Bhf. Gesundbrunnen,9,1964128
1274,1964104,Ramlerstrasse,10,1964970
1275,1964104,Rügener Strasse,11,19641039
1276,1964104,Usedomer Strasse,12,19641331
1277,1964104,Bernauer Strasse Ecke Brunnenstrasse,13,1964118
1278,1964104,Bernauer Strasse Ecke Wolliner Strasse,14,1964119
1279,1964105,Alt-Reinickendorf Ecke Rödern Allee,0,196434
1280,1964105,Lindauer Strasse Ecke Residenzstrasse,1,1964726
1281,1964105,Pankower Allee Ecke Residenzstrasse,2,1964897
1282,1964105,Luise-Schröder-Platz,3,1964737
1283,1964105,Nauener Platz,4,1964823
1284,1964105,Weddingplatz,5,19641369
1285,1964105,Rathenower Strasse Ecke Perleberger Strasse,6,1964989
1286,1964105,Turmstrasse Ecke Stromstrasse,7,19641272
1287,1964105,Waldstrasse Ecke Turmstrasse,8,19641351
1288,1964105,Wiebestrasse Ecke Kaiserin-Augusta-Allee,9,19641388
1289,1964105,Tauroggener Strasse Ecke Osnabrücker Strasse,10,19641235
1290,1964105,Landgericht,11,1964688
1291,1964105,Jakob-Kaiser-Platz,12,1964555
1293,1964105,Quellweg Ecke Nonnendamm Allee,13,1964964
1294,1964105,Paulsternstrasse Ecke Gartenfelderstrasse,14,1964911
1295,1964105,Gartenfeld,15,1964364
1296,1964106,Bhf. Zoo,0,1964147
1297,1964106,Wittenbergplatz,1,19641420
1298,1964106,Motzstrasse,2,1964812
1299,1964106,Grunewaldstrasse,3,1964418
1300,1964106,Rathaus Schöneberg,4,1964978
1301,1964106,Hauptstrasse Ecke Dominicusstrasse,5,1964461
1302,1964106,Ebersstrasse Ecke Dominicusstrasse,6,1964279
1303,1964106,Suadicanistrasse Ecke Sachsendamm,7,19641223
1304,1964106,Tempelhofer Damm Ecke Alt-Tempelhof,8,19641247
1305,1964106,Rohdestrasse Ecke Germaniastrasse,9,19641019
1306,1964106,Gottlieb-Dunkel-Strasse Ecke Tempelhofer Weg,10,1964395
1307,1964106,Britzer Damm Ecke Gradestrasse,11,1964190
1308,1964106,Buschkrug Alle Ecke Blaschko-Allee,12,1964216
1309,1964107,Königin-Elisabeth-Strasse,0,1964669
1310,1964107,Spandauer Damm,1,19641173
1311,1964107,Klausenerplatz,2,1964608
1312,1964107,Schlossstrasse Ecke Seelingstrasse,3,19641104
1313,1964107,Sophie-Charlotten-Platz,4,19641165
1314,1964107,Kaiser-Friedrich-Strasse,5,1964574
1315,1964107,Stuttgarter Platz,6,19641218
1317,1964107,Kurfürstendamm Ecke Wilmersdorferstrasse,7,1964660
1318,1964107,Fehrbelliner Platz,8,1964322
1319,1964107,Bundesallee Ecke Berliner Strasse,9,1964206
1320,1964107,Martin-Luther-Strasse,10,1964787
1321,1964107,Rathaus Schöneberg,11,1964978
1322,1964107,Hauptstrasse (Schöneberg),12,1964460
1323,1964107,Suadicanistrasse Ecke Sachsendamm,13,19641223
1324,1964107,Egelingzeile,14,1964284
1325,1964107,Eythstrasse,15,1964313
1326,1964108,Munsterdamm Ecke Steglitzer Damm,0,1964814
1327,1964108,Bismarckstrasse Ecke Bergstrasse,1,1964156
1328,1964108,Lauenburger Platz,2,1964693
1329,1964108,Kaisereiche,3,1964577
1330,1964108,Innsbrucker Platz,4,1964549
1331,1964108,Dominicusstrasse Ecke Hauptstrasse,5,1964266
1332,1964108,Kaiser-Wilhelm-Platz,6,1964575
1333,1964108,U-Bhf. Bülowstrasse,7,19641276
1334,1964108,Am Karlsbad,8,196449
1335,1964108,Askanischer Platz,9,196476
1336,1964108,U-Bhf. Kochstrasse,10,19641291
1337,1964108,Oranienstrasse,11,1964867
1338,1964108,U-Bhf. Moritzplatz,12,19641297
1339,1964108,Spreewaldplatz,13,19641183
1340,1964108,Sonnenallee Ecke Pannierstrasse,14,19641163
1341,1964108,Hermannplatz,15,1964486
1342,1964109,Blohmstrasse Ecke Wünsdorfer Strasse,0,1964165
1343,1964109,Bhf. Lichtenrade,1,1964134
1344,1964109,Marienfelder Strasse Ecke Lichtenrader Damm,2,1964782
1345,1964109,Potsdamer Strasse Ecke Lichtenrader Damm,3,1964931
1346,1964109,Buckower Chaussee Ecke Lichtenrader Damm,4,1964201
1347,1964109,Mariendorfer Damm Ecke Tauernallee,5,1964775
1348,1964109,Rennbahn,6,19641000
1349,1964109,Alt-Mariendorf Ecke Mariendorfer Damm,7,196429
1350,1964109,Kaiserstrasse Ecke Lichtenrader Damm,8,1964579
1351,1964109,Burgemeister Strasse Ecke Tempelhofer Damm,9,1964211
1352,1964109,Alt-Tempelhof Ecke Tempelhofer Damm,10,196436
1353,1964109,U-Bhf. Tempelhof,11,19641314
1354,1964109,Thuyring Ecke Tempelhofer Damm,12,19641258
1355,1964109,Bayernring Ecke Tempelhofer Damm,13,196497
1356,1964109,Platz der Luftbrücke,14,1964922
1357,1964110,Daimlerstrasse,0,1964248
1358,1964110,Bhf. Marienfelde,1,1964137
1359,1964110,Körtingstrasse,2,1964684
1360,1964110,Mariendorfer Damm,3,1964772
1361,1964110,Kaiserstrasse Ecke Mariendorfer Damm,4,1964580
1362,1964110,Markgrafenstrasse Ecke Mariendorfer Damm,5,1964785
1363,1964110,Burgemeister Strasse Ecke Tempelhofer Damm,6,1964211
1364,1964110,Rathaus Tempelhof,7,1964982
1365,1964110,Alt-Tempelhof Ecke Tempelhofer Damm,8,196436
1366,1964110,U-Bhf. Tempelhof,9,19641314
1367,1964110,Thuyring Ecke Tempelhofer Damm,10,19641258
1368,1964110,Paradestrasse Ecke Tempelhofer Damm,11,1964903
1369,1964110,Bayernring Ecke Tempelhofer Damm,12,196497
1370,1964110,Platz der Luftbrücke,13,1964922
1371,1964111,Tropfsteinweg Ecke Quarz-Weg,0,19641270
1372,1964111,Tauernallee Ecke Grünstein Weg,1,19641232
1373,1964111,Mariendorfer Damm Ecke Tauernallee,2,1964775
1374,1964111,Rennbahn,3,19641000
1375,1964111,Alt-Mariendorf Ecke Mariendorfer Damm,4,196429
1376,1964111,Kaiserstrasse Ecke Mariendorfer Damm,5,1964580
1377,1964111,Burgemeisterstrasse Ecke Tempelhofer Damm,6,1964212
1378,1964111,Alt-Tempelhof Ecke Tempelhofer Damm,7,196436
1379,1964111,U-Bhf. Tempelhof,8,19641314
1380,1964111,Thuyring Ecke Tempelhofer,9,19641257
1381,1964111,Bayernring Ecke Tempelhofer,10,196496
1382,1964111,Platz der Luftbrücke,11,1964922
1383,1964112,Leopoldplatz,0,1964708
1384,1964112,Nazarethkirchstrasse Ecke Turinerstrasse,1,1964826
1385,1964112,Prinz-Eugen-Strasse,2,1964950
1386,1964112,Reinickendorfer Strasse Ecke Schulstrasse,3,1964998
1387,1964112,Exerzierstrasse Ecke Schulstrasse,4,1964312
1388,1964112,Osloerstrasse Ecke Schwedenstrasse,5,1964873
1389,1964112,Ritterlandweg,6,19641015
1390,1964112,Pankower Allee Ecke Markstrasse,7,1964896
1391,1964112,Letteplatz,8,1964713
1392,1964112,Schwabstrasse Ecke Reginhardstrasse,9,19641117
1393,1964112,Hausotterstrasse Ecke Reginhardstrasse,10,1964463
1394,1964112,Raschdorffstrasse Ecke Reginhardstrasse,11,1964974
1395,1964112,Sommerstrasse Ecke Klemkestrasse,12,19641159
1396,1964113,"Waldesruh, Malhlsdorfer Allee",0,19641346
1397,1964113,Fichtestrasse Ecke Schopenhauerstrasse,1,1964329
1398,1964113,Hultschiner Damm,2,1964533
1399,1964113,Sadowastrasse,3,19641084
1400,1964113,Chemnitzer Ecke Ulmenstrasse,4,1964233
1401,1964113,"Alt-Biesdorf, Oberfeldstrasse",5,196419
1402,1964113,"Alt-Friedrichsfelde, Am Tierpark",6,196423
1403,1964113,U-Bhf. Friedrichsfelde,7,19641284
1404,1964114,Sadowastrasse,0,19641084
1405,1964114,Chemnitzer Ecke Ulmenstrasse,1,1964233
1406,1964114,"Alt-Biesdorf, Oberfeldstrasse",2,196419
1407,1964114,"Alt-Friedrichsfelde, Am Tierpark",3,196423
1408,1964114,U-Bhf. Friedrichsfelde,4,19641284
1409,1964115,"Spandau, Breitestrasse",0,19641170
1410,1964115,Rathaus Spandau,1,1964979
1411,1964115,Seegefelderstrasse Ecke Carl-Schurz-Strasse,2,19641145
1412,1964115,Klosterstrasse Ecke Carl-Schurz-Strasse,3,1964619
1413,1964115,Nauener Strasse Ecke Brunsbütteler Damm,4,1964825
1414,1964115,Egelpfuhlstrasse,5,1964285
1415,1964115,Magistratsweg Ecke Brunsbütteler Damm,6,1964757
1416,1964115,Nennhauser Damm Ecke Brunsbütteler Damm,7,1964827
1417,1964116,"Bhf. Zoo, Hardenbergplatz",0,1964149
1418,1964116,U-Bhf. Spichernstrasse,1,19641310
1419,1964116,Berliner Strasse Ecke Joachimstalerstrasse,2,1964112
1420,1964116,Bundesplatz,3,1964209
1422,1964116,Schlossstrasse Ecke Feuerbachstrasse,4,19641103
1423,1964116,Feuerbachstrasse Ecke Bismarckstrasse,5,1964327
1424,1964116,Bergstrasse Ecke Bismarckstrasse,6,1964105
1425,1964116,Bismarckstrasse Ecke Steglitzer Damm,7,1964157
1427,1964116,"Lankwitz, Kirche",9,1964691
1428,1964116,"Alt-Lankwitz, Dorfaue",10,196428
1429,1964116,Alt-Mariendorf Ecke Mariendorfer Damm,11,196429
1430,1964116,Imbrosweg Ecke Goldenes Horn,12,1964547
1431,1964116,Imbrosweg Ecke Dardanellenweg,13,1964546
1432,1964117,Nettelbeckplatz,0,1964829
1433,1964117,Weddingplatz,1,19641369
1434,1964117,Heidestrasse Ecke Fennstrasse,2,1964473
1435,1964117,Washingtonplatz,3,19641365
1436,1964117,Potsdamer Strasse Ecke Verbindungsstrasse,4,1964934
1437,1964117,Reichpietsch-Ufer Ecke Potsdamer Strasse,5,1964993
1438,1964117,Lützowstrasse Ecke Potsdamer Strasse,6,1964752
1439,1964117,Bülowstrasse Ecke Potsdamer Strasse,7,1964220
1440,1964117,Kaiser-Wilhelm-Platz,8,1964575
1441,1964117,Innsbrucker Platz,9,1964549
1442,1964117,Grazer Platz,10,1964399
1443,1964117,Bergstrasse Ecke Thorwaldstrasse,11,1964106
1444,1964117,Steglitzer Damm Ecke Munsterdamm,12,19641196
1445,1964117,"Lankwitz, Kirche",13,1964691
1446,1964117,Malteserstrasse Ecke Paul-Schneider-Strasse,14,1964764
1447,1964117,Preysingstrasse Ecke Malteser Strasse,15,1964948
1448,1964117,Belßstrasse,16,1964101
1449,1964118,Ringstrasse Ecke Pestalozziplatz,0,19641013
1450,1964118,Kadettenweg Ecke Finckenstein Allee,1,1964573
1451,1964118,Wiesenbaude,2,19641392
1452,1964118,Krahmerstrasse Ecke Hindenburgdamm,3,1964635
1453,1964118,Klingsorstrasse Ecke Hindenburgdamm,4,1964615
1454,1964118,Händelplatz,5,1964539
1455,1964118,Schlossstrasse Ecke Albrechtstrasse,6,19641102
1456,1964118,Rathaus Steglitz,7,1964981
1457,1964118,Florastrasse,8,1964331
1458,1964118,Bundesallee Ecke Rheinstrasse,9,1964207
1459,1964118,Kaisereiche,10,1964577
1460,1964118,Innsbrucker Platz,11,1964549
1461,1964118,Martin-Luther-Strasse Ecke Hauptstrasse,12,1964789
1462,1964118,Dominicusstrasse Ecke Hauptstrasse,13,1964266
1463,1964118,Kaiser-Wilhelm-Platz,14,1964575
1464,1964118,Gotenstrasse Ecke Torgauerstrasse,15,1964393
1465,1964119,"Bhf. Zoo, Hardenbergplatz",0,1964149
1466,1964119,Wittenbergplatz,1,19641420
1467,1964119,Grunewaldstrasse Ecke Martin-Luther-Strasse,2,1964419
1468,1964119,Bundesallee Ecke Berliner Strasse,3,1964206
1470,1964119,Bundesplatz,4,1964210
1471,1964119,Friedrich-Wilhelm-Platz,5,1964351
1472,1964119,Schloßstrasse Ecke Bundesallee,6,19641107
1473,1964119,Rathaus Steglitz,7,1964981
1474,1964119,Hindenburgdamm Ecke Gardeschützweg,8,1964502
1475,1964119,Händelplatz,9,1964539
1476,1964119,Moltkestrasse,10,1964808
1477,1964119,Drakestrasse Ecke Ringstrasse,11,1964272
1478,1964119,Rittberg-Krankenhaus,12,19641014
1479,1964119,Thuner Platz,13,19641256
1480,1964119,Ostpreußendamm Ecke Dorstenerstrasse,14,1964881
1481,1964119,Holtheimer Weg,15,1964527
1482,1964120,Invalidenstrasse,0,1964552
1483,1964120,Stromstrasse Ecke Alt-Moabit,1,19641214
1484,1964120,Alt-Moabit Ecke Gotzkowskystrasse,2,196433
1485,1964120,Ernst-Reuter-Platz,3,1964309
1486,1964120,Cauerstrasse Ecke Wilmersdorferstrasse,4,1964228
1487,1964120,Richard-Wagner-Platz,5,19641004
1488,1964120,Kantstrasse Ecke Wilmersdorferstrasse,6,1964585
1489,1964120,Kurfürstendamm Ecke Wilmersdorferstrasse,7,1964659
1491,1964120,Fehrbelliner Platz,8,1964322
1492,1964120,Hildegardstrasse,9,1964500
1493,1964120,Bundesplatz,10,1964209
1495,1964120,Schloßstrasse Ecke Bundesallee,11,19641107
1496,1964120,Rathaus Steglitz,12,1964981
1497,1964120,Hindenburgdamm,13,1964501
1498,1964120,Klingsorstrasse,14,1964614
1499,1964120,Birkbuschstrasse Ecke Siemensstrasse,15,1964152
1500,1964121,"Richard-Wagner-Platz, Wintersteinstrasse",0,19641007
1501,1964121,Richard-Wagner-Platz,1,19641004
1502,1964121,Wilmersdorferstrasse Ecke Otto-Suhr-Allee,2,19641410
1503,1964121,Luisenplatz,3,1964739
1504,1964121,Schlossstrasse Ecke Spandauer Damm,4,19641105
1505,1964121,Spandauer Damm Ecke Sophie-Charlotten-Strasse,5,19641174
1506,1964121,Sophie-Charlotten-Strasse Ecke Pulsstrasse,6,19641167
1507,1964122,U-Bhf. Kaiserdamm,0,19641290
1508,1964122,Neue-Kant-Strasse Ecke Messedamm,1,1964831
1509,1964122,Halenseestrasse Ecke Messedamm,2,1964446
1510,1964122,Deutschland Halle,3,1964258
1511,1964122,Eichkampstrasse Ecke Alte Allee,4,1964294
1512,1964123,Grüntaler Straße Ecke Osloer Strasse,0,1964428
1513,1964123,Drontheimer Strasse Ecke Osloer Strasse,1,1964274
1514,1964123,Osloer Strasse Ecke Schwedenstrasse,2,1964872
1515,1964123,Reinickendorferstrasse Ecke Osloer Strasse,3,1964999
1516,1964123,U-Bhf. Seestrasse,4,19641309
1517,1964123,Saatwinkler Damm Ecke Seestrasse,5,19641083
1518,1964123,Huttenstrasse Ecke Beusselstrasse,6,1964538
1519,1964123,Tauroggener Strasse Ecke Meriendorffstrasse,7,19641234
1520,1964123,Luisenplatz,8,1964739
1521,1964123,Kantstrasse Ecke Wilmersdorferstrasse,9,1964585
1522,1964123,Kurfürstendamm Ecke Wilmersdorferstrasse,10,1964659
1524,1964123,U-Bhf. Fehrbelliner Platz,11,19641281
1525,1964123,Brandenburgischestrasse Ecke Blissestrasse,12,1964181
1526,1964123,Bundesallee Ecke Berliner Strasse,13,1964206
1527,1964123,Martin-Luther-Strasse Ecke Grunewaldstrasse,14,1964788
1528,1964123,Potsdamer Strasse Ecke Pallasstrasse,15,1964932
1529,1964123,Mehringdamm,16,1964795
1530,1964123,U-Bhf. Gneisenaustrasse,17,19641286
1531,1964123,Mehringplatz,18,1964797
1532,1964124,Kurische Strasse,0,1964662
1533,1964124,Dimitroffstrasse,1,1964261
1534,1964124,Königstor,2,1964675
1535,1964124,S-Bhf. Alexanderplatz,3,19641041
1536,1964124,Marx-Engels-Platz,4,1964790
1537,1964124,Friedrichstrasse,5,1964357
1538,1964124,Bhf. Friedrichstrasse,6,1964126
1539,1964124,Oranienburger Tor,7,1964863
1540,1964124,Platz vor dem Neuen Tor,8,1964923
1541,1964124,Scharnhorststrasse Ecke Kieler Strasse,9,19641090
1542,1964125,"Bhf. Zoo, Hardenbergplatz",0,1964149
1543,1964125,Ernst-Reuter-Platz,1,1964309
1544,1964125,Alt-Moabit Ecke Gotzkowskystrasse,2,196433
1545,1964125,U-Bhf. Turmstrasse,3,19641317
1546,1964125,Rathenowerstrasse Ecke Alt-Moabit,4,1964990
1547,1964125,Perlebergerstrasse Ecke Rathenowerstrasse,5,1964913
1548,1964125,Am Nordhafen Ecke Tegelerstrasse,6,196452
1549,1964125,Weddingplatz,7,19641369
1550,1964125,Gartenstrasse Ecke Grenzstrasse,8,1964371
1551,1964125,Wattstrasse Ecke Usedomerstrasse,9,19641366
1552,1964125,Vinetaplatz,10,19641339
1553,1964126,U-Bhf. Leinestrasse,0,19641295
1554,1964126,Siegfriedstrasse Ecke Hermannstrasse,1,19641155
1555,1964126,Silbersteinstrasse Ecke Hermannstrasse,2,19641158
1556,1964126,Mariendorfer Weg Ecke Hermannstrasse,3,1964777
1557,1964126,Germaniapromenade Ecke Hermannstrasse,4,1964375
1558,1964126,Franz-Körner-Strasse Ecke Britzer Damm,5,1964339
1559,1964126,Blaschkoallee Ecke Britzer Damm,6,1964163
1560,1964126,Britzer Damm Ecke Tempelhofer Weg,7,1964191
1561,1964126,Mohriner Alle Ecke Buckower Damm,8,1964805
1562,1964126,Gutschmidtstrasse Ecke Buckower Damm,9,1964430
1563,1964126,Schlosserweg Ecke Buckower Damm,10,19641101
1564,1964126,Zimmererweg Ecke Buckower Damm,11,19641446
1565,1964126,Dachdeckerweg Ecke Buckower Damm,12,1964245
1566,1964126,Parkfriedhof Neukölln,13,1964907
1567,1964126,Alt-Buckow Ecke Buckower Damm,14,196420
1568,1964127,Machandelweg,0,1964753
1569,1964127,U-Bhf. Ruhleben,1,19641304
1570,1964127,Grunewaldstrasse Ecke Ruhlebenerstrasse,2,1964420
1571,1964127,Klosterstrasse Ecke Carl-Schurz-Strasse,3,1964619
1572,1964127,Seeburgerstrasse Ecke Klosterstrasse,4,19641143
1573,1964127,Pichelsdorferstrasse Ecke Klosterstrasse,5,1964919
1574,1964127,Wilhelmstrasse Ecke Heerstrasse,6,19641404
1575,1964127,Reimerweg Ecke Heerstrasse,7,1964995
1576,1964128,Brunnenstrasse Ecke Lortzingstrasse,0,1964196
1577,1964128,U-Bhf. Gesundbrunnen,1,19641285
1578,1964128,Brunnenplatz,2,1964193
1579,1964128,Nettelbeckplatz,3,1964829
1580,1964128,Rathenower Strasse,4,1964987
1582,1964128,Unionplatz,5,19641327
1583,1964128,Saatwinkler Damm Ecke Seestrasse,6,19641083
1584,1964128,Jakob-Kaiser-Platz,7,1964555
1585,1964128,Wernerwerk,8,19641381
1586,1964128,Quellweg Ecke Nonnendamm Allee,9,1964963
1588,1964128,Paulsternstrasse Ecke Nonnendamm Allee,10,1964912
1589,1964128,Gartenfelderstrasse Ecke Nonnendamm Allee,11,1964366
1590,1964128,Carl-Schurz-Strasse Ecke Seegefelder Strasse,12,1964226
1591,1964128,Rathaus Spandau,13,1964979
1592,1964128,Hochgerichtstrasse,14,1964506
1593,1964128,Germersheimer Platz,15,1964377
1594,1964129,Diepensee,0,1964259
1595,1964129,Kienberg,1,1964599
1596,1964129,Waltersdorf,2,19641354
1597,1964129,"Bohnsdorf, Waldstrasse",3,1964169
1598,1964129,S-Bhf. Grünau,4,19641050
1599,1964130,Zühlsdorf,0,19641455
1600,1964130,"Summt, Seegarten",1,19641224
1601,1964130,"Triftweg, LPG",2,19641268
1602,1964130,"Mühlenbeck, Schule",3,1964820
1603,1964130,Mönchmühle,4,1964817
1604,1964130,"Schildow, Kirche",5,19641093
1605,1964131,"Bonsdorf, Waldstrasse",0,1964171
1606,1964131,Eichbuschplatz,1,1964290
1607,1964131,Joachimstrasse,2,1964563
1608,1964131,S-Bhf. Grünau,3,19641050
1609,1964132,Neu-Lindenberg,0,1964830
1610,1964132,Lindenberg,1,1964727
1611,1964132,"Malchow, Dorfstrasse",2,1964761
1612,1964133,Bhf. Zoo,0,1964147
1613,1964133,U-Bhf. Ernst-Reuter-Platz,1,19641279
1614,1964133,Cauerstrasse,2,1964227
1615,1964133,Richard-Wagner-Platz,3,19641004
1616,1964133,Luisenplatz,4,1964739
1617,1964133,Fürstenbrunner Weg,5,1964361
1618,1964133,Kirschenallee,6,1964604
1619,1964133,Schloss Ruhwald,7,19641099
1620,1964133,U-Bhf. Ruhleben,8,19641304
1621,1964133,Teltower Strasse,9,19641241
1622,1964133,Rathaus Spandau,10,1964979
1624,1964133,Hafenplatz,11,1964440
1625,1964133,Lynastrasse,12,1964745
1626,1964133,Klinkeplatz,13,1964616
1627,1964133,Hohenzollernring Ecke Schönwalderstrasse,14,1964525
1628,1964134,Bhf. Zoo,0,1964147
1629,1964134,Hardenbergstrasse Ecke Joachimstalerstrasse,1,1964455
1630,1964134,Kurfürstendamm Ecke Joachimstalerstrasse,2,1964654
1632,1964134,"Rankeplatz, Bundeshaus",3,1964972
1633,1964134,Berliner Strasse Ecke Bundesallee,4,1964111
1634,1964134,Bundesplatz,5,1964209
1636,1964134,"Schlossstrasse, Wilhelm-Schreiber-Platz",6,19641106
1637,1964134,Canovastrasse,7,1964223
1638,1964134,Attilaplatz,8,196477
1639,1964134,Mariendorfer Damm Ecke Kaiserstrasse,9,1964774
1640,1964134,Alt-Mariendorf Ecke Mariendorfer Damm,10,196429
1641,1964134,"Tauernallee, Adlermühle",11,19641233
1642,1964134,Buckower Chaussee Ecke Mariendorfer Damm,12,1964202
1643,1964134,"Lichtenrade, Goethestrasse",13,1964720
1644,1964134,Goltzstrasse,14,1964391
1645,1964134,Bhf. Lichtenrade,15,1964134
1646,1964134,"Lichtenrade, Blohmstrasse Ecke Wünsdorfer Strasse",16,1964719
1647,1964135,Bhf. Zoo,0,1964147
1648,1964135,Hardenbergstrasse,1,1964454
1650,1964135,Kurfürstendamm Ecke Joachimstalerstrasse,2,1964655
1651,1964135,Rankeplatz/Bundeshaus,3,1964973
1652,1964135,U-Bhf. Spichernstrasse,4,19641310
1653,1964135,U-Bhf. Fehrbelliner Platz,5,19641281
1654,1964135,Seesener Strasse Ecke Hohenzollerndamm,6,19641147
1655,1964135,"Berkaer Strasse, Elsterplatz",7,1964108
1656,1964135,Roseneck,8,19641020
1657,1964135,Pücklerstrasse,9,1964960
1658,1964135,Königin-Luise-Strasse,10,1964671
1660,1964135,U-Bhf. Oskar-Helene-Heim,11,19641300
1661,1964135,Sundgauer Strasse,12,19641226
1663,1964135,Winfriedstrasse,13,19641413
1664,1964135,Clayallee/Teltower Damm,14,1964237
1665,1964135,Rathaus Zehlendorf,15,1964985
1666,1964136,Bhf. Zoo,0,1964147
1667,1964136,Savignyplatz,1,19641087
1668,1964136,Leibnizstrasse Ecke Kantstrasse,2,1964696
1669,1964136,Wilmersdrofer Strasse Ecke Kantstrasse,3,19641411
1670,1964136,Amtsgericht,4,196462
1671,1964136,Wundtstrasse Ecke Neue Kantstrasse,5,19641431
1672,1964136,Messedamm Ecke Halenseestrasse,6,1964801
1673,1964136,Spanische Allee Ecke Kronprizessinnenweg,7,19641177
1674,1964136,Bhf. Wannsee,8,1964144
1675,1964136,Am Großen Wannsee,9,196447
1676,1964136,Rathaus Wannsee,10,1964984
1677,1964136,Stölpchensee,11,19641219
1678,1964137,Groß Ziethen,0,1964409
1679,1964137,Klein Ziethen,1,1964610
1680,1964137,"Waßmannsdorf, Warteh.",2,19641367
1681,1964137,"Schönefeld, Kirche",3,19641124
1682,1964137,Bhf. Schönefeld,4,1964138
1683,1964138,Schlesisches Tor,0,19641098
1684,1964138,Görlitzer Bahnhof (Oranienstr.),1,1964432
1685,1964138,Kottbusser Tor,2,1964633
1686,1964138,Prinzenstr.,3,1964954
1687,1964138,Hallesches Tor,4,1964447
1688,1964138,Gleisdreieck,5,1964382
1689,1964138,Kurfürstenstr.,6,1964661
1690,1964138,Nollendorfplatz,7,1964840
1691,1964138,Wittenbergplatz,8,19641421
1692,1964138,Zoologischer Garten,9,19641450
1693,1964138,Ernst-Reuter-Platz,10,1964310
1694,1964138,Deutsche Oper (Bismarckstr.),11,1964257
1695,1964138,Sophie-Charlotte-Platz,12,19641164
1696,1964138,Kaiserdamm (Messedamm),13,1964576
1697,1964138,Theodor-Heuss-Platz,14,19641253
1698,1964138,Ruhleben,15,19641027
1699,1964139,Schlesisches Tor,0,19641098
1700,1964139,Görlitzer Bahnhof (Oranienstr.),1,1964432
1701,1964139,Kottbusser Tor,2,1964633
1702,1964139,Prinzenstr.,3,1964954
1703,1964139,Hallesches Tor,4,1964447
1704,1964139,Möckernbrücke,5,1964816
1705,1964139,Gleisdreieck,6,1964382
1706,1964139,Kurfürstenstr.,7,1964661
1707,1964139,Nollendorfplatz,8,1964840
1708,1964139,Wittenbergplatz,9,19641421
1709,1964139,Augsburger Str.,10,196479
1710,1964139,Spichernstrasse,11,19641178
1711,1964139,Hohenzollernplatz,12,1964521
1712,1964139,Fehrbelliner Platz,13,1964323
1713,1964139,Heidelberger Platz,14,1964472
1714,1964139,Rüdesheimer Platz,15,19641038
1715,1964139,Breitenbachplatz,16,1964185
1716,1964139,Podbielskiallee,17,1964925
1717,1964139,Dahlem-Dorf,18,1964246
1718,1964139,Thielplatz,19,19641255
1719,1964139,Oskar-Helene-Heim,20,1964869
1720,1964139,Onkel Toms Hütte,21,1964857
1721,1964139,Krumme Lanke,22,1964650
1722,1964140,Deutsche Oper (Bismarckstr.),0,1964257
1723,1964140,Richard-Wagner-Platz,1,19641006
1724,1964141,Nollendorfplatz,0,1964840
1725,1964141,Bayerischer Platz,1,196495
1726,1964141,Innsbrucker Platz,2,1964551
1727,1964142,Wittenbergplatz,0,19641421
1728,1964142,Kurfürstendamm,1,1964652
1730,1964143,Tegel,0,19641237
1731,1964143,Borsigwerke,1,1964175
1732,1964143,Holzhauser Str.,2,1964528
1733,1964143,Seidelstr. (Flughafen Tegel),3,19641151
1734,1964143,Scharnweberstr. (Eichborndamm),4,19641091
1735,1964143,Kurt-Schumacher-Platz,5,1964667
1736,1964143,Afrikanische Str.,6,19645
1737,1964143,Rehberge,7,1964992
1738,1964143,Seestr.,8,19641149
1739,1964143,Leopoldplatz,9,1964709
1740,1964143,Bahnhof Wedding,10,196487
1741,1964143,Reinickendorfer Str.,11,1964997
1742,1964143,Bahnhof Friedrichstr. (Stadtbahn),12,196485
1743,1964143,Kochstr.,13,1964624
1744,1964143,Hallesches Tor,14,1964447
1745,1964143,Mehringdamm,15,1964796
1746,1964143,Gneisenaustr.,16,1964385
1747,1964143,Südstern,17,19641230
1748,1964143,Hermannplatz,18,1964488
1749,1964143,Rathaus Neukölln,19,1964976
1750,1964143,Karl-Marx-Str.,20,1964586
1751,1964143,Neukölln (Südring),21,1964834
1752,1964143,Grenzallee,22,1964405
1753,1964143,Blaschkoallee,23,1964162
1754,1964143,Parchimer Allee,24,1964904
1755,1964143,Britz-Süd,25,1964189
1756,1964144,Mehringdamm,0,1964796
1757,1964144,Flughafen,1,1964333
1758,1964144,Paradestr.,2,1964902
1759,1964144,Tempelhof (Südring),3,19641246
1760,1964145,Gesundbrunnen,0,1964379
1761,1964145,Voltastr.,1,19641342
1762,1964145,Moritzplatz,2,1964811
1763,1964145,Kottbusser Tor,3,1964633
1764,1964145,Kottbusser Damm (Schönleinstr.),4,1964632
1765,1964145,Hermannplatz,5,1964488
1766,1964145,Boddinstr.,6,1964167
1767,1964145,Leinestr.,7,1964699
1768,1964146,Leopoldplatz,0,1964709
1769,1964146,Amrumer Strasse,1,196461
1770,1964146,Pulitzstrasse,2,1964957
1771,1964146,Birkenstrasse,3,1964153
1772,1964146,Turmstrasse,4,19641271
1773,1964146,Hansaplatz,5,1964453
1774,1964146,Zoologischer Garten,6,19641450
1775,1964146,Kurfürstendamm,7,1964652
1776,1964146,Spichernstrasse,8,19641178
1777,1964147,Gesundbrunnen,0,1964378
1778,1964147,Wedding,1,19641368
1779,1964147,Putlitzstr.,2,1964958
1780,1964147,Beusselstr.,3,1964123
1781,1964147,Jungfernheide,4,1964569
1782,1964147,Westend,5,19641383
1783,1964147,Witzleben,6,19641422
1784,1964147,Westkreuz,7,19641384
1785,1964147,Halensee,8,1964445
1786,1964147,Hohenzollerndamm,9,1964519
1787,1964147,Schmargendorf,10,19641109
1788,1964147,Wilmersdorf,11,19641406
1789,1964147,Innsbrucker Platz,12,1964550
1790,1964147,Schöneberg,13,19641123
1791,1964147,Papestr.,14,1964900
1792,1964147,Tempelhof,15,19641245
1793,1964147,Hermannstr.,16,1964489
1794,1964147,Neukölln,17,1964833
1795,1964147,Sonnenallee,18,19641160
1796,1964148,Gesundbrunnen,0,1964378
1797,1964148,Wedding,1,19641368
1798,1964148,Putlitzstr.,2,1964958
1799,1964148,Beusselstr.,3,1964123
1800,1964148,Jungfernheide,4,1964569
1801,1964148,Siemensstadt-Fürstenbrunn,5,19641157
1802,1964148,Spandau,6,19641168
1803,1964148,Spandau West,7,19641169
1805,1964149,Heiligensee,0,1964474
1806,1964149,Schulzendorf (b Tegel),1,19641114
1807,1964149,Tegel,2,19641236
1808,1964149,Eichbornstr.,3,1964288
1809,1964149,Wittenau (Kremmener Bahn),4,19641418
1810,1964149,Reinickendorf,5,1964996
1811,1964149,Schönholz,6,19641137
1812,1964149,Wollankstr.,7,19641425
1813,1964149,Gesundbrunnen,8,1964378
1814,1964149,Humboldthain,9,1964535
1815,1964149,Friedrichstr.,10,1964356
1816,1964149,Anhalter Bahnhof,11,196468
1817,1964149,Yorckstr.,12,19641432
1818,1964149,Papestr.,13,1964900
1819,1964149,Priesterweg,14,1964949
1820,1964149,Mariendorf,15,1964770
1821,1964149,Marienfelde,16,1964778
1822,1964149,Buckower Ch.,17,1964200
1823,1964149,Lichtenrade,18,1964718
1824,1964150,Jungfernheide,0,1964569
1825,1964150,Wernerwerk,1,19641382
1826,1964150,Siemensstadt,2,19641156
1827,1964150,Gartenfeld,3,1964365
1828,1964151,Gesundbrunnen,0,1964378
1829,1964151,Humboldthain,1,1964535
1830,1964151,Friedrichstr.,2,1964356
1831,1964151,Anhalter Bahnhof,3,196468
1832,1964151,Yorckstr.,4,19641432
1833,1964151,Papestr.,5,1964900
1834,1964151,Priesterweg,6,1964949
1835,1964151,Südende,7,19641228
1836,1964151,Lankwitz,8,1964690
1837,1964151,Lichterfelde Ost,9,1964722
1838,1964151,Lichterfelde Süd,10,1964723
1839,1964152,Frohnau,0,1964358
1840,1964152,Hermsdorf,1,1964492
1841,1964152,Waidmannslust,2,19641343
1842,1964152,Wittenau (Nordbahn),3,19641419
1843,1964152,Wilhelmsruh,4,19641401
1844,1964152,Schönholz,5,19641137
1845,1964152,Wollankstr.,6,19641425
1846,1964152,Gesundbrunnen,7,1964378
1847,1964152,Humboldthain,8,1964535
1848,1964152,Friedrichstr.,9,1964356
1849,1964152,Anhalter Bahnhof,10,196468
1850,1964152,Großgörschenstr.,11,1964415
1851,1964152,Schöneberg,12,19641123
1852,1964152,Friedenau,13,1964346
1853,1964152,Feuerbachstr.,14,1964326
1854,1964152,Steglitz,15,19641194
1855,1964152,Botanischer Garten,16,1964178
1856,1964152,Lichterfelde West,17,1964724
1857,1964152,Sundgauer Str.,18,19641225
1858,1964152,Zehlendorf,19,19641437
1859,1964152,Lindenthaler Allee,20,1964732
1860,1964152,Schlachtensee,21,19641097
1861,1964152,Nikolassee,22,1964837
1862,1964152,Wannsee,23,19641357
1863,1964153,Zehlendorf,0,19641437
1864,1964153,Düppel-Kleinmachnow,1,1964278
1865,1964154,Friedrichstr.,0,1964356
1866,1964154,Lehrter Stadtbahnhof,1,1964695
1867,1964154,Bellevue,2,1964100
1868,1964154,Tiergarten,3,19641261
1869,1964154,Zoologischer Garten,4,19641449
1870,1964154,Savignyplatz,5,19641088
1871,1964154,Charlottenburg,6,1964229
1872,1964154,Westkreuz,7,19641384
1873,1964154,Eichkamp,8,1964293
1874,1964154,Heerstr.,9,1964468
1875,1964154,Olympiastadion,10,1964855
1876,1964154,Pichelsberg,11,1964917
1877,1964154,Spandau,12,19641168
1878,1964154,Spandau West,13,19641169
1879,1964155,Friedrichstr.,0,1964356
1880,1964155,Lehrter Stadtbahnhof,1,1964695
1881,1964155,Bellevue,2,1964100
1882,1964155,Tiergarten,3,19641261
1883,1964155,Zoologischer Garten,4,19641449
1884,1964155,Savignyplatz,5,19641088
1885,1964155,Charlottenburg,6,1964229
1886,1964155,Westkreuz,7,19641384
1887,1964155,Grunewald,8,1964416
1888,1964155,Nikolassee,9,1964837
1889,1964155,Wannsee,10,19641357
1890,1964156,Zoologischer Garten,0,19641449
1891,1964156,Savignyplatz,1,19641088
1892,1964156,Charlottenburg,2,1964229
1893,1964156,Halensee,3,1964445
1894,1964156,Hohenzollerndamm,4,1964519
1895,1964156,Schmargendorf,5,19641109
1896,1964156,Wilmersdorf,6,19641406
1897,1964156,Innsbrucker Platz,7,1964550
1898,1964156,Schöneberg,8,19641123
1899,1964156,Papestr.,9,1964900
1900,1964156,Tempelhof,10,19641245
1901,1964156,Hermannstr.,11,1964489
1902,1964156,Neukölln,12,1964833
1903,1964156,Köllnische Heide,13,1964668
1904,1964157,Friedrichstr.,0,1964356
1905,1964157,Marx-Engels-Platz,1,1964791
1906,1964157,Alexanderplatz,2,19649
1907,1964157,Jannowitzbrücke,3,1964557
1908,1964157,Ostbahnhof,4,1964877
1909,1964157,Warschauer Str.,5,19641360
1910,1964157,Ostkreuz,6,1964880
1911,1964157,Nöldnerplatz,7,1964845
1912,1964157,Lichtenberg,8,1964715
1913,1964157,Friedrichsfelde Ost,9,1964353
1914,1964157,Biesdorf,10,1964151
1915,1964157,Kaulsdorf,11,1964596
1916,1964157,Mahlsdorf,12,1964758
1917,1964157,Hoppegarten (Mark),13,1964531
1918,1964157,Neuenhagen (b Bln),14,1964832
1919,1964157,Fredersdorf (b Bln),15,1964342
1920,1964157,Giebelsee,16,1964380
1921,1964157,Strausberg,17,19641208
1922,1964158,Strausberg,0,19641208
1923,1964158,Strausberg Stadt,1,19641210
1924,1964158,Strausberg Nord,2,19641209
1925,1964159,Friedrichstr.,0,1964356
1926,1964159,Marx-Engels-Platz,1,1964791
1927,1964159,Alexanderplatz,2,19649
1928,1964159,Jannowitzbrücke,3,1964557
1929,1964159,Ostbahnhof,4,1964877
1930,1964159,Warschauer Str.,5,19641360
1931,1964159,Ostkreuz,6,1964880
1932,1964159,Rummelsburg,7,19641028
1933,1964159,Betriebsbahnhof Rummelsburg,8,1964121
1934,1964159,Karlshorst,9,1964588
1935,1964159,Wuhlheide,10,19641430
1936,1964159,Köpenick,11,1964679
1937,1964159,Hirschgarten,12,1964503
1938,1964159,Friedrichshagen,13,1964354
1939,1964159,Rahnsdorf,14,1964967
1940,1964159,Wilhelmshagen,15,19641400
1941,1964159,Erkner,16,1964306
1942,1964160,Falkensee,0,1964319
1943,1964160,Albrechtshof,1,19648
1944,1964161,Friedrichstr.,0,1964356
1945,1964161,Marx-Engels-Platz,1,1964791
1946,1964161,Alexanderplatz,2,19649
1947,1964161,Jannowitzbrücke,3,1964557
1948,1964161,Ostbahnhof,4,1964877
1949,1964161,Warschauer Str.,5,19641360
1950,1964161,Ostkreuz,6,1964880
1951,1964161,Treptower Park,7,19641266
1952,1964161,Plänterwald,8,1964924
1953,1964161,Baumschulenweg,9,196493
1954,1964161,Schöneweide,10,19641132
1955,1964161,Betriebsbahnhof Schöneweide,11,1964122
1956,1964161,Adlershof,12,19643
1957,1964161,Grünau,13,1964421
1958,1964161,Eichwalde,14,1964295
1959,1964161,Zeuthen,15,19641444
1960,1964161,Wildau,16,19641395
1961,1964161,Königs Wusterhausen,17,1964673
1962,1964162,Friedrichstr.,0,1964356
1963,1964162,Marx-Engels-Platz,1,1964791
1964,1964162,Alexanderplatz,2,19649
1965,1964162,Jannowitzbrücke,3,1964557
1966,1964162,Ostbahnhof,4,1964877
1967,1964162,Warschauer Str.,5,19641360
1968,1964162,Ostkreuz,6,1964880
1969,1964162,Treptower Park,7,19641266
1970,1964162,Plänterwald,8,1964924
1971,1964162,Baumschulenweg,9,196493
1972,1964162,Schöneweide,10,19641132
1973,1964162,Betriebsbahnhof Schöneweide,11,1964122
1974,1964162,Adlershof,12,19643
1978,1964163,Oranienburg,0,1964860
1979,1964163,Lehnitz,1,1964694
1980,1964163,Borgsdorf,2,1964172
1981,1964163,Birkenwerder,3,1964154
1982,1964163,Hohen Neuendorf (b Bln),4,1964511
1983,1964163,Bergfelde (b Bln),5,1964104
1984,1964163,Schönfließ,6,19641133
1985,1964163,Blankenburg,7,1964159
1986,1964163,Pankow-Heinersdorf,8,1964894
1987,1964163,Pankow,9,1964889
1988,1964163,Schönhauser Allee,10,19641134
1989,1964163,Prenzlauer Allee,11,1964937
1990,1964163,Greifswalder Str.,12,1964400
1991,1964163,Leninallee,13,1964701
1992,1964163,Zentralviehhof,14,19641442
1993,1964163,Frankfurter Allee,15,1964336
1994,1964163,Ostkreuz,16,1964880
1995,1964163,Warschauer Str.,17,19641360
1996,1964163,Ostbahnhof,18,1964877
1997,1964163,Jannowitzbrücke,19,1964557
1998,1964163,Alexanderplatz,20,19649
1999,1964164,Hennigsdorf (b Bln),0,1964483
2000,1964164,Hennigsdorf Nord,1,1964484
2001,1964164,Hohenschöpping,2,1964517
2002,1964164,Velten (Mark),3,19641335
2003,1964165,Bernau (b Bln),0,1964116
2004,1964165,Zepernick (b Bernau),1,19641443
2005,1964165,Röntgental,2,19641032
2006,1964165,Buch,3,1964197
2007,1964165,Karow,4,1964592
2008,1964165,Blankenburg,5,1964159
2009,1964165,Pankow-Heinersdorf,6,1964894
2010,1964165,Pankow,7,1964889
2011,1964165,Schönhauser Allee,8,19641134
2012,1964165,Prenzlauer Allee,9,1964937
2013,1964165,Greifswalder Str.,10,1964400
2014,1964165,Leninallee,11,1964701
2015,1964165,Zentralviehhof,12,19641442
2016,1964165,Frankfurter Allee,13,1964336
2017,1964165,Ostkreuz,14,1964880
2018,1964165,Treptower Park,15,19641266
2019,1964165,Plänterwald,16,1964924
2020,1964165,Baumschulenweg,17,196493
2021,1964165,Schöneweide,18,19641132
2022,1964165,Oberspree,19,1964849
2023,1964165,Spindlersfeld,20,19641180
2024,1964166,Schönhauser Allee,0,19641134
2025,1964166,Prenzlauer Allee,1,1964937
2026,1964166,Greifswalder Str.,2,1964400
2027,1964166,Leninallee,3,1964701
2028,1964166,Zentralviehhof,4,19641442
2029,1964166,Frankfurter Allee,5,1964336
2030,1964166,Ostkreuz,6,1964880
2031,1964166,Treptower Park,7,19641266
2032,1964166,Plänterwald,8,1964924
2033,1964166,Baumschulenweg,9,196493
2034,1964166,Schöneweide,10,19641132
2035,1964166,Betriebsbahnhof Schöneweide,11,1964122
2036,1964166,Adlershof,12,19643
2040,1964167,Kosterstrasse,0,1964630
2041,1964167,Andreasstrasse,1,196466
2042,1964167,Küstriner Platz,2,1964686
2043,1964167,Warschauer Strasse,3,19641361
2044,1964167,Boxhagenerstrasse Ecke Holteistrasse,4,1964179
2045,1964167,S-Bhf. Rummelsburg,5,19641071
2046,1964167,Weitlingstrasse,6,19641372
2047,1964167,Bhf. Lichtenberg,7,1964132
2048,1964167,Obus-Bf. Siegfriedstrasse,8,1964851
2049,1964167,Roederplatz,9,19641017
2050,1964167,Proskauer Ecke Dolziger Strasse,10,1964955
2051,1964167,Ebertystrasse Ecke Leninallee,11,1964281
2052,1964167,Greifswalderstrasse Ecke Dimitroffstrasse,12,1964403
2053,1964167,Königstor,13,1964675
2054,1964167,"Alexanderplatz, Neue Königstrasse",14,196416
2055,1964167,Klosterstrasse,15,1964618
2056,1964168,Marzahner Chaussee,0,1964793
2057,1964168,"Alt-Marzahn, Kirche",1,196431
2058,1964168,Elisabethstrasse,2,1964296
2059,1964168,S-Bhf. Biesdorf,3,19641045
2060,1964168,"Alt-Biesdorf, Oberfeldstrasse",4,196419
2061,1964168,"Alt-Friedrichsfelde, Am Tierpark",5,196423
2062,1964168,Bhf. Lichtenberg,6,1964132
2063,1964169,Ostbahnhof,0,1964876
2064,1964169,Küstriner Platz,1,1964686
2065,1964169,Stalinallee,2,19641191
2066,1964169,Leninplatz,3,1964703
2067,1964169,Königstor,4,1964675
2068,1964169,Prenzlauer Tor,5,1964945
2069,1964169,Rosenthaler Platz,6,19641023
2070,1964169,Oranienburger Tor,7,1964863
2071,1964169,Robert-Koch-Platz,8,19641016
2094,1964172,"Heinersdorf, Romain-Rolland-Str.",0,1964479
2095,1964172,"Heinersdorf, Kirche",1,1964478
2096,1964172,Am Steinberg,2,196457
2097,1964172,Prenzlauer Allee Ecke Wisbyer Strasse,3,1964939
2098,1964172,S-Bhf. Prenzlauer Allee,4,19641068
2099,1964172,Dimitroffstrasse,5,1964262
2102,1964172,SaarBrücker Strasse,6,19641079
2103,1964172,Prenzlauer Tor,7,1964946
2104,1964172,"Alexanderplatz, Grunerstrasse",8,196412
2105,1964172,"Jüdenstrasse, Molkenmarkt",9,1964572
2106,1964173,"Bohnsdorf, Waldstrasse",0,1964169
2107,1964173,Eichbuschplatz,1,1964290
2108,1964173,Joachimstrasse,2,1964563
2109,1964173,S-Bhf. Grünau,3,19641050
2110,1964174,Pankow (Vinetastr.),0,1964890
2111,1964174,Schönhauser Allee,1,19641136
2112,1964174,Dimitroffstr.,2,1964260
2113,1964174,Senefelderplatz,3,19641153
2114,1964174,Luxemburgplatz,4,1964743
2115,1964174,Alexanderplatz,5,196410
2116,1964174,Klosterstr.,6,1964617
2117,1964174,Märkisches Museum,7,1964815
2118,1964174,Spittelmarkt,8,19641182
2119,1964174,Hausvogteiplatz,9,1964464
2120,1964174,Stadtmitte,10,19641188
2121,1964174,Thälmannplatz,11,19641260
2122,1964175,Alexanderplatz,0,196410
2123,1964175,Schillingstr.,1,19641095
2124,1964175,Strausberger Platz,2,19641211
2125,1964175,Marchlewskistr.,3,1964768
2126,1964175,Frankfurter Tor,4,1964338
2127,1964175,Samariterstr.,5,19641086
2128,1964175,Stalinallee (Ringbahn),6,19641192
2129,1964175,Magdalenenstr.,7,1964755
2130,1964175,Bahnhof Lichtenberg (Zentralfriedhof),8,196486
2131,1964175,Friedrichsfelde (Tierpark),9,1964352
2132,1964176,Kladow,0,1964607
2133,1964176,Wannsee,1,19641356
