,stop_id,stop_name,type,in_lines
0,1,4. Ring,bus,{'A53x'}
1,2,Adamstrasse,bus,"{'A35s', 'A34s'}"
2,3,Adlershof,s-bahn,{'KBS 100a'}
3,4,Adolf-Scheidt-Platz,strassenbahn,{'96x'}
4,5,Afrikanische Str.,u-bahn,{'C I'}
5,6,Afrikanische Strasse,bus,{'A16'}
6,7,Albertstrasse,strassenbahn,"{'73s', '74s'}"
7,8,Alboinstrasse Ecke Arnulfstrasse,bus,{'A68x'}
8,9,Alt-Buckow Ecke Buckower Damm,strassenbahn,{'27x'}
9,10,Alt-Heiligensee,bus,"{'A14', 'A13'}"
10,11,Alt-Kladow,bus,"{'A35s', 'A34s'}"
11,12,Alt-Mariendorf,bus,{'AS2s'}
12,13,Alt-Mariendorf Ecke Tempelhofer Damm,bus,{'A76x'}
13,14,Alt-Marienfelde,bus,{'A52s'}
14,15,Alt-Moabit,bus,{'A24x'}
15,16,Alt-Moabit Ecke Rathenower Strasse,strassenbahn,{'2x'}
16,17,Alt-Reinickendorf Ecke Rödern Allee,bus,{'A72x'}
17,18,Alt-Tempelhof Ecke Tempelhofer Damm,bus,"{'A76x', 'A65x', 'A73x', 'A77x', 'A68x'}"
18,19,Alt-Wittenau,bus,"{'A15', 'A62x', 'A21'}"
19,20,Am Beelitzhof,bus,{'A3'}
20,21,Am Dachsbau,bus,{'A13'}
21,22,Am Fließ,bus,{'A15'}
22,23,Am Grossen Wannsee,bus,"{'A18', 'A51s', 'A6s'}"
23,24,Am Großen Wannsee Ecke Königstrasse,bus,{'A3'}
24,25,Am Karlsbad,bus,{'A75x'}
25,26,Am Nordhafen,bus,{'A70x'}
26,27,Am Oberhafen,bus,{'A67s'}
27,28,Am Vierrutenbert,bus,{'A20'}
28,29,Am Volkspark,bus,{'A60s'}
29,30,Amtsgerichsplatz,bus,{'A10'}
30,31,Amtsgericht,strassenbahn,"{'76x', '75s'}"
31,32,Amtsgericht Charlottenburg,bus,{'A21'}
32,33,Andreezeile,bus,{'A66x'}
33,34,Anhalter Bahnhof,s-bahn,"{'KBS 104', 'KBS 106', 'KBS 105'}"
34,35,Apoldaer Strasse Ecke Sonderhauser Strasse,bus,{'A11'}
35,36,Arnimallee,bus,{'A68x'}
36,37,Aroser Allee,bus,"{'A61s', 'A14'}"
37,38,Askanierring,bus,"{'A63x', 'A35s', 'A34s'}"
38,39,Askanischer Platz,bus,"{'A75x', 'A24x', 'A29s'}"
39,40,Attilaplatz,bus,"{'A68x', 'A25x', 'AS2s'}"
40,41,Attilaplatz,strassenbahn,{'96x'}
41,42,Augsburger Str.,u-bahn,"{'A II', 'B II'}"
42,43,Auguste-Viktoria-Allee,bus,{'A62x'}
43,44,Augustenburger Platz,bus,{'A64x'}
44,45,BSC-Sportplatz,bus,{'A29s'}
45,46,Badstrasse,bus,{'A70x'}
46,47,Badstrasse/Prinzenallee,bus,{'A71s'}
47,48,Baerwaldstrasse Ecke Urbanstrasse,strassenbahn,{'95x'}
48,49,Bahnhof Friedrichstr. (Stadtbahn),u-bahn,{'C I'}
49,50,Bahnhof Wedding,u-bahn,{'C I'}
50,51,Bahnhofstrasse,strassenbahn,{'47x'}
51,52,Baumschulenweg,s-bahn,{'KBS 100a'}
52,53,Bayerischer Platz,u-bahn,{'B III'}
53,54,Beeskowdamm,bus,{'A1s'}
54,55,Behring-Krankenhaus,bus,{'A10'}
55,56,Bellevue,s-bahn,"{'KBS 101', 'KBS 102'}"
56,57,Belziger Strasse,strassenbahn,{'66x'}
57,58,Benschallee,bus,{'A18'}
58,59,Benschallee Ecke Potsdamer Chaussee,bus,{'A3'}
59,60,Bergstrasse,bus,{'A68x'}
60,61,Bergstrasse,strassenbahn,{'66x'}
61,62,Bergstrasse Ecke Bismarckstrasse,bus,"{'A75x', 'A2', 'A68x'}"
62,63,Berkaer Strasse,bus,{'A29s'}
63,64,"Berkaer Strasse, Elsterplatz",bus,{'AS3s'}
64,65,Berliner Strasse,bus,"{'A60s', 'AS2s'}"
65,66,Berliner Strasse Ecke Bundesallee,bus,"{'A2', 'A25x'}"
66,67,Berliner Strasse Ecke Bundesallee,strassenbahn,{'3x'}
67,68,Berlinickeplatz,bus,{'A73x'}
68,69,Berlinickeplatz,strassenbahn,{'96x'}
69,70,Bernauer Strasse,bus,"{'A61s', 'A13'}"
70,71,Bernauer Strasse Ecke Wolliner Strasse,bus,"{'A64x', 'A71s'}"
71,72,Bernauer Strasse Ecke Wolliner Strasse,strassenbahn,{'2x'}
72,73,Bernauer Strasse/Brunnenstrasse,bus,{'A71s'}
73,74,Betriebsbahnhof Schöneweide,s-bahn,{'KBS 100a'}
74,75,Beusselstr.,s-bahn,{'KBS 100'}
75,76,Bezirksamt,bus,{'A63x'}
76,77,Bhf. Beusselstrasse,strassenbahn,{'3x'}
77,78,Bhf. Botanischer Garten,strassenbahn,"{'77s', '78s'}"
78,79,Bhf. Buckower Chaussee,bus,{'A52s'}
79,80,Bhf. Eichbornstrasse,bus,"{'A15', 'A21'}"
80,81,Bhf. Frohnau,bus,"{'A15', 'A12'}"
81,82,Bhf. Gesundbrunnen,bus,"{'A61s', 'A71s'}"
82,83,Bhf. Grunewald,bus,{'A17'}
83,84,Bhf. Halensee,bus,"{'A10', 'A29s', 'A4x', 'A19', 'A69x'}"
84,85,Bhf. Heerstrasse,strassenbahn,"{'76x', '75s'}"
85,86,Bhf. Heiligensee,bus,{'A14'}
86,87,Bhf. Hermannstrasse,strassenbahn,{'27x'}
87,88,Bhf. Hermsdorf,bus,{'A15'}
88,89,Bhf. Hohenzollerndamm,bus,"{'A65x', 'A50s', 'AS3s', 'A21'}"
89,90,Bhf. Jungfernheide,bus,"{'A62x', 'A65x', 'A21'}"
90,91,Bhf. Jungfernheide,strassenbahn,{'55x'}
91,92,Bhf. Lichtenrade,bus,"{'A76x', 'AS2s'}"
92,93,Bhf. Lichterfelde-Ost,bus,{'A11'}
93,94,Bhf. Lichterfelde-Ost,strassenbahn,"{'96x', '73s'}"
94,95,Bhf. Lichterfelde-West,bus,{'A11'}
95,96,Bhf. Lichterfelde-West,strassenbahn,"{'77s', '78s'}"
96,97,Bhf. Lindenthaler Allee,bus,"{'A53x', 'A3'}"
97,98,Bhf. Mariendorf,bus,{'A33s'}
98,99,Bhf. Mariendorf,strassenbahn,{'96x'}
99,100,Bhf. Marienfelde,bus,"{'A77x', 'A32s'}"
100,101,Bhf. Marienfelde,strassenbahn,{'15x'}
101,102,Bhf. Neukölln,bus,{'A65x'}
102,103,Bhf. Nikolassee,bus,{'A3'}
103,104,Bhf. Papestrasse,bus,"{'A74x', 'A73x'}"
104,105,Bhf. Papestrasse,strassenbahn,{'60x'}
105,106,Bhf. PutlitzStrasse,bus,{'A16'}
106,107,Bhf. Schulzendorf,bus,{'A14'}
107,108,Bhf. Schöneberg,bus,"{'A65x', 'A73x'}"
108,109,Bhf. Sonnenallee,bus,"{'A65x', 'A67s'}"
109,110,Bhf. Sonnenallee,strassenbahn,"{'15x', '95x'}"
110,111,Bhf. Spandau,strassenbahn,"{'53x', '54x'}"
111,112,Bhf. Spandau-West,bus,"{'A5s', 'A63x'}"
112,113,Bhf. Steglitz,bus,{'A33s'}
113,114,Bhf. Südende,bus,{'A33s'}
114,115,Bhf. Teltowkanal,strassenbahn,{'26x'}
115,116,Bhf. Tempelhof,bus,{'A68x'}
116,117,Bhf. Waidmannslust,bus,{'A20'}
117,118,Bhf. Wannsee,bus,"{'A6s', 'A51s', 'A3'}"
118,119,Bhf. Wedding,bus,{'A70x'}
119,120,Bhf. Westend,bus,{'A65x'}
120,121,Bhf. Wilhelmsruh,bus,{'A71s'}
121,122,Bhf. Wittenau,bus,{'A15'}
122,123,Bhf. Wollankstrasse,bus,{'A70x'}
123,124,Bhf. Yorckstrasse,bus,{'A19'}
124,125,Bhf. Zehlendorf,bus,"{'A53x', 'A1s'}"
125,126,Bhf. Zoo,bus,"{'A73x', 'A25x', 'AS2s', 'A62x', 'AS1s', 'AS3s', 'A2'}"
126,127,Bhf. Zoo,strassenbahn,"{'55x', '2x', '77s', '78s'}"
127,128,"Bhf. Zoo, Kantstrasse",strassenbahn,"{'76x', '75s'}"
128,129,Bismarckplatz,bus,{'A29s'}
129,130,Bismarckstrasse,bus,{'A33s'}
130,131,Bleibtreustrasse Ecke Kurfürstendamm,bus,{'A69x'}
131,132,Blohmstrasse Ecke Wünsdorfer Strasse,bus,{'A76x'}
132,133,Boddinstr.,u-bahn,{'D'}
133,134,Bonhoeffer-Heim,bus,{'A62x'}
134,135,Borsigwalder Weg,bus,{'A15'}
135,136,Borsigwerke,u-bahn,{'C I'}
136,137,Bosestrasse,bus,{'A74x'}
137,138,Botanischer Garten,bus,"{'A1s', 'A68x'}"
138,139,Botanischer Garten,s-bahn,{'KBS 104'}
139,140,Brabanter Platz,bus,{'A60s'}
140,141,Breite Strasse,bus,"{'A5s', 'A31s', 'A33s', 'A68x'}"
141,142,Breitenbachplatz,bus,"{'A16', 'A1s', 'A32s'}"
142,143,Breitenbachplatz,u-bahn,"{'A II', 'B II'}"
143,144,Breitscheidplatz,bus,"{'A29s', 'A19', 'A60s'}"
144,145,Bristolstrasse,bus,{'A12'}
145,146,Britzer Damm Ecke Gradestrasse,bus,{'A73x'}
146,147,Britzer Damm Ecke Gradestrasse,strassenbahn,{'27x'}
147,148,Brixplatz,bus,{'A4x'}
148,149,Brunsb tteler Damm,bus,{'A31s'}
149,150,Buckower Ch.,s-bahn,{'KBS 105'}
150,151,Buckower Chaussee,bus,{'AS2s'}
151,152,Buckower Chaussee Ecke Lichtenrader Damm,bus,{'A76x'}
152,153,Buckower Damm,bus,{'A52s'}
153,154,Buckower Friedhof,bus,{'A52s'}
154,155,Bundesallee,bus,"{'A48s', 'A74x', 'A17'}"
155,156,Bundesallee,strassenbahn,"{'60x', '77s', '74s', '78s'}"
156,157,Bundesallee Ecke Badensche Strasse,bus,{'A4x'}
157,158,Bundesallee Ecke Rheinstrasse,strassenbahn,{'73s'}
158,159,Bundesplatz,bus,"{'A65x', 'A16', 'A25x', 'AS2s', 'A2'}"
159,160,Bundesplatz,strassenbahn,"{'77s', '78s'}"
160,161,Burgemeister Strasse Ecke Tempelhofer Damm,bus,"{'A76x', 'A77x'}"
161,162,Buschkrug,strassenbahn,{'47x'}
162,163,Buschkrug Alle Ecke Blaschko-Allee,bus,{'A73x'}
163,164,Bötzowbahn,bus,{'A63x'}
164,165,Bühler Weg,bus,{'A52s'}
165,166,Bülowstr.,u-bahn,{'A I'}
166,167,Canovastrasse,bus,{'AS2s'}
167,168,Canovastrasse (Krankenhaus),strassenbahn,{'66x'}
168,169,Carl-Schurz-Strasse Ecke Am Juliusturm,bus,{'A13'}
169,170,Cauerstrasse,bus,{'AS1s'}
170,171,Cauerstrasse,strassenbahn,{'55x'}
171,172,Ceciliengärten,strassenbahn,{'66x'}
172,173,Charlottenburg,s-bahn,"{'KBS 101', 'KBS 102'}"
173,174,Clayallee,bus,{'A1s'}
174,175,Clayallee Ecke Berliner Strasse,bus,{'A66x'}
175,176,Clayallee Ecke Königin-Luise-Strasse,bus,{'A68x'}
176,177,Clayallee/Teltower Damm,bus,{'AS3s'}
177,178,Colomierstrasse,bus,{'A51s'}
178,179,Columbiadamm,bus,{'A24x'}
179,180,Corrensplatz,bus,{'A11'}
180,181,Cunostrasse,bus,{'A50s'}
181,182,Cyclopstrasse,bus,{'A12'}
182,183,Dachdeckerweg Ecke Buckower Damm,strassenbahn,{'27x'}
183,184,Dahlem-Dorf,u-bahn,"{'A II', 'B II'}"
184,185,Dahlemer Weg,bus,"{'A10', 'A48s', 'A53x'}"
185,186,Daimlerstrasse,bus,{'A77x'}
186,187,Daimlerstrasse,strassenbahn,{'15x'}
187,188,Dammweg,bus,{'A67s'}
188,189,Dammweg,strassenbahn,{'15x'}
189,190,Dammweg Ecke Sonnenallee,strassenbahn,{'95x'}
190,191,Daumstrasse,bus,{'A13'}
191,192,Demminer Strasse Ecke Brunnenstrasse,bus,{'A64x'}
192,193,Detmolder Strasse,bus,{'A1s'}
193,194,Deutsche Oper (Bismarckstr.),u-bahn,"{'A I', 'A III', 'B I'}"
194,195,Dominicusstrasse,bus,"{'A4x', 'A48s'}"
195,196,Dominicusstrasse,strassenbahn,"{'73s', '74s'}"
196,197,Dominikus-Krankenhaus,bus,{'A15'}
197,198,Donnersmarckplatz,bus,"{'A15', 'A12'}"
198,199,"Doppel-Süd, Berlepschstrasse",bus,{'A66x'}
199,200,Drakestrasse,bus,{'A48s'}
200,201,Dudenstrasse,bus,{'A28s'}
201,202,Dyotzer Strasse,bus,{'A63x'}
202,203,Düppel-Kleinmachnow,s-bahn,{'KBS 104a'}
203,204,Efeuweg,bus,{'A52s'}
204,205,Egelpfuhlstrasse,bus,{'A31s'}
205,206,Eichbornstr.,s-bahn,{'KBS 105'}
206,207,Eichkamp,bus,{'A69x'}
207,208,Eichkamp,s-bahn,{'KBS 101'}
208,209,EinemStrasse,bus,{'A16'}
209,210,Elsenstraße Ecke Heidelberger Strasse,strassenbahn,{'3x'}
210,211,Elsterplatz,bus,"{'A10', 'A50s'}"
211,212,Emmentaler Strasse,bus,"{'A12', 'A71s'}"
212,213,Emser Platz,bus,{'A50s'}
213,214,Endestrasse,bus,{'A6s'}
214,215,Englerallee,bus,{'A16'}
215,216,Erdener Strasse,bus,{'A19'}
216,217,Erkstrasse,bus,{'A67s'}
217,218,Erkstrasse Ecke Sonnenallee,bus,{'A4x'}
218,219,Erkstrasse Ecke Sonnenallee,strassenbahn,{'95x'}
219,220,Ernst-Reuter-Platz,bus,{'A2'}
220,221,Ernst-Reuter-Platz,strassenbahn,{'2x'}
221,222,Ernst-Reuter-Platz,u-bahn,"{'A I', 'B I'}"
222,223,"Ernst-Reuter-Platz, Straße des 17. Juni",bus,{'A2'}
223,224,Exerzierstrasse,bus,{'A61s'}
224,225,Eythstrasse,bus,{'A74x'}
225,226,Eythstrasse,strassenbahn,{'60x'}
226,227,Falkenplatz,bus,{'A20'}
227,228,Falkenseer Chaussee,bus,{'A5s'}
228,229,Fehrbelliner Platz,bus,"{'A50s', 'A74x'}"
229,230,Fehrbelliner Platz,strassenbahn,"{'3x', '60x'}"
230,231,Fehrbelliner Platz,u-bahn,"{'A II', 'B II'}"
231,232,Feuerbachstr.,s-bahn,{'KBS 104'}
232,233,Finckensteinallee,strassenbahn,{'74s'}
233,234,Flinsberger Platz,bus,{'A50s'}
234,235,Flughafen,bus,"{'A19', 'A24x'}"
235,236,Flughafen,u-bahn,{'C II'}
236,237,Flughafen Tempelhof,bus,"{'A76x', 'A77x'}"
237,238,Forckenbeckstrasse,bus,{'A50s'}
238,239,Franz-Körner-Strasse Ecke Britzer Damm,strassenbahn,{'27x'}
239,240,Frauenklinik,strassenbahn,{'15x'}
240,241,Freie Scholle,bus,{'A20'}
241,242,Friedenau,s-bahn,{'KBS 104'}
242,243,Friedenstrasse,bus,{'A6s'}
243,244,Friedhof Rudow,bus,{'A52s'}
244,245,Friedhof Ruhleben,bus,"{'A5s', 'A31s'}"
245,246,Friedrich-Wilhelm-Platz,bus,{'A2'}
246,247,Friedrich-Wilhelm-Platz,strassenbahn,"{'77s', '78s'}"
247,248,Friedriche-Wilhelm-Platz,bus,{'A17'}
248,249,Friedrichstr.,s-bahn,"{'KBS 106', 'KBS 101', 'KBS 104', 'KBS 105', 'KBS 102'}"
249,250,Friesenstrasse,bus,{'A4x'}
250,251,Frohnau,s-bahn,{'KBS 106'}
251,252,Fuldastrasse,bus,{'A67s'}
252,253,Fürstenbrunner Weg,bus,{'AS1s'}
253,254,Gabelung,bus,{'A13'}
254,255,Gartenfeld,s-bahn,{'KBS 100c'}
255,256,"Gartenplatz, Feldstrasse",bus,{'A61s'}
256,257,Gartenstrasse Ecke Bernauer Strasse,bus,{'A12'}
257,258,"Gatow, Kirche",bus,"{'A35s', 'A34s'}"
258,259,Gatower Strasse,bus,{'A35s'}
259,260,Germaniapromenade Ecke Britzer Damm,strassenbahn,{'27x'}
260,261,Germaniastrasse,strassenbahn,"{'15x', '26x'}"
261,262,Germersheimer Platz,bus,{'A35s'}
262,263,Gesundbrunnen,s-bahn,"{'KBS 104', 'KBS 106', 'KBS 105', 'KBS 100'}"
263,264,Gesundbrunnen,u-bahn,{'D'}
264,265,Giesendorferstrasse Ecke Ostpreußendamm,strassenbahn,{'96x'}
265,266,Gleisdreieck,u-bahn,"{'A I', 'A II', 'B I', 'B II'}"
266,267,Glienicker Brücke,bus,{'A6s'}
267,268,Glogauer Strasse,strassenbahn,{'26x'}
268,269,Gneisenaustr.,u-bahn,{'C I'}
269,270,Gneisenaustrasse,bus,{'A24x'}
270,271,Goebelplatz,bus,{'A65x'}
271,272,Goeben-/Pallasstrasse,bus,{'A48s'}
272,273,Goerzallee,strassenbahn,"{'77s', '78s'}"
273,274,Goethestrasse Ecke Lichtenrader Damm,bus,{'A76x'}
274,275,Goltzstrasse,bus,{'AS2s'}
275,276,Gorkistrasse,bus,{'A15'}
276,277,GotenStrasse,strassenbahn,{'2x'}
277,278,Gottlieb-Dunkel-Strasse Ecke Tempelhofer Weg,bus,"{'A73x', 'A25x'}"
278,279,GotzkowskyStrasse,bus,{'A24x'}
279,280,Gotzkowskybrücke,bus,{'A25x'}
280,281,Gotzkowskybrücke,strassenbahn,{'2x'}
281,282,Gotzkowskystrasse Ecke Turmstrasse,strassenbahn,{'3x'}
282,283,Grazer Platz,bus,{'A25x'}
283,284,Grenadierstrasse,bus,"{'A5s', 'A31s'}"
284,285,Grenzallee,u-bahn,{'C I'}
285,286,Grenzstrasse,bus,{'A12'}
286,287,GritznerStrasse,bus,{'A32s'}
287,288,Großer Stern,bus,{'A69x'}
288,289,Großglienicker Weg,bus,"{'A35s', 'A34s'}"
289,290,Großgörschenstr.,s-bahn,{'KBS 104'}
290,291,Grunewald,s-bahn,{'KBS 102'}
291,292,Grunewaldstrasse,bus,{'A73x'}
292,293,Grunewaldstrasse,strassenbahn,"{'77s', '78s'}"
293,294,Grunewaldstrasse Ecke Martin-Luther-Strasse,strassenbahn,"{'3x', '2x'}"
294,295,Grünau,s-bahn,{'KBS 100a'}
295,296,Grüner Weg,bus,"{'A52s', 'A25x'}"
296,297,Grüntaler Straße Ecke Osloer Strasse,strassenbahn,{'3x'}
297,298,Gutschmidtstrasse,bus,{'A25x'}
298,299,Gutschmidtstrasse Ecke Buckower Damm,strassenbahn,{'27x'}
299,300,Gutshof,bus,{'A34s'}
300,301,Gutshof Marienfelde,bus,{'A52s'}
301,302,Görlitzer Bahnhof (Oranienstr.),u-bahn,"{'B I', 'B II'}"
302,303,Güntzelstrasse,bus,{'A60s'}
303,304,Hackbuschstrasse,bus,{'A31s'}
304,305,Hafenplatz,bus,"{'AS1s', 'A34s', 'A24x'}"
305,306,Hafenplatz,strassenbahn,"{'54x', '53x', '76x', '75s'}"
306,307,Hagenplatz,bus,"{'A17', 'A19'}"
307,308,Hainbuchenstrasse,bus,{'A12'}
308,309,Hakenfelde,strassenbahn,"{'53x', '75s'}"
309,310,Halensee,s-bahn,{'KBS 100'}
310,311,Hallesches Tor,u-bahn,"{'C I', 'A II', 'B I', 'B II'}"
311,312,Halskestrasse,bus,{'A33s'}
312,313,"Hamburger Strasse, Rudolf-Mosse-Platz",bus,{'A60s'}
313,314,Hansaplatz,bus,"{'A16', 'A25x'}"
314,315,HardenbergStrasse,bus,"{'AS3s', 'AS2s'}"
315,316,Hartmannsweiler Weg,bus,{'A53x'}
316,317,Harzer Strasse,bus,{'A4x'}
317,318,"Haselhorst, Kirche",bus,{'A10'}
318,319,Hatzfeldallee,bus,{'A20'}
319,320,Hauptkinderheim,bus,{'A5s'}
320,321,Hauptstrasse (Schöneberg),bus,{'A74x'}
321,322,Hauptstrasse (Schöneberg),strassenbahn,"{'66x', '60x'}"
322,323,Hauptstrasse Ecke Dominicusstrasse,bus,"{'A75x', 'A73x'}"
323,324,Hauptstrasse Ecke Dominicusstrasse,strassenbahn,{'2x'}
324,325,Havensteinstrasse Ecke Gallwitzallee,bus,{'A2'}
325,326,Heckerdamm,bus,"{'A62x', 'A21'}"
326,327,Heckmannufer,bus,{'A28s'}
327,328,Heerstr.,s-bahn,{'KBS 101'}
328,329,Heerstrasse,bus,"{'A35s', 'A34s', 'A13'}"
329,330,Heidebergplan,bus,{'A31s'}
330,331,Heidelberger Platz,u-bahn,"{'A II', 'B II'}"
331,332,Heiligensee,s-bahn,{'KBS 105'}
332,333,Heiligenseestrasse,bus,"{'A14', 'A20'}"
333,334,Hermannplatz,bus,{'A67s'}
334,335,Hermannplatz,strassenbahn,"{'27x', '26x', '3x', '95x', '47x'}"
335,336,Hermannplatz,u-bahn,"{'C I', 'D'}"
336,337,Hermannstr.,s-bahn,"{'KBS 100a', 'KBS 100'}"
337,338,Hermannstrasse,strassenbahn,"{'15x', '26x'}"
338,339,Hermannstrasse Ecke Silbersteinstrasse,bus,{'A65x'}
339,340,Hermsdorf,s-bahn,{'KBS 106'}
340,341,Hermsdorfer Damm,bus,"{'A15', 'A12'}"
341,342,Hertzbergplatz,bus,{'A67s'}
342,343,Hertzbergplatz,strassenbahn,{'95x'}
343,344,Hildburghauser Strasse,bus,{'A11'}
344,345,Hindenburgdamm,bus,{'A48s'}
345,346,Hindenburgdamm,strassenbahn,"{'77s', '78s'}"
346,347,Hochgerichtstrasse,bus,"{'A5s', 'A63x'}"
347,348,Hochmeisterplatz,bus,{'A4x'}
348,349,Hohenstaufenplatz,bus,{'A67s'}
349,350,Hohenzollerndamm,bus,{'A50s'}
350,351,Hohenzollerndamm,s-bahn,{'KBS 100'}
351,352,Hohenzollernplatz,u-bahn,"{'A II', 'B II'}"
352,353,Hohenzollernring,bus,{'AS1s'}
353,354,Hohenzollernring,strassenbahn,"{'54x', '53x', '76x', '75s'}"
354,355,Holzhauser Str.,u-bahn,{'C I'}
355,356,Holzhauser Strasse,bus,"{'A14', 'A12', 'A15'}"
356,357,Hottengrund,bus,{'A35s'}
357,358,Humboldthain,s-bahn,"{'KBS 104', 'KBS 106', 'KBS 105'}"
358,359,Humboldtstrasse,bus,{'A61s'}
359,360,Hundekehlestrasse,bus,{'A10'}
360,361,Händelplatz,strassenbahn,"{'77s', '73s', '74s', '78s'}"
361,362,Ihnestrasse,bus,{'A11'}
362,363,Imbrosweg,strassenbahn,{'15x'}
363,364,Industriestrasse,strassenbahn,"{'15x', '26x'}"
364,365,Innsbrucker Platz,bus,"{'A48s', 'A75x', 'A65x', 'A4x', 'A16'}"
365,366,Innsbrucker Platz,s-bahn,"{'KBS 100a', 'KBS 100'}"
366,367,Innsbrucker Platz,strassenbahn,"{'66x', '73s', '74s'}"
367,368,Innsbrucker Platz (Hauptstr.),u-bahn,{'B III'}
368,369,Jakob-Kaiser-Platz,bus,{'A72x'}
369,370,Jakob-Kaiser-Platz,strassenbahn,{'55x'}
370,371,"Jerusalems-Kirche, Lindenstrasse",bus,{'A67s'}
371,372,Joachim-Friedrich-Strasse,bus,{'A29s'}
372,373,Joachim-Friedrich-Strasse Ecke Kurfürsten Damm,bus,{'A69x'}
373,374,Joachimstaler Strasse,bus,"{'A29s', 'A19', 'A60s'}"
374,375,Joachimstaler Strasse Ecke Kurfürstendamm,bus,{'A69x'}
375,376,Johannesstift,strassenbahn,"{'54x', '76x'}"
376,377,Johannisthaler Chaussee,strassenbahn,{'47x'}
377,378,John-Foster-Dulles-Allee,bus,{'A24x'}
378,379,Jungfernheide,s-bahn,"{'KBS 103a', 'KBS 100c', 'KBS 100'}"
379,380,Jänickestrasse,bus,{'A53x'}
380,381,Kaiser-Friedrich-Strasse,bus,{'A74x'}
381,382,Kaiser-Wilhelm-Platz,bus,"{'A4x', 'A75x', 'A48s'}"
382,383,Kaiser-Wilhelm-Platz,strassenbahn,"{'2x', '73s', '74s'}"
383,384,Kaiserdamm (Messedamm),u-bahn,"{'A I', 'B I'}"
384,385,Kaisereiche,bus,"{'A48s', 'A75x', 'A25x'}"
385,386,Kaisereiche,strassenbahn,"{'73s', '74s'}"
386,387,Kaiserin-Augusta-Strasse Ecke Tempelhofer Damm,bus,{'A68x'}
387,388,Kaiserstrasse,bus,{'A33s'}
388,389,Kaiserstrasse Ecke Mariendorfer Damm,bus,"{'A76x', 'A77x'}"
389,390,Kaiserstrasse/Ringstrasse,bus,{'A33s'}
390,391,Kanalstrasse,bus,{'A52s'}
391,392,Kantstrasse,bus,{'A21'}
392,393,Karl-Marx-Platz,strassenbahn,"{'47x', '26x'}"
393,394,Karl-Marx-Str.,u-bahn,{'C I'}
394,395,Karolinenstrasse,bus,{'A20'}
395,396,Kaserne Südtor,bus,{'A21'}
396,397,Katzbachstrasse,bus,{'A19'}
397,398,Kinderheim Ruhleben,bus,{'A31s'}
398,399,Kirchstrasse,bus,{'A12'}
399,400,Kirschenallee,strassenbahn,"{'53x', '54x'}"
400,401,Kisselnallee Ecke Radelandstrasse,bus,{'A63x'}
401,402,Kladow,Fähre,{'Wannsee<>Kladow (Betrieb durch Stern und Kreisschiffahrt)'}
402,403,Klausenerplatz,bus,{'A74x'}
403,404,Klausenerplatz,strassenbahn,"{'53x', '54x'}"
404,405,"Kleinbahn, Buckower Damm",strassenbahn,{'27x'}
405,406,Klingsorstrasse,bus,{'A33s'}
406,407,Klinkeplatz,bus,{'AS1s'}
407,408,Klosterstraße Ecke Seeburger Straße,bus,{'A13'}
408,409,Knesebeckstrasse,bus,{'A53x'}
409,410,KoblanckStrasse,bus,{'A51s'}
410,411,Kochstr.,u-bahn,{'C I'}
411,412,Kohlhasenbr ck,bus,{'A18'}
412,413,Kongreßhalle,bus,{'A69x'}
413,414,Konstanzer Strasse,bus,{'A50s'}
414,415,Kopenhagener Strasse,bus,{'A14'}
415,416,Kottbusser Brücke,bus,{'A67s'}
416,417,Kottbusser Damm (Schönleinstr.),u-bahn,{'D'}
417,418,Kottbusser Tor,u-bahn,"{'D', 'A II', 'B I', 'B II'}"
418,419,Krampnitzer Weg,bus,{'A35s'}
419,420,Krankenhaus Havelh he,bus,{'A35s'}
420,421,Krankenhaus Havelhöhe,bus,{'A34s'}
421,422,Krankenhaus Heckeshorn,bus,{'A51s'}
422,423,Krankenhaus Hohengatow,bus,"{'A35s', 'A34s'}"
423,424,Krankenhaus Moabit,bus,{'A70x'}
424,425,Krankenhaus Tegel-Süd,bus,{'A13'}
425,426,Krankenhaus Wannsee,bus,{'A51s'}
426,427,Krankenhause Neukölln,strassenbahn,{'47x'}
427,428,Kreuzbergstrasse,bus,{'A28s'}
428,429,Kronprinzessinen Weg,bus,{'A18'}
429,430,Krumme Lanke,u-bahn,"{'A II', 'B II'}"
430,431,Kurfürstendamm,bus,"{'A10', 'A60s', 'A21', 'AS2s', 'AS3s'}"
431,432,Kurfürstendamm Ecke Konstanzer Strasse,bus,"{'A74x', 'A1s'}"
432,433,Kurfürstenstr.,u-bahn,"{'B I', 'B II'}"
433,434,Kurfürstenstrasse,bus,{'A33s'}
434,435,Kurfürstenstrasse,u-bahn,{'A II'}
435,436,Kurt-Schumacher-Damme,bus,{'A65x'}
436,437,Kurt-Schumacher-Platz,bus,{'A21'}
437,438,Kurt-Schumacher-Platz,u-bahn,{'C I'}
438,439,Köllnische Heide,s-bahn,{'KBS 100a'}
439,440,Königin-Elisabeth-Strasse,bus,"{'A65x', 'A74x'}"
440,441,Königin-Elisabeth-Strasse,strassenbahn,"{'53x', '54x', '60x'}"
441,442,Königin-Luise-Strasse,bus,"{'A10', 'AS3s'}"
442,443,Königstrasse,bus,{'A6s'}
443,444,Königstrasse/Kronprinzessinnenweg,bus,{'A51s'}
444,445,Köpenicker Strasse,bus,{'A52s'}
445,446,Köpenicker Strasse,strassenbahn,{'47x'}
446,447,Köpenickerstrasse Ecke Manteuffelstrasse,bus,{'A28s'}
447,448,Körtingstrasse,bus,{'A77x'}
448,449,Körtingstrasse Ecke Großbeerenstrasse,strassenbahn,{'15x'}
449,450,Landgericht,bus,"{'A65x', 'A72x'}"
450,451,Lange Strasse,bus,{'A11'}
451,452,Lankwitz,s-bahn,{'KBS 106'}
452,453,"Lankwitz, Kirche",bus,"{'A2', 'A32s'}"
453,454,"Lankwitz, Kirche",strassenbahn,{'96x'}
454,455,Lauenburger Platz,bus,{'A75x'}
455,456,Lauterplatz,strassenbahn,"{'73s', '74s'}"
456,457,Lehrter Stadtbahnhof,s-bahn,"{'KBS 101', 'KBS 102'}"
457,458,Leibnizstrasse Ecke Kurfürstendamm,bus,{'A69x'}
458,459,Leibnizstrasse Ecke Otto-Suhr-Allee,bus,{'A62x'}
459,460,Leinestr.,u-bahn,{'D'}
460,461,LeonorenStrasse,bus,"{'A17', 'A32s'}"
461,462,Leonorenstrasse Ecke Siemensstrasse,bus,{'A2'}
462,463,Leopoldplatz,bus,{'A64x'}
463,464,Leopoldplatz,u-bahn,{'C I'}
464,465,Lepsiusstrasse,bus,{'A68x'}
465,466,Lerbacher Weg Ecke Gallwitzallee,bus,{'A2'}
466,467,"Letteplatz, Strassenbahnhof",bus,{'A71s'}
467,468,Leuthingerweg,bus,{'A63x'}
468,469,Lichtenrade,s-bahn,{'KBS 105'}
469,470,"Lichtenrade, Blohmstrasse Ecke Wünsdorfer Strasse",bus,{'AS2s'}
470,471,"Lichtenrade, Goethestrasse",bus,{'AS2s'}
471,472,Lichtenrader Damm,bus,{'A52s'}
472,473,Lichterfelde Ost,s-bahn,{'KBS 106'}
473,474,Lichterfelde Süd,s-bahn,{'KBS 106'}
474,475,Lichterfelde West,s-bahn,{'KBS 104'}
475,476,Lichterfelde-West Lindenstrasse,bus,{'A1s'}
476,477,Lichterfelde-West Lindenstrasse,strassenbahn,{'78s'}
477,478,Lindauer Strasse,bus,"{'A12', 'A71s'}"
478,479,Lindauer Strasse Ecke Residenzstrasse,bus,{'A72x'}
479,480,Lindenstrasse,strassenbahn,{'96x'}
480,481,Lindenthaler Allee,s-bahn,{'KBS 104'}
481,482,Lindenweg,bus,"{'A14', 'A12'}"
482,483,Loewenhardtdamm,bus,{'A28s'}
483,484,Louise-Schroeder-Platz,bus,{'A16'}
484,485,Ludwigkirchstrasse/Pariser Strasse,bus,{'A60s'}
485,486,Luise-Schröder-Platz,bus,{'A72x'}
486,487,Luisenplatz,bus,"{'A62x', 'AS1s', 'A65x', 'A21'}"
487,488,Luisenplatz,strassenbahn,"{'3x', '55x', '53x', '54x'}"
488,489,Lupsteiner Weg,bus,{'A10'}
489,490,Lutherstrasse,bus,{'A29s'}
490,491,Luzerner Strasse,bus,{'A53x'}
491,492,Lynastrasse,bus,{'AS1s'}
492,493,Lynastrasse Ecke Neuendorfer Strasse,strassenbahn,"{'53x', '54x'}"
493,494,"Lübars, Dorfaue",bus,{'A20'}
494,495,Lübarser Strasse,bus,{'A15'}
495,496,Lützowplatz,bus,"{'A69x', 'A16', 'A24x'}"
496,497,Lützowstrasse,bus,"{'A48s', 'A29s'}"
497,498,Lützowstrasse,strassenbahn,"{'73s', '74s'}"
498,499,Machandelweg,bus,"{'A5s', 'A31s'}"
499,500,Machnower Strasse Ecke Berlepschstrasse,bus,{'A66x'}
500,501,Magistratsweg,bus,{'A31s'}
501,502,Marburger Strasse,bus,{'A62x'}
502,503,Marchandstrasse,bus,{'A32s'}
503,504,Margaretenstrasse,bus,{'A48s'}
504,505,Mariannenplatz,bus,{'A28s'}
505,506,Mariendorf,s-bahn,{'KBS 105'}
506,507,Mariendorfer Damm,bus,"{'A77x', 'AS2s'}"
507,508,Mariendorfer Damm,strassenbahn,{'15x'}
508,509,Mariendorfer Friedhof,strassenbahn,{'15x'}
509,510,Mariendorfer Weg Ecke Hermannstrasse,strassenbahn,{'27x'}
510,511,Marienfelde,s-bahn,{'KBS 105'}
511,512,Marienfelder Allee,bus,{'A32s'}
512,513,Marienfelder Strasse,bus,{'A32s'}
513,514,Marienfelder Strasse Ecke Lichtenrader Damm,bus,{'A76x'}
514,515,Marienstrasse,bus,{'A11'}
515,516,Markgrafenstrasse Ecke Mariendorfer Damm,bus,{'A77x'}
516,517,Martin-Luther-Friedhof,bus,{'A20'}
517,518,Martin-Luther-Strasse Ecke Grunewaldstrasse,bus,{'A74x'}
518,519,Masurenallee,bus,{'A65x'}
519,520,Mattenbuder Pfad,bus,{'A14'}
520,521,Mehringdamm,bus,"{'A19', 'A28s'}"
521,522,Mehringdamm,u-bahn,"{'C I', 'C II'}"
522,523,Mehringdamm Ecke Yorck Strasse,strassenbahn,{'3x'}
523,524,Mehringplatz,strassenbahn,"{'96x', '95x'}"
524,525,Messedamm,bus,{'A4x'}
525,526,Messedamm,strassenbahn,"{'76x', '75s'}"
526,527,Mimosenweg,bus,{'A52s'}
527,528,Mittelstrasse,bus,{'A18'}
528,529,Mohriner Allee Ecke Buckower Damm,strassenbahn,{'27x'}
529,530,Moltkestrasse,strassenbahn,"{'73s', '74s'}"
530,531,Morgensternstrasse Ecke Wilhelmstrasse,bus,"{'A17', 'A11'}"
531,532,Moritzplatz,bus,{'A67s'}
532,533,Moritzplatz,u-bahn,{'D'}
533,534,Motzstrasse,bus,{'A73x'}
534,535,Munsterdamm Ecke Grazer Damm,bus,{'A68x'}
535,536,Munsterdamm Ecke Steglitzer Damm,bus,{'A75x'}
536,537,Möckernbrücke,u-bahn,"{'A II', 'B I', 'B II'}"
537,538,Mühlenstrasse,bus,{'A20'}
538,539,Nachtigalplatz,bus,{'A64x'}
539,540,Nassauische Strasse,bus,{'A50s'}
540,541,Nauener Platz,bus,{'A72x'}
541,542,Nauener Strasse,bus,{'A31s'}
542,543,Nauener Strasse,strassenbahn,{'55x'}
543,544,Nettelbeckstrasse,bus,{'A69x'}
544,545,Neu-Westend,u-bahn,{'B I'}
545,546,Neukölln,s-bahn,"{'KBS 100a', 'KBS 100'}"
546,547,Neukölln (Südring),u-bahn,{'C I'}
547,548,Neuköllnische Allee,bus,{'A67s'}
548,549,Nikolassee,s-bahn,"{'KBS 104', 'KBS 102'}"
549,550,Nikolskoer Weg,bus,{'A6s'}
550,551,Nollendorfplatz,bus,{'A19'}
551,552,Nollendorfplatz,strassenbahn,{'55x'}
552,553,Nollendorfplatz,u-bahn,"{'A I', 'B I', 'A II', 'B II', 'B III'}"
553,554,"Nonnendammallee, Siemensstadt",bus,{'A72x'}
554,555,Nürnberger Strasse Ecke Kurfürstenstrasse,bus,{'A69x'}
555,556,Oberhofer Platz,bus,{'A17'}
556,557,Olivaer Platz,bus,"{'A19', 'A29s'}"
557,558,Olympia-Stadion,u-bahn,{'B I'}
558,559,Olympiastadion,s-bahn,{'KBS 101'}
559,560,Onkel Toms Hütte,u-bahn,"{'A II', 'B II'}"
560,561,Onkel-Herse-Strasse,strassenbahn,{'47x'}
561,562,Oranienburger Strasse,bus,{'A21'}
562,563,Oraniendamm,bus,{'A20'}
563,564,Oranienplatz,bus,{'A67s'}
564,565,Oranienstrasse,bus,"{'A75x', 'A28s'}"
565,566,Ortsgrenze Gatow,bus,"{'A35s', 'A34s'}"
566,567,Oskar-Helene-Heim,u-bahn,"{'A II', 'B II'}"
567,568,Osloer Strasse,bus,"{'A61s', 'A70x', 'A71s'}"
568,569,OsnaBrücker Strasse,strassenbahn,{'55x'}
569,570,Osteweg,bus,{'A53x'}
570,571,Ostpreußendamm Ecke Morgenstern Strasse,strassenbahn,{'96x'}
571,572,Otto-Suhr-Allee,bus,{'A1s'}
572,573,Pacelli-/Thielallee,bus,{'A1s'}
573,574,Pankower Allee,bus,{'A14'}
574,575,Pankower Allee Ecke Residenzstrasse,bus,{'A72x'}
575,576,Pankstrasse,bus,"{'A61s', 'A14'}"
576,577,Papestr.,s-bahn,"{'KBS 100a', 'KBS 106', 'KBS 105', 'KBS 100'}"
577,578,Paradestr.,u-bahn,{'C II'}
578,579,Paradestrasse,bus,{'A77x'}
579,580,Parchimer Allee,strassenbahn,{'47x'}
580,581,Pariser Strasse Ecke Bundesallee,bus,{'A25x'}
581,582,"Parkfriedhof Neukölln, Buckower Damm",strassenbahn,{'27x'}
582,583,Paulsternstrasse,bus,"{'A10', 'A13'}"
583,584,Paulsternstrasse,strassenbahn,{'55x'}
584,585,Pfaueninsel-Chaussee,bus,"{'A18', 'A6s'}"
585,586,Pfaueninsel-Chaussee Ecke Königstrasse,bus,{'A3'}
586,587,Pichelsberg,s-bahn,{'KBS 101'}
587,588,Pichelsdorfer Strasse,strassenbahn,"{'76x', '75s'}"
588,589,Platz der Luftbrücke,bus,"{'A76x', 'A77x'}"
589,590,Podbielskiallee,u-bahn,"{'A II', 'B II'}"
590,591,Postamt,bus,{'A60s'}
591,592,Potsdamer Platz,strassenbahn,"{'73s', '74s'}"
592,593,Potsdamer Strasse,bus,"{'A24x', 'A29s'}"
593,594,Potsdamer Strasse Ecke Bülowstrasse,bus,{'A19'}
594,595,Potsdamer Strasse Ecke Clayallee,bus,"{'A18', 'A1s'}"
595,596,Potsdamer Strasse Ecke Fischerhüttenstrasse,bus,"{'A48s', 'A53x'}"
596,597,Potsdamer Strasse Ecke Pallasstrasse,strassenbahn,{'3x'}
597,598,Prager Platz,bus,{'A50s'}
598,599,Priesterweg,s-bahn,"{'KBS 106', 'KBS 105'}"
599,600,Prinzenallee Ecke Badstrasse,bus,{'A64x'}
600,601,Prinzenallee/Soldiner Strasse,bus,{'A71s'}
601,602,Prinzenstr.,u-bahn,"{'B I', 'B II'}"
602,603,Prinzenstrasse,u-bahn,{'A II'}
603,604,Provinzstrasse/Pankower Allee,bus,{'A71s'}
604,605,Putlitzstr.,s-bahn,{'KBS 100'}
605,606,Päwesiner Weg Ecke Seeburgerstrasse,bus,{'A13'}
606,607,Pücklerstrasse,bus,{'AS3s'}
607,608,Quantzstrasse,bus,{'A18'}
608,609,Quellweg,strassenbahn,{'55x'}
609,610,Quellweg Ecke Nonnendamm Allee,bus,{'A72x'}
610,611,Radelandstrasse,bus,{'A63x'}
611,612,Ramlerstrasse,bus,{'A71s'}
612,613,Ramlerstrasse Ecke Brunnenstrasse,bus,{'A64x'}
613,614,"Rankeplatz, Bundeshaus",bus,{'AS2s'}
614,615,Rankeplatz/Bundeshaus,bus,{'AS3s'}
615,616,Rathaus Mariendorf,bus,{'A33s'}
616,617,Rathaus Neukölln,strassenbahn,"{'47x', '26x'}"
617,618,Rathaus Neukölln,u-bahn,{'C I'}
618,619,Rathaus Sch neberg,bus,{'A16'}
619,620,Rathaus Schöneberg,bus,"{'A4x', 'A74x', 'A73x'}"
620,621,Rathaus Schöneberg,strassenbahn,"{'2x', '60x'}"
621,622,Rathaus Schöneberg,u-bahn,{'B III'}
622,623,Rathaus Spandau,bus,"{'A5s', 'A34s', 'A31s', 'A63x', 'AS1s', 'A35s', 'A13'}"
623,624,Rathaus Spandau,strassenbahn,"{'55x', '76x', '75s'}"
624,625,Rathaus Steglitz,bus,"{'A32s', 'A48s', 'A17', 'A68x'}"
625,626,Rathaus Steglitz,strassenbahn,"{'77s', '73s', '74s', '78s'}"
626,627,Rathaus Tempelhof,bus,{'A77x'}
627,628,Rathaus Tiergarten,bus,{'A70x'}
628,629,Rathaus Wannsee,bus,"{'A6s', 'A18', 'A3'}"
629,630,Rathaus Zehlendorf,bus,"{'A66x', 'A3', 'AS3s'}"
630,631,Rathenauplatz,bus,{'A65x'}
631,632,Rathenower Strasse,bus,"{'A70x', 'A24x'}"
632,633,Rathenower Strasse Ecke Perleberger Strasse,bus,{'A72x'}
633,634,Rathenower Strasse Ecke Perleberger Strasse,strassenbahn,{'2x'}
634,635,Rehberge,u-bahn,{'C I'}
635,636,Reichenberger Strasse,strassenbahn,{'26x'}
636,637,Reichskanzlerplatz,bus,{'A4x'}
637,638,Reichskanzlerplatz,strassenbahn,"{'76x', '75s'}"
638,639,Reichskanzlerplatz,u-bahn,"{'A I', 'B I'}"
639,640,Reichssportfeldstrasse,strassenbahn,"{'76x', '75s'}"
640,641,Reinickendorf,s-bahn,{'KBS 105'}
641,642,Reinickendorfer Str.,u-bahn,{'C I'}
642,643,Reinickendorfer Strasse Ecke Schulstrasse,bus,{'A64x'}
643,644,Rembrandtstrasse,strassenbahn,{'66x'}
644,645,Rennbahn,bus,{'A76x'}
645,646,Reuchlinstrasse,bus,{'A70x'}
646,647,Reuterstrasse,bus,{'A67s'}
647,648,Richard-Wagner-Platz,bus,{'A62x'}
648,649,Richard-Wagner-Platz,strassenbahn,"{'55x', '53x', '54x'}"
649,650,Richard-Wagner-Platz,u-bahn,{'A III'}
650,651,Richardstrasse,strassenbahn,{'15x'}
651,652,Ringstrasse,bus,{'A11'}
652,653,Rittberg-Krankenhaus,strassenbahn,"{'77s', '78s'}"
653,654,Ritterlandweg,bus,{'A71s'}
654,655,Rohdestrasse Ecke Germaniastrasse,bus,{'A73x'}
655,656,Roseneck,bus,"{'A50s', 'A19', 'AS3s', 'A29s'}"
656,657,"Roseneck, Hundekehl",bus,{'A60s'}
657,658,Rosenecke,bus,{'A17'}
658,659,Rudower Strasse,bus,{'A52s'}
659,660,Ruhleben,u-bahn,{'B I'}
660,661,Ruhrstrasse,bus,{'A50s'}
661,662,Ruppiner Chaussee,bus,{'A13'}
662,663,Rüdesheimer Platz,u-bahn,"{'A II', 'B II'}"
663,664,Rügener Strasse,bus,"{'A61s', 'A14', 'A71s'}"
664,665,Saaleckplatz,bus,{'A17'}
665,666,Saargemünder Strasse,bus,"{'A18', 'A11'}"
666,667,Saatwinkler Damm,bus,{'A62x'}
667,668,Savignyplatz,s-bahn,"{'KBS 101', 'KBS 102'}"
668,669,Scharfestrasse,bus,{'A18'}
669,670,Scharnweberstr. (Eichborndamm),u-bahn,{'C I'}
670,671,Scharnweberstrasse,bus,{'A21'}
671,672,Schillingstrasse,bus,{'A61s'}
672,673,Schlachtensee,bus,{'A53x'}
673,674,Schlachtensee,s-bahn,{'KBS 104'}
674,675,Schlesisches Tor,u-bahn,"{'B I', 'B II'}"
675,676,Schloss Glienicke,bus,{'A6s'}
676,677,Schloss Ruhwald,bus,{'AS1s'}
677,678,Schloss Ruhwald,strassenbahn,"{'53x', '54x'}"
678,679,SchlossBrücke,bus,{'A65x'}
679,680,SchlossStrasse,bus,{'A32s'}
680,681,Schlossstrasse,strassenbahn,"{'77s', '73s', '74s', '78s'}"
681,682,Schlossstrasse Ecke Seelingstrasse,bus,{'A74x'}
682,683,"Schlossstrasse, Wilhelm-Schreiber-Platz",bus,{'AS2s'}
683,684,Schloßstrasse Ecke Feuerbachstrasse,bus,{'A2'}
684,685,Schmargendorf,s-bahn,{'KBS 100'}
685,686,Schopenhauer-Strasse Ecke Spanische Allee,bus,{'A3'}
686,687,Schulenburgpark,strassenbahn,"{'15x', '95x'}"
687,688,Schulstrasse Ecke Exerzierstrasse,bus,{'A64x'}
688,689,Schulzendorf (b Tegel),s-bahn,{'KBS 105'}
689,690,Schulzendorfer Strasse,bus,{'A15'}
690,691,Schwarzer Weg Ecke Sonnenallee,strassenbahn,{'95x'}
691,692,Schwedenstrasse Ecke Exerzierstrasse,bus,{'A64x'}
692,693,Schwelmer Strasse Ecke Ostpreußendamm,strassenbahn,{'96x'}
693,694,Schwiezerhaus,bus,{'A34s'}
694,695,Schäferberg,bus,{'A6s'}
695,696,"Schäfersee, Pankower Allee",bus,{'A71s'}
696,697,Schöneberg,s-bahn,"{'KBS 100a', 'KBS 104', 'KBS 100'}"
697,698,Schöneweide,s-bahn,{'KBS 100a'}
698,699,Schönholz,s-bahn,"{'KBS 106', 'KBS 105'}"
699,700,Schützallee Ecke Onkel-Tom-Strasse,bus,{'A66x'}
700,701,Sebastianfriedhof,bus,{'A61s'}
701,702,SedanStrasse,bus,{'A32s'}
702,703,Sedanstrasse,bus,{'A33s'}
703,704,Seeburger Strasse,strassenbahn,"{'76x', '75s'}"
704,705,Seegefelder Weg,bus,{'A63x'}
705,706,Seestr.,u-bahn,{'C I'}
706,707,Seestrasse Ecke Afrikanische Strasse,bus,{'A64x'}
707,708,Seidelstr. (Flughafen Tegel),u-bahn,{'C I'}
708,709,Siemensstadt,s-bahn,{'KBS 100c'}
709,710,Siemensstadt-Fürstenbrunn,s-bahn,{'KBS 103a'}
710,711,Silbersteinstrasse,strassenbahn,"{'47x', '26x'}"
711,712,Skalitzer Strasse,bus,{'A75x'}
712,713,Sonnenallee,s-bahn,{'KBS 100'}
713,714,Sonnenallee,strassenbahn,{'26x'}
714,715,Sophie-Charlotte-Platz,u-bahn,"{'A I', 'B I'}"
715,716,Sophie-Charlotten-Platz,strassenbahn,{'60x'}
716,717,Sophie-Charlotten-Strasse,bus,{'A18'}
717,718,Spandau,s-bahn,"{'KBS 103a', 'KBS 101'}"
718,719,Spandau West,s-bahn,"{'KBS 103a', 'KBS 101'}"
719,720,"Spandau, Friedhof",bus,{'A34s'}
720,721,"Spandau, Markt",strassenbahn,"{'55x', '54x', '75s', '76x', '53x'}"
721,722,Spandauer Damm,bus,"{'A10', 'A74x'}"
722,723,Spandauer Strasse,bus,{'A31s'}
723,724,Spichernstr. (Bundesallee),u-bahn,{'A II'}
724,725,Spichernstrasse Ecke Bundesallee,bus,{'A2'}
725,726,Spreewaldplatz,bus,{'A75x'}
726,727,Spreewaldplatz,strassenbahn,"{'27x', '26x'}"
727,728,St lpchensee,bus,{'A18'}
728,729,Staakener Strasse,bus,{'A63x'}
729,730,Stadion Lichterfelde,bus,{'A17'}
730,731,Stadtpark,bus,{'A17'}
731,732,Stadtrandstrasse,bus,{'A5s'}
732,733,Stegerwaldstrasse,bus,{'A32s'}
733,734,Steglitz,s-bahn,{'KBS 104'}
734,735,Steglitzer Damm Ecke Halske Strasse,bus,{'A2'}
735,736,StindeStrasse,bus,{'A32s'}
736,737,Strasse 393,bus,{'A63x'}
737,738,Strasse nach Staatwinkel,bus,{'A13'}
738,739,Stresowplatz,bus,"{'A5s', 'A31s'}"
739,740,StromStrasse,bus,{'A24x'}
740,741,Stromstrasse,bus,{'A70x'}
741,742,Stromstrasse Ecke Alt-Moabit,strassenbahn,{'2x'}
742,743,Stubenrauchstrasse,strassenbahn,{'47x'}
743,744,Stuttgarter Platz,bus,"{'A74x', 'A21'}"
744,745,Stuttgarter Platz,strassenbahn,{'60x'}
745,746,Städtische Frauenklinik,strassenbahn,{'26x'}
746,747,"Stölpchensee, Wilhelmplatz",bus,{'A3'}
747,748,StößenseeBrücke,strassenbahn,"{'76x', '75s'}"
748,749,Sundgauer Str.,s-bahn,{'KBS 104'}
749,750,Sundgauer Strasse,bus,"{'A48s', 'AS3s'}"
750,751,Sydlitzstrasse Ecke Kaiser-Wilhelm-Strasse,strassenbahn,{'96x'}
751,752,Südende,s-bahn,{'KBS 106'}
752,753,Südstern,bus,{'A28s'}
753,754,Südstern,u-bahn,{'C I'}
754,755,"Tauernallee, Adlermühle",bus,{'AS2s'}
755,756,Tauroggener Strasse Ecke Osnabrücker Strasse,bus,{'A72x'}
756,757,Tauroggener Strasse Ecke Osnabrücker Strasse,strassenbahn,{'3x'}
757,758,Tegel,s-bahn,{'KBS 105'}
758,759,Tegel,u-bahn,{'C I'}
759,760,Tegeler Strasse Ecke Trifstrasse,bus,{'A64x'}
760,761,Tegelort,bus,{'A20'}
761,762,Teichstrasse,bus,{'A61s'}
762,763,Teltower Damm,bus,"{'A10', 'A48s', 'A53x'}"
763,764,Teltower Strasse,bus,"{'A5s', 'AS1s', 'A31s'}"
764,765,Teltower Strasse,strassenbahn,"{'53x', '54x'}"
765,766,Tempehofer Damm Ecke Friedrich-Karl-Strasse,bus,{'A68x'}
766,767,Tempelhof,s-bahn,"{'KBS 100a', 'KBS 100'}"
767,768,Tempelhof (Südring),u-bahn,{'C II'}
768,769,Tempelhofer Damm,bus,{'A24x'}
769,770,Tempelhofer Damm Ecke Friedrich-Karl-Strasse,bus,{'A25x'}
770,771,Tempelhofer Weg Ecke Britzer Damm,bus,{'A25x'}
771,772,Tempelhofer Weg Ecke Britzer Damm,strassenbahn,{'27x'}
772,773,Thielallee/Pacelliallee,bus,{'A68x'}
773,774,Thielplatz,u-bahn,"{'A II', 'B II'}"
774,775,Thorwaldsenstrasse,strassenbahn,{'66x'}
775,776,Thuner Platz,bus,{'A53x'}
776,777,Thuyring,bus,"{'A76x', 'A77x'}"
777,778,Tiergarten,s-bahn,"{'KBS 101', 'KBS 102'}"
778,779,Tiergartenstrasse,bus,"{'A69x', 'A16', 'A24x'}"
779,780,Tor 5,bus,{'A15'}
780,781,Trabener Strasse,bus,{'A69x'}
781,782,Traegerstrasse,strassenbahn,{'66x'}
782,783,Transvaalstrasse Ecke Africkanische Strasse,bus,{'A64x'}
783,784,Triftweg,bus,{'A52s'}
784,785,Trippsteinstrasse,bus,"{'A2', 'A11'}"
785,786,TurmStrasse,bus,{'A16'}
786,787,Turmstrasse Ecke Stromstrasse,bus,{'A72x'}
787,788,Turmstrasse/Rathenower Strasse,bus,{'A70x'}
788,789,U-Bhf Kottbusser Tor,bus,{'A28s'}
789,790,U-Bhf. Boddinstrasse,bus,{'A4x'}
790,791,U-Bhf. Boddinstrasse,strassenbahn,{'27x'}
791,792,U-Bhf. Bülowstrasse,bus,"{'A48s', 'A75x'}"
792,793,U-Bhf. Bülowstrasse,strassenbahn,"{'73s', '74s'}"
793,794,U-Bhf. Dahlem-Dorf,bus,{'A68x'}
794,795,U-Bhf. Ernst-Reuter-Platz,bus,"{'A62x', 'AS1s', 'A25x'}"
795,796,U-Bhf. Ernst-Reuter-Platz,strassenbahn,{'55x'}
796,797,U-Bhf. Fehrbelliner Platz,bus,"{'A4x', 'A1s', 'AS3s', 'A21'}"
797,798,U-Bhf. Flughafen,bus,"{'A4x', 'A19'}"
798,799,U-Bhf. Flughafen,strassenbahn,{'96x'}
799,800,U-Bhf. Gesundbrunnen,bus,"{'A14', 'A64x'}"
800,801,U-Bhf. Grenzallee,bus,{'A67s'}
801,802,U-Bhf. Grenzallee,strassenbahn,{'47x'}
802,803,U-Bhf. Hallesches Tor,bus,{'A24x'}
803,804,U-Bhf. Heidelberg Platz,bus,{'A65x'}
804,805,U-Bhf. Heidelberger Platz,bus,{'A60s'}
805,806,U-Bhf. Kaiserdamm,bus,"{'A10', 'A65x'}"
806,807,U-Bhf. Kochstrasse,bus,{'A75x'}
807,808,U-Bhf. Kottbusser Tor,bus,{'A67s'}
808,809,U-Bhf. Krumme Lanke,bus,"{'A53x', 'A3'}"
809,810,U-Bhf. Kurt-Schumacher-Platz,bus,"{'A61s', 'A62x'}"
810,811,U-Bhf. Leinestrasse,strassenbahn,{'27x'}
811,812,U-Bhf. Leopold-Platz,bus,{'A12'}
812,813,U-Bhf. Moritzplatz,bus,{'A75x'}
813,814,U-Bhf. Neukölln,strassenbahn,"{'47x', '15x', '26x'}"
814,815,U-Bhf. Onkel-Toms-Hütte,bus,"{'A66x', 'A3'}"
815,816,U-Bhf. Oskar-Helene-Heim,bus,"{'A1s', 'A3', 'A18', 'AS3s', 'A11'}"
816,817,U-Bhf. Prinzenstrasse,bus,{'A28s'}
817,818,U-Bhf. Ruhleben,bus,"{'A5s', 'AS1s', 'A31s'}"
818,819,U-Bhf. Ruhleben,strassenbahn,"{'53x', '54x'}"
819,820,U-Bhf. Rüdesheimer Platz,bus,{'A17'}
820,821,"U-Bhf. Scharnweberstrasse, Sportplatz",bus,{'A61s'}
821,822,U-Bhf. Schlesisches Tor,bus,{'A28s'}
822,823,U-Bhf. Seestrasse,bus,"{'A12', 'A16'}"
823,824,U-Bhf. Seestrasse,strassenbahn,{'3x'}
824,825,U-Bhf. Südstern,strassenbahn,{'3x'}
825,826,U-Bhf. Tegel,bus,"{'A14', 'A20', 'A15', 'A13'}"
826,827,U-Bhf. Tempelhof,bus,"{'A76x', 'A77x'}"
827,828,U-Bhf. Thielplatz,bus,{'A10'}
828,829,Uhlandstrasse,bus,"{'A50s', 'A29s'}"
829,830,Uhlandstrasse Ecke Kurfürstendamm,bus,{'A69x'}
830,831,Unionplatz,bus,{'A25x'}
831,832,Unter den Eichen Ecke Drakestrasse,bus,{'A11'}
832,833,Unter den Eichen Ecke Habelschwerdter Allee,bus,{'A11'}
833,834,Urban-Krankenhause,bus,{'A28s'}
834,835,Usedomer Strasse,bus,{'A71s'}
835,836,Verwaltungs-Gebäude,bus,{'A10'}
836,837,Viersener Strasse,bus,"{'A5s', 'A63x'}"
837,838,Viktoria-Luise-Platz,u-bahn,{'B III'}
838,839,Virchow-Krankenhaus,bus,{'A16'}
839,840,Vogelsang,bus,{'A68x'}
840,841,Voltastr.,u-bahn,{'D'}
841,842,Voltastrasse Ecke Watt Strasse,strassenbahn,{'2x'}
842,843,Waidmannslust,s-bahn,{'KBS 106'}
843,844,Waldemarplatz,bus,{'A53x'}
844,845,Waldemarstrasse,bus,{'A28s'}
845,846,Walderseestrasse,bus,{'A20'}
846,847,Waldfriedhof,bus,{'A18'}
847,848,Waldkrankenhaus,bus,{'A5s'}
848,849,Waldstrasse,bus,{'A20'}
849,850,Waldstrasse Ecke Turmstrasse,bus,"{'A1s', 'A72x'}"
850,851,Waldstrasse/Gotzkowskystrasse,bus,{'A70x'}
851,852,Wannsee,Fähre,{'Wannsee<>Kladow (Betrieb durch Stern und Kreisschiffahrt)'}
852,853,Wannsee,s-bahn,"{'KBS 104', 'KBS 102'}"
853,854,Warnem nder Strasse,bus,{'A17'}
854,855,Warnemünder/Berkaer Strasse,bus,{'A60s'}
855,856,Wedding,s-bahn,{'KBS 100'}
856,857,Weddingplatz,bus,"{'A70x', 'A72x'}"
857,858,Weddingplatz,strassenbahn,{'2x'}
858,859,Weichselstrasse,strassenbahn,"{'47x', '26x'}"
859,860,Weinmeisterhornweg,bus,"{'A35s', 'A34s', 'A13'}"
860,861,Wentowsteig,bus,{'A21'}
861,862,Wernerwerk,s-bahn,{'KBS 100c'}
862,863,Westend,s-bahn,{'KBS 100'}
863,864,Westkreuz,s-bahn,"{'KBS 101', 'KBS 102', 'KBS 100'}"
864,865,"Weverstrasse, Strassenbahnhof",strassenbahn,"{'76x', '75s'}"
865,866,Wiebestrasse,bus,{'A24x'}
866,867,Wiebestrasse Ecke Kaiserin-Augusta-Allee,bus,{'A72x'}
867,868,Wiebestrasse Ecke Kaiserin-Augusta-Allee,strassenbahn,{'3x'}
868,869,"Wiebestrasse, Strassenbahnhof",bus,{'A70x'}
869,870,Wiener Brücke,bus,{'A75x'}
870,871,Wiesbadener Strasse,bus,{'A16'}
871,872,Wiesenbaude,bus,{'A11'}
872,873,Wiesenbaude,strassenbahn,"{'73s', '74s'}"
873,874,Wiesenstrasse,bus,{'A70x'}
874,875,Wilderbruchstrasse Ecke Sonnenallee,strassenbahn,{'3x'}
875,876,Wildmeisterdamm,bus,{'A52s'}
876,877,Wildmeisterdamm,strassenbahn,{'47x'}
877,878,Wilhelmsruh,s-bahn,{'KBS 106'}
878,879,Wilhelmstrasse,bus,{'A17'}
879,880,Wilhelmstrasse Ecke Pichelsdorferstrasse,bus,"{'A35s', 'A34s'}"
880,881,Wilmersdorf,s-bahn,"{'KBS 100a', 'KBS 100'}"
881,882,Wilmersdorfer Strasse,bus,"{'A19', 'A29s'}"
882,883,Wilmersdorfer Strasse,strassenbahn,"{'76x', '75s'}"
883,884,Wilmersdorfer Strasse Ecke Kurfürstendamm,bus,{'A69x'}
884,885,Wilmersdorfer Strasse Ecke Kurfürstendamm,strassenbahn,{'3x'}
885,886,Wilmersdorfer Strasse Ecke Otto-Suhr-Alle,strassenbahn,{'3x'}
886,887,Winfriedstrasse,bus,{'AS3s'}
887,888,Winifriedstrasse Ecke Clayallee,bus,{'A3'}
888,889,Wismarer Strasse,bus,{'A1s'}
889,890,Wismarer Strasse,strassenbahn,{'77s'}
890,891,Wismarer Strasse Ecke Ostpreußendamm,strassenbahn,{'96x'}
891,892,Wittenau,bus,{'A62x'}
892,893,Wittenau (Kremmener Bahn),s-bahn,{'KBS 105'}
893,894,Wittenau (Nordbahn),s-bahn,{'KBS 106'}
894,895,Wittenbergplatz,bus,"{'A60s', 'A29s', 'A19', 'A73x', 'A62x'}"
895,896,Wittenbergplatz,strassenbahn,"{'55x', '2x', '77s', '78s'}"
896,897,Wittenbergplatz,u-bahn,"{'A I', 'A II', 'B I', 'B II'}"
897,898,Witzleben,s-bahn,{'KBS 100'}
898,899,Wolburgsweg,bus,{'A5s'}
899,900,Wollankstr.,s-bahn,"{'KBS 106', 'KBS 105'}"
900,901,Wolzogenstrasse,bus,{'A18'}
901,902,Yorckstr.,s-bahn,"{'KBS 106', 'KBS 105'}"
902,903,Yorckstrasse,bus,{'A28s'}
903,904,Yorckstrasse,strassenbahn,{'96x'}
904,905,Zabel-Krüger-Damm,bus,{'A12'}
905,906,Zappoter/Oeynhauser Strasse,bus,{'A60s'}
906,907,Zehlendorf,s-bahn,"{'KBS 104a', 'KBS 104'}"
907,908,Ziekowstrasse,bus,{'A14'}
908,909,Zitadellenweg,strassenbahn,{'55x'}
909,910,ZobeltitzStrasse,bus,{'A61s'}
910,911,Zoologischer Garten,s-bahn,"{'KBS 101', 'KBS 102'}"
911,912,Zoologischer Garten,u-bahn,"{'A I', 'B I'}"
912,913,Zossener Strasse,bus,{'A28s'}
913,914,Zossener Strasse Ecke Blücherstrasse,strassenbahn,{'95x'}
914,915,Zum Heckeshorn,bus,{'A51s'}
915,916,ZweiBrücker Strasse,bus,{'A63x'}
