,stop_id,stop_name,type,location,in_lines,identifier
0,19710,4. Ring,bus,"52.42250630689789, 13.2869490566549",['A53'],nan
1,19711,Aalemannufer,bus,"52.573301564012375, 13.21256902162699",['A97'],nan
2,19712,Adalbertstrasse,bus,"52.50548699996121, 13.42221404498021","['18', '16']",nan
3,19713,Adamstrasse,bus,"52.521029117218866, 13.19780699419913",['A34'],nan
4,19714,Adamstrasse Ecke Földerichstrasse,bus,"52.52102086498055, 13.194032268450048",['A35'],nan
5,19715,Adlershof,s-bahn,"52.434722222222,13.541388888889","['KBS 140', 'KBS 110', 'KBS 141', 'KBS 115']",Q323551
6,19716,Afrikanische Str. (Friedrich-Ebert-Siedlung),u-bahn,"52.560027777778,13.334633333333",['6'],Q559239
7,19717,Afrikanischestrasse Ecke Seestrasse,bus,"52.54623694310499, 13.343930832086308",['A89'],nan
8,19718,"Ahrensfeld, Kirche",bus,"52.57532170199278, 13.576515606968998",['L/41'],nan
9,19719,Akademie der Wissenschaften,bus,"52.6361286884856, 13.501898618531815",['51/B'],nan
10,197110,Alboinplatz,bus,"52.46105995730699, 13.369787146273511",['A74'],nan
11,197111,Alboinstrasse Ecke Sachsenstrasse,bus,"52.46985636940087, 13.37221719273455",['A74'],nan
12,197112,Albrechtstrasse,bus,"52.52326162787168, 13.383794910016247",['18'],"nan+nan, nan"
13,197113,Alexanderplatz,bus,"52.52005246558073, 13.413957243449447","['57', '18', '16']",Q65548996+nan
14,197114,Alexanderplatz,s-bahn,"52.521388888889,13.411944444444","['KBS 105', 'KBS 110', 'KBS 143', 'KBS 100', 'KBS 115']",Q111324700
15,197115,Alexanderplatz,u-bahn,"52.5214,13.4119","['E', 'A']",Q17173458
16,197116,"Alexanderplatz, Memhardstrasse",strassenbahn,"52.5233439,13.4110773",['69'],Q65227406
17,197117,Almutstrasse Ecke Berlinerstrasse,bus,"52.61484859496036, 13.317090157101475",['A12'],nan
18,197118,Alt-Buckow Ecke Buckower Damm,bus,"52.42365120067525, 13.436635949176258",['A78'],nan
19,197119,Alt-Friedrichsfelde,bus,"52.51072943298707, 13.504877027235766",['53'],nan
20,197120,Alt-Friedrichsfelde Ecke Am Tierpark,strassenbahn,"52.50914093654053, 13.518129930582422",['69'],nan
21,197121,Alt-Heiligensee,bus,"52.60616921042186, 13.210646859320935",['A14E'],nan
22,197122,Alt-Karow,bus,"52.60931228539711, 13.481265848599735","['42', '31']",nan
23,197123,Alt-Kladow,bus,"52.454591413254434, 13.144488043956764",['A34'],nan
24,197124,Alt-Kladow Ecke Kladowerdamm,bus,"52.4534507839138, 13.143940237573299",['A35'],nan
25,197125,"Alt-Lankwitz, Dorfaue",bus,"52.43908382575332, 13.354417745001864",['A81'],nan
26,197126,Alt-Lichtenrade Ecke Goethestrasse,bus,"52.404390044430414, 13.406152459156118",['A82'],nan
27,197127,Alt-Mahlsdorf,strassenbahn,"52.5051992,13.6133347",['83'],Q66364530
28,197128,Alt-Mariendorf,u-bahn,"52.4391,13.3877",['6'],Q262168
29,197129,Alt-Mariendorf Ecke Am Heidefriedhof,bus,"52.44081073153032, 13.391780012949221",['A81'],nan
30,197130,Alt-Marienfelde Ecke Marienfelder Allee,bus,"52.4136021515511, 13.363298817592286","['A52', 'A32']",nan
31,197131,Alt-Marienfelde Ecke Marienfelderallee,bus,"52.41357787421618, 13.363330517921128",['A11'],nan
32,197132,Alt-Marzahn,bus,"52.542116682742, 13.563854841402105",['37'],nan
33,197133,Alt-Moabit Ecke Gotzkowskystrasse,bus,"52.52377875537158, 13.329735095213607",['A90'],"nan, nan"
34,197134,Alt-Moabit Ecke Paulstrasse,bus,"52.5236531216349, 13.356947166921918",['A24'],nan
35,197135,"Alt-Reinickendorf, Klemkestrasse Ecke Kopenhagenerstrasse",bus,"52.574256376916765, 13.359170017495833",['A72'],nan
36,197136,Alt-Schmöckwitz,strassenbahn,"52.3752767,13.649549",['86'],Q66459540
37,197137,Alt-Stralau,bus,"52.49250215076991, 13.477901745330643",['34'],nan
38,197138,Alt-Tempelhof,u-bahn,"52.465952777778,13.385897222222",['6'],Q559212
39,197139,Alt-Wittenau Ecke Eichborndamm,bus,"52.59187977745068, 13.32645957736823","['A21', 'A15']",nan
40,197140,Alt-Wittenau Ecke Oranienburgerstrasse,bus,"52.58969312574067, 13.334180930412149",['A62'],nan
41,197141,Altglienicke,s-bahn,"52.4073,13.5588","['KBS 140', 'KBS 115']",Q4736651
42,197142,"Altglienicke, Kirche",bus,"52.421845729296805, 13.539407702079252",['23'],nan
43,197143,"Altglienicke, Kirche",strassenbahn,"52.421845729296805, 13.539407702079252",['84'],nan
44,197144,"Altglienicke, Schönefelder Chaussee",bus,"52.41855858218425, 13.537270832952125",['23'],nan
45,197145,Am Falkenberg,strassenbahn,"52.41079970042163, 13.570452931545786",['84'],nan
46,197146,Am Großen Wannsee Ecke Königsstrasse,bus,"52.4205011149842, 13.167199951771506",['A66'],nan
47,197147,Am Großen Wannsee Ecke Königstrasse,bus,"52.420496581432594, 13.167192967572669",['A3'],nan
48,197148,Am Kupfergraben,strassenbahn,"52.5194208,13.3953839","['22', '46', '71', '70']",Q65055027
49,197149,Am Nordhafen,bus,"52.53868315849872, 13.363248409190426",['A90'],nan
50,197150,Am Pilz,bus,"52.64251497264632, 13.300908054411988",['A15'],nan
51,197151,Am Rosenhag,bus,"52.52474356253909, 13.621775828105108",['44E'],nan
52,197152,Am Steinberg,bus,"52.55648144940878, 13.429306764151775",['45'],nan
53,197153,Am Tierpark,bus,"52.50960268197341, 13.518977597557999","['43', '35', '37', '8']",nan
54,197154,Am Treptower Park Ecke Elsenstrasse,strassenbahn,"52.4917648672198, 13.457703881892664",['87'],nan
55,197155,Am Vierrutenberg,bus,"52.613535544271876, 13.343827205969221",['A20'],nan
56,197156,Amrumer Str. (Rudolf-Virchow-Krankenhaus),u-bahn,"52.5425,13.350277777778",['9'],Q557577
57,197157,Amtsgericht,bus,"52.50682617853116, 13.297391449613752","['A94', 'A66', 'A10', 'A21', 'A92']",nan
58,197158,Anhalter Bahnhof,s-bahn,"52.503055555556,13.381944444444","['KBS 154', 'KBS 153', 'KBS 152']",Q111324573
59,197159,Annenstrasse,bus,"52.50661086998676, 13.417803115980485","['18', '16']",nan
60,197160,Antonplatz,strassenbahn,"52.5484803,13.4517416","['74', '70', '73', '72', '3', '75']",Q65548849
61,197161,Argentinische Allee Ecke Matterhornstrasse,bus,"52.43687625139372, 13.231432320777976",['A53'],nan
62,197162,Arkonaplatz,bus,"52.53753415367688, 13.401767623579223",['16'],nan
63,197163,Arnswalder Platz,strassenbahn,"52.5342216,13.4371245","['4', '13']",Q65707667
64,197164,Aroser Allee Ecke Lindauerallee,bus,"52.57375413056441, 13.35199910931917","['A61', 'A14']",nan
65,197165,Askanierring,bus,"52.54583446317149, 13.19375616188106",['A34'],nan
66,197166,Askanischer Platz,bus,"52.50447796179715, 13.38228227112231",['A24'],nan
67,197167,Askanischer Platz,bus,"52.50447897041404, 13.382295467838158","['A29', 'A75']",nan
68,197168,Attilaplatz,bus,"52.45590179888225, 13.376512495751076","['A68', 'A96', 'A25']",nan
69,197169,Attilastrasse Ecke Gersdorferstrasse,bus,"52.44968867870124, 13.366818238390186",['A76'],nan
70,197170,Augsburger Str.,u-bahn,"52.500556,13.336389",['2'],Q667035
71,197171,Bahnhof Friedrichstr. (Stadtbahn),u-bahn,"52.520111111111,13.388305555556",['6'],Q3753274
72,197172,Bahnhof Lichtenberg,u-bahn,"52.510556,13.496389",['E'],Q3831986
73,197173,Bahnhof Wedding,u-bahn,"52.5425,13.366111",['6'],Q4018733
74,197174,Bahnhofstrasse Ecke Lindenstrasse,bus,"52.45096281111, 13.572146868709519",['27'],nan
75,197175,Bahnhofstrasse Ecke Lindenstrasse,strassenbahn,"52.4505094,13.572684","['87', '84']",Q66095701
76,197176,Barnetstrasse Ecke Halker Zeile,bus,"52.394463314120856, 13.401552919137444",['A82'],nan
77,197177,Baumschulenstrasse Ecke Köpenicker Landstrasse,strassenbahn,"52.46911904990173, 13.491364972283247",['95'],nan
78,197178,Baumschulenweg,Fähre,"52.471902047468866, 13.494764218354444",['291'],nan
79,197179,Baumschulenweg,s-bahn,"52.4675,13.489722","['KBS 110', 'KBS 141', 'KBS 142', 'KBS 140', 'KBS 115']",Q324336
80,197180,Bautzener Strasse Ecke Yorckstrasse,bus,"52.49265331044414, 13.370954942054576",['A19'],nan
81,197181,Bayerischer Platz,u-bahn,"52.488333333333,13.340277777778","['4', '7']",Q668574
82,197182,Bayreuther Strasse Ecke Kurfürstenstrasse,bus,"52.50431823032154, 13.344357205819867",['A69'],nan
83,197183,Beeskowdamm Ecke Teltowerdamm,bus,"52.40897629863205, 13.26737851553465",['A1'],nan
84,197184,Behring-Krankenhaus,bus,"52.42410894567823, 13.251764544509987",['A10'],nan
85,197185,Bellevue,s-bahn,"52.52,13.348055555556","['KBS 157', 'KBS 156']",Q374018
86,197186,Belßstrasse Ecke Malteserstrasse,bus,"52.42913175860308, 13.354643221492394","['A83', 'A32']",nan
87,197187,Bergfelde (b Bln),s-bahn,"52.6702,13.3203",['KBS 140'],Q4891640
88,197188,Bergstrasse Ecke Torwaldsenstrasse,bus,"52.459125690917176, 13.347734087971094",['A83'],nan
89,197189,Berkaer Strasse Ecke Breitestrasse,bus,"52.47542198905493, 13.29028401578501",['A60'],nan
90,197190,Berkaer Strasse Ecke Teplitzerstrasse,bus,"52.48211582945816, 13.28117555753196",['A29'],nan
91,197191,Berliner Strasse,u-bahn,"52.487222222222,13.330833333333","['7', '9']",Q637739
92,197192,Berliner Strasse Ecke Suermondtstrasse,strassenbahn,"52.54900402056681, 13.501740363652805",['70'],nan
93,197193,Berliner Strasse Ecke Uhlandstrasse,bus,"52.48646943337342, 13.32251322728172",['A60'],nan
94,197194,Berliner Strasse Ecke Unter den Eichen,bus,"52.44190336030053, 13.282745145492171",['A10'],nan
95,197195,Berlinickeplatz,bus,"52.46607292094852, 13.378516406213421","['A96', 'A73']",nan
96,197196,Berlinickestrasse,bus,"52.456112285980474, 13.323909362999927",['A33'],nan
97,197197,Bernau (b Bln),s-bahn,"52.6763,13.5931",['KBS 141'],Q479789
98,197198,Bernauer Strasse Ecke Berlinerstrasse,bus,"52.57630801212322, 13.294727707293017",['A13'],nan
99,197199,Bernauerstrasse Ecke Gartenstrasse,bus,"52.53343779711892, 13.387504723908156",['A12'],nan
100,1971100,Bernkastelerstrasse,strassenbahn,"52.55700474140414, 13.467005851524313",['75'],nan
101,1971101,Bersarinstrasse,strassenbahn,"52.5259343,13.4462368",['74'],Q65553230
102,1971102,Betriebsbhf. Rummelsburg,s-bahn,"52.4939,13.4978",['KBS 105'],Q829009
103,1971103,Betriebsbhf. Schöneweide,s-bahn,"52.44676,13.52391","['KBS 140', 'KBS 110', 'KBS 141', 'KBS 115']",Q4526101
104,1971104,Beusselstr.,s-bahn,"52.534444444444,13.329166666667","['KBS 150', 'KBS 158']",Q323219
105,1971105,Beusselstrasse Ecke Seestrasse,bus,"52.53817989911527, 13.326092760688702",['A89'],nan
106,1971106,Bf.Karlshorst,strassenbahn,"52.481331,13.5254433",['17'],Q65952829
107,1971107,Bf.Lichtenberg,strassenbahn,"52.511250083190305, 13.499453104242638",['17'],nan
108,1971108,Bf.Schöneweide,strassenbahn,"52.45640818289644, 13.509916574756422",['17'],nan
109,1971109,Bhf. Friedrichstrasse,bus,"52.5205606637086, 13.388231915342985","['59', '57', '18']",nan
110,1971110,Bhf. Friedrichstrasse,strassenbahn,"52.5192805,13.3884107","['22', '46', '70']",Q65095382
111,1971111,"Bhf. Kaulsdorf, Bausdorfstrasse",bus,"52.513154384485595, 13.590937789889518",['49'],nan
112,1971112,Bhf. Lichtenberg,bus,"52.5112875601879, 13.499591119128855","['30', '37']",nan
113,1971113,Bhf. Lichtenberg,strassenbahn,"52.5123603,13.4977547",['69'],Q66013733
114,1971114,Bhf. Schönefeld,bus,"52.38192403313463, 13.511545079208773",['36'],nan
115,1971115,Bhf. Schöneweide,bus,"52.45374952013775, 13.510200397684477","['26', '65', '47', '48']",nan
116,1971116,Bhf. Schöneweide,strassenbahn,"52.45640818289644, 13.509916574756422","['85', '69', '95', '87', '21']",nan
117,1971117,"Bhf. Zoo, Hardenbergplatz",bus,"52.506961767508, 13.333080958799588",['A90'],nan
118,1971118,Bhf.Karlshorst,strassenbahn,"52.481331,13.5254433",['19'],Q65952829
119,1971119,Bhf.Lichtenberg,strassenbahn,"52.511250083190305, 13.499453104242638",['19'],nan
120,1971120,Biesdorf,s-bahn,"52.5131,13.5554",['KBS 100'],Q4892357
121,1971121,Birkbuschstrasse,bus,"52.449324076994074, 13.324073234408644",['A86'],nan
122,1971122,Birkenstr.,u-bahn,"52.532222222222,13.341388888889",['9'],Q555998
123,1971123,Birkenstrasse Ecke Perlebergerstrasse,bus,"52.53079514810484, 13.347236521814704",['A16'],nan
124,1971124,Birkenwerder,s-bahn,"52.6885,13.2888",['KBS 140'],Q2343634
125,1971125,Bismarckplatz,bus,"52.492064537089135, 13.28493897027407",['A29'],nan
126,1971126,Bismarckstrasse,bus,"52.51151302872893, 13.305218972850954",['A89'],nan
127,1971127,Bismarckstrasse Ecke Albrechtstrasse,bus,"52.451041676452135, 13.337951596673708","['A32', 'A17']",nan
128,1971128,Bismarckstrasse Ecke Bergstrasse,bus,"52.45863794281251, 13.339298022918376","['A68', 'A81']",nan
129,1971129,Bismarckstrasse Ecke Feuerbachstrasse,bus,"52.46451202484802, 13.338933433636415",['A76'],nan
130,1971130,Bismarckstrasse Ecke Steglitzer Damm,bus,"52.45103871422625, 13.337949524239141","['A33', 'A75']","nan, nan"
131,1971131,Bismarcktrasse Ecke Feuerbachstrasse,bus,"52.464518416712124, 13.338951404956155",['A2'],nan
132,1971132,Björnsonstrasse,strassenbahn,"52.5544232,13.4030585",['3'],Q65920495
133,1971133,Blankenburg,bus,"52.5814876422036, 13.445171400473535",['42'],nan
134,1971134,Blankenburg,bus,"52.591378021706056, 13.45353759854294",['31'],nan
135,1971135,Blankenburg,s-bahn,"52.5915,13.4435","['KBS 141', 'KBS 142', 'KBS 140', 'KBS 143']",Q800469
136,1971136,"Blankenfelde, Hauptstrasse",bus,"52.63002534735451, 13.38262328371393",['7'],nan
137,1971137,Blaschkoallee,u-bahn,"52.451944444444,13.449444444444",['7'],Q666911
138,1971138,Blaschkoallee Ecke Buschkrugallee,bus,"52.45253617529973, 13.452185710736664",['A67'],nan
139,1971139,Blissestrasse,u-bahn,"52.486666666667,13.321944444444",['7'],Q571397
140,1971140,Blohmstrasse Ecke Illigstrasse,bus,"52.389006433128735, 13.385624567347648","['A82', 'A76']",nan
141,1971141,Blumenstrasse,strassenbahn,"52.44907887643158, 13.760106955990562",['S-Bhf. Rahnsdorf <> Woltersdorfer Schleuse (VEB Woltersdorf)'],nan
142,1971142,Boddinstr.,u-bahn,"52.48,13.425277777778",['8'],Q819495
143,1971143,"Bohnsdorf, Kirche",bus,"52.39948771402893, 13.555574431978044",['36'],nan
144,1971144,"Bohnsdorf, Waldstrasse",bus,"52.389397192754984, 13.570666562153916",['D/38'],nan
145,1971145,Bonhoeffer Klinik,bus,"52.57804915259495, 13.332858932266909","['A62', 'A14']",nan
146,1971146,Borgsdorf,s-bahn,"52.7155,13.2764",['KBS 140'],Q4093486
147,1971147,"Bornholmerstrasse, Sektorengrenze",bus,"52.5549426407197, 13.395363798814545",['A89'],nan
148,1971148,Borsigwerke,u-bahn,"52.5819,13.2907",['6'],Q525185
149,1971149,Borussenstrasse Ecke Spanischeallee,bus,"52.43380561821302, 13.193266568263192",['A3'],nan
150,1971150,Boschpoler Strasse,bus,"52.5281225944603, 13.548869333486577",['37'],nan
151,1971151,Botanischer Garten,bus,"52.458598799471524, 13.303436055459807",['A1'],nan
152,1971152,Botanischer Garten,s-bahn,"52.44806,13.30722",['KBS 154'],Q800498
153,1971153,Breite Strasse,bus,"52.5140675536693, 13.40574007426647","['18', '9']",nan
154,1971154,Breitenbachplatz,bus,"52.467219717443385, 13.309473490660878","['A32', 'A1', 'A16']",nan
155,1971155,Breitenbachplatz,u-bahn,"52.466388888889,13.308055555556",['2'],Q571339
156,1971156,Breitenbachstrasse Ecke Eichborndamm,bus,"52.57783789535704, 13.314837431368987","['A21', 'A15']",nan
157,1971157,Breitscheidplatz,bus,"52.504438063129996, 13.33564615707506","['A19', 'A60', 'A69']",nan
158,1971158,Bristolstrasse Ecke Barfusstrasse,bus,"52.55830888506821, 13.35117447644734",['A12'],nan
159,1971159,Britz-Süd,u-bahn,"52.437777777778,13.448055555556",['7'],Q571845
160,1971160,Britzer Allee Ecke Nobelstrasse,bus,"52.460426955670656, 13.472101811407832",['A77'],nan
161,1971161,Britzer Damm,bus,"52.45270582469712, 13.438600568590575",['A25'],nan
162,1971162,Britzer Damm Ecke Blaschkoallee,bus,"52.45261809454142, 13.438587485243156",['A73'],nan
163,1971163,Britzer Strasse,bus,"52.45406686835081, 13.5193177875147",['65'],nan
164,1971164,Brixplatz,bus,"52.51907944117457, 13.25699370576959",['A4'],nan
165,1971165,Brunnenplatz,bus,"52.54967231813887, 13.377205988834362",['A99'],nan
166,1971166,Brunnenstrasse,bus,"52.53262273090187, 13.39887551925609",['16'],nan
167,1971167,Brunnenstrasse,strassenbahn,"52.5324542,13.3974236","['22', '46', '70']",Q65691740
168,1971168,Buch,bus,"52.641719509003636, 13.51591122856383",['42'],nan
169,1971169,Buch,s-bahn,"52.6359,13.4917",['KBS 141'],Q4892359
170,1971170,Buckower Ch.,s-bahn,"52.4103,13.3829",['KBS 152'],Q800499
171,1971171,Buckower Chaussee Ecke Mariendorfer Damm,bus,"52.41454962275545, 13.401182443012997",['A76'],nan
172,1971172,Buckower Damm Ecke Alt-Buckow,bus,"52.42364382786418, 13.436660506458884",['A52'],nan
173,1971173,Buckower Damm Ecke Gutschmidtstrasse,bus,"52.44038770138553, 13.434817312448835",['A98'],nan
174,1971174,Bundesallee Ecke Badenschestrasse,bus,"52.48612585868507, 13.33106199377037",['A4'],nan
175,1971175,Bundesallee Ecke Berlinerstrasse,bus,"52.48734072174735, 13.330962014417867",['A74'],nan
176,1971176,Bundesallee Ecke Stadtautobahn,bus,"52.47789622637913, 13.328530969697837",['A65'],nan
177,1971177,Bundesplatz,bus,"52.478678991134835, 13.32860278411238","['A16', 'A86']",nan
178,1971178,Bundesplatz,u-bahn,"52.478080555556,13.328519444444",['9'],Q3647008
179,1971179,Buolstrasse Ecke Rohrdamm,bus,"52.54528354962269, 13.260395383815418",['A23'],nan
180,1971180,Buschallee,strassenbahn,"52.5537598,13.4691966","['75', '73', '72', '74']",Q65546661
181,1971181,Buschallee Ecke Klement-Gottwald-Allee,bus,"52.55387173520125, 13.467543412166556",['L/41'],nan
182,1971182,Buschallee Ecke Klement-Gottwald-Allee,strassenbahn,"52.5537598,13.4691966",['70'],Q65546661
183,1971183,Buschkrug Ecke Blaschkoallee,bus,"52.452511507053316, 13.452217851171829",['A73'],nan
184,1971184,"Bölschestrasse, Brauerei",strassenbahn,"52.44699265840037, 13.624251999339991",['84'],nan
185,1971185,Bülowstr.,u-bahn,"52.497552777778,13.363419444444",['2'],Q374881
186,1971186,Bürgerpark,bus,"52.56929473750183, 13.400863229040334","['55', '50']",nan
187,1971187,Bürgerwäldchen,strassenbahn,"52.4893741,13.6064139",['83'],Q66364551+nan
188,1971188,Bürknersfelde,bus,"52.538889807153126, 13.534159376784622",['37'],nan
189,1971189,Calauer Strasse Ecke Finsterwalderstrasse,bus,"52.60388795604442, 13.349316351734368",['A22'],nan
190,1971190,Carl-Schurz-Strasse Ecke Am Juliusturm,bus,"52.539564379064075, 13.205586144912843","['A99', 'A55', 'A13']",nan
191,1971191,Cauerstrasse Ecke Otto-Suhr-Allee,bus,"52.514698471098995, 13.315230316194386","['A54', 'A55']",nan
192,1971192,Celsiusstrasse,bus,"52.41657732544926, 13.315592335529402",['A17'],nan
193,1971193,Charlottenburg,s-bahn,"52.504722222222,13.303333333333","['KBS 151', 'KBS 157', 'KBS 156']",Q111326217
194,1971194,Charlottenstrasse,bus,"52.51488332393998, 13.391126616035603",['9'],nan
195,1971195,Charlottenstrasse Ecke Französische Straße,bus,"52.51487005089368, 13.391123259408321",['18'],nan
196,1971196,Chausseestrasse,strassenbahn,"52.53061984499073, 13.383042789757935",['70'],nan
197,1971197,Chemische Fabrik,strassenbahn,"52.42696432509712, 13.573540465650169",['86'],nan
198,1971198,Chemnitzer Strasse Ecke Alt-Kaulsdorf,bus,"52.505156423214295, 13.58155740370254",['27'],nan
199,1971199,Clayallee Ecke Königin-Luise-Strasse,bus,"52.46044681153186, 13.274898269312029","['A68', 'A1']",nan
200,1971200,Columbiadamm Ecke Friesenstrasse,bus,"52.48397477914026, 13.394375751216378",['A24'],nan
201,1971201,Corinthstrasse,bus,"52.49877913072649, 13.465547512372405",['34'],nan
202,1971202,Corrensplatz,bus,"52.446014012041694, 13.284264679815902",['A11'],nan
203,1971203,Cyclopstrasse Ecke Oranienburgerstrasse,bus,"52.597489239936344, 13.332560085579114",['A15'],nan
204,1971204,Cyclopstrasse Ecke Waidmannsluster,bus,"52.60703373817683, 13.319731045230984",['A20'],nan
205,1971205,"Dahlem, Waldfriedhof",bus,"52.45502544975238, 13.266001998265164",['A11'],nan
206,1971206,Dahlem-Dorf,u-bahn,"52.456944444444,13.289444444444",['2'],Q668585
207,1971207,Dahlemer Weg Ecke Seehofstrasse,bus,"52.42635119855681, 13.276835963403045",['A53'],nan
208,1971208,Daimlerstrasse Ecke Großbeerenstrasse,bus,"52.42629029622166, 13.374388470163575",['A11'],nan
209,1971209,Dambockstrasse Ecke Ruppinerchaussee,bus,"52.61142668721659, 13.251651468312348",['A14'],nan
210,1971210,Dardanellenweg Ecke rixdorferstrasse,bus,"52.44494582020282, 13.400097300134679",['A81'],nan
211,1971211,Dauerwaldweg Ecke Eichkampstrasse,bus,"52.489449190084756, 13.260492099668136",['A69'],nan
212,1971212,Daumstrasse Ecke Am Juliusturm,bus,"52.539225008162575, 13.231904218584711",['A13'],nan
213,1971213,Detmolder Strasse Ecke Blissestrasse,bus,"52.47876002753526, 13.320303638716377",['A1'],nan
214,1971214,Deutsche Oper (Bismarckstr.),u-bahn,"52.511944444444,13.310555555556",['1'],Q869501
215,1971215,Deutsche Staatsoper,bus,"52.51738792599121, 13.39467182238642",['18'],nan
216,1971216,Deutschlandhalle,bus,"52.49962817740136, 13.26898769147191",['A69'],nan
217,1971217,Diepensee,bus,"52.300569220227956, 13.588920019126693",['D/38'],nan
218,1971218,Dimitroffstr.,u-bahn,"52.541666666667,13.412222222222",['A'],Q571382
219,1971219,Dimitroffstrasse,bus,"52.52644944679887, 13.447574773361476","['56', '30', '37']",nan
220,1971220,Dimitroffstrasse,strassenbahn,"52.5264628111709, 13.447690183847106","['17', '15', '19', '63', '69']",nan
221,1971221,Dimitroffstrasse,strassenbahn,"52.53621888450811, 13.433030627172739","['73', '75', '74']",nan
222,1971222,Dimitroffstrasse,strassenbahn,"52.53916590212034, 13.424282018437468","['71', '72']",nan
223,1971223,Dingelstädter Strasse,bus,"52.535876725188466, 13.521913733051441","['37', '43']",nan
224,1971224,Dirschelweg Ecke Rixdorfer Strasse,bus,"52.44490301532408, 13.40006211801405",['A33'],nan
225,1971225,Dohlengrund,bus,"52.49817919031105, 13.56339788185001",['35'],nan
226,1971226,Dominikus-Krankenhaus,bus,"52.626196524368744, 13.294495665499268",['A15'],nan
227,1971227,Donnersmarckplatz,bus,"52.62982465046043, 13.28047497184123","['A12', 'A15']",nan
228,1971228,Dovebrücke,bus,"52.51867985481754, 13.319909429259681",['A90'],nan
229,1971229,Drakestrasse,bus,"52.445733691746746, 13.293722374035292",['A85'],nan
230,1971230,Drakestrasse Ecke Unter den Eichen,bus,"52.44573233334527, 13.293697221399606",['A48'],nan
231,1971231,Dudenstrasse Ecke Katzbachstrasse,bus,"52.48507657537121, 13.376576066981372",['A28'],nan
232,1971232,Düppel-Kleinmachnow,s-bahn,"52.421388888889,13.226666666667",['KBS 155'],Q44763529
233,1971233,Düppel-Süd,bus,"52.423091212760234, 13.233043898233506",['A3'],nan
234,1971234,E.-Weinert-Klubh.,strassenbahn,"52.45588706028427, 13.558251389479581","['87', '82', '95']",nan
235,1971235,Eberswalderstrasse Ecke Oderberger Strasse,strassenbahn,"52.54061076763243, 13.404559930731686",['4'],",+nan"
236,1971236,Edelweißstrasse,bus,"52.58637603770021, 13.367525194816494",['55'],nan
237,1971237,Edisonstrasse,strassenbahn,"52.4619496,13.5139049","['85', '19', '95']",Q65951882
238,1971238,Efeuweg,bus,"52.42961975739112, 13.47788675809725",['A52'],nan
239,1971239,Eichbornstr.,s-bahn,"52.5776,13.3169",['KBS 152'],Q800500
240,1971240,Eichenauer Weg Ecke Waßmannsdorfer Chaussee,bus,"52.41260921019956, 13.495104515339074",['A93'],nan
241,1971241,Eichendamm,strassenbahn,"52.45567448233044, 13.730971293129528",['S-Bhf. Rahnsdorf <> Woltersdorfer Schleuse (VEB Woltersdorf)'],nan
242,1971242,Eichhorster Weg,bus,"52.60003603377976, 13.341194599899433",['A64'],nan
243,1971243,Eichhorster Weg Ecke Wilhelmsruher Damm,bus,"52.59622082204579, 13.347618500634315",['A62'],nan
244,1971244,Eichkamp,s-bahn,"52.4987,13.2702",['KBS 157'],Q800504
245,1971245,Eichwalde,s-bahn,"52.3715,13.6152","['KBS 110', 'KBS 141']",Q19274479
246,1971246,Eisenacher Strasse,u-bahn,"52.489444444444,13.350277777778",['7'],Q571170
247,1971247,Eisenacher Strasse Ecke Rixdorferstrasse,bus,"52.446727963478615, 13.402005401942057",['A77'],nan
248,1971248,Elsenstrasse Ecke Am Treptower Park,strassenbahn,"52.49175632207382, 13.457757874335021",['95'],nan
249,1971249,Elsterplatz,bus,"52.47977982878401, 13.285507613099716",['A10'],nan
250,1971250,Elsässer Strasse,bus,"52.63337294510061, 13.345103420124245",['7'],nan
251,1971251,Emdener Strasse Ecke Siemensstrasse,bus,"52.53301515926537, 13.334711483014237",['A99'],nan
252,1971252,Emmentaler Strasse Ecke Aroserallee,bus,"52.56751501366963, 13.351181437925797",['A12'],nan
253,1971253,Englerallee,bus,"52.46177802552459, 13.304473295414123",['A16'],nan
254,1971254,Erdener Strasse Ecke Königsallee,bus,"52.49054639857109, 13.27635730932866",['A19'],nan
255,1971255,Erkner,s-bahn,"52.4296,13.7513",['KBS 105'],Q14434071
256,1971256,Ernst-Reuter-Platz,bus,"52.511591823135106, 13.322571528312595","['A90', 'A55', 'A23', 'A54', 'A62', 'A86']",nan
257,1971257,Ernst-Reuter-Platz,u-bahn,"52.511944444444,13.322222222222",['1'],Q658361
258,1971258,Ernststrasse Ecke Conradstrasse,bus,"52.58313229442085, 13.300014110893347",['A15'],nan
259,1971259,Fahlenbergstrasse Ecke Fürstenwalder Allee,bus,"52.431470149043314, 13.718708856639706",['22'],nan
260,1971260,Falkenberger Chaussee Ecke Wartenbergerstrasse,bus,"52.56529727326355, 13.512555070093129",['39'],nan
261,1971261,Falkenberger Strasse,bus,"52.55648662489534, 13.486621227706236",['39'],nan
262,1971262,Falkenberger Strasse,strassenbahn,"52.5548156,13.4676381",['99'],Q65956714
263,1971263,Falkenbergerstrasse,strassenbahn,"52.56531556376946, 13.512520230914824",['74'],nan
264,1971264,Falkenbergerstrasse Ecke Wartenberger Strasse,strassenbahn,"52.55036672097044, 13.509915032138812",['63'],nan
265,1971265,Falkenhöhe,bus,"52.400507029940435, 13.538229483128243",['23'],nan
266,1971266,Falkenplatz,bus,"52.58490937545724, 13.227619925618022","['A20', 'A14E']",nan
267,1971267,Falkenseer Chaussee Ecke Zeppelinstrasse,bus,"52.54751396534941, 13.184653550751015",['A5'],nan
268,1971268,Falkenseer Chaussee Ecke Zeppelinstrasse,bus,"52.54755292088572, 13.18467823217582",['A99'],nan
269,1971269,Fasanenstrasse,strassenbahn,"52.45303125634222, 13.744280675634114",['S-Bhf. Rahnsdorf <> Woltersdorfer Schleuse (VEB Woltersdorf)'],nan
270,1971270,Fehrbelliner Platz,bus,"52.49040638965375, 13.314204217177087","['A1', 'A4', 'A89', 'A50', 'A21', 'A86', 'A74']",nan
271,1971271,Fehrbelliner Platz,u-bahn,"52.490277777778,13.314444444444","['7', '2']",Q663245
272,1971272,Feldtmannstrasse,bus,"52.56401588379611, 13.46980857664685",['L/41'],nan
273,1971273,Fennstrasse Ecke Tegelerstrasse,bus,"52.53791936700658, 13.36161815063844",['A16'],nan
274,1971274,Feuerbachstr.,s-bahn,"52.463611111111,13.332777777778",['KBS 154'],Q800501
275,1971275,"Fichtenau, Post",bus,"52.46613931662864, 13.69970161365516",['22'],nan
276,1971276,Flughafen,bus,"52.470965141866394, 13.385641462324475",['A19'],nan
277,1971277,Flughafen,u-bahn,"52.485556, 13.385833",['6'],Q557582
278,1971278,Flughafen Tempelhof,bus,"52.48504444099743, 13.386014416287884",['A96'],nan
279,1971279,Fontanestrasse,bus,"52.58985938767378, 13.361193570257216",['58'],nan
280,1971280,Forckenbeckstrasse Ecke Hohenzollerndamm,bus,"52.48218860671024, 13.290044155520265",['A50'],nan
281,1971281,Frankfurter Allee,s-bahn,"52.514166666667,13.474722222222","['KBS 141', 'KBS 142', 'KBS 140', 'KBS 143']",Q111250033
282,1971282,Frankfurter Allee,strassenbahn,"52.5138037,13.4773772",['3'],Q65948557
283,1971283,Frankfurter Allee,u-bahn,"52.513638888889,13.475694444444",['E'],Q3752007
284,1971284,Frankfurter Tor,strassenbahn,"52.511228472896995, 13.500207327717217","['4', '13']",Q65706246+nan
285,1971285,Frankfurter Tor,u-bahn,"52.515833333333,13.454166666667",['E'],Q568627
286,1971286,Fredersdorf (b Bln),s-bahn,"52.5265,13.7625",['KBS 100'],Q15197387
287,1971287,Freie Scholle,bus,"52.599851537868666, 13.301736158422598",['A20'],nan
288,1971288,Freiheitsweg,bus,"52.589234484667436, 13.241140559071075",['A20'],nan
289,1971289,Friedenau,s-bahn,"52.47,13.341",['KBS 154'],Q800471
290,1971290,Friedenauer Brücke,bus,"52.467136873118974, 13.33767977795157",['A84'],nan
291,1971291,Friedenstrasse Ecke Königstrasse,bus,"52.4172354421472, 13.13897409626584",['A6'],nan
292,1971292,Friedhof,bus,"52.553074667453075, 13.179964537863054",['A34'],nan
293,1971293,Friedrich-Junge-Strasse,bus,"52.49382897072681, 13.471572865851856",['34'],nan
294,1971294,Friedrich-Wilhelm-Platz,bus,"52.47128806242274, 13.328362126543809","['A17', 'A86']",nan
295,1971295,Friedrich-Wilhelm-Platz,u-bahn,"52.47194,13.32861",['9'],Q559207
296,1971296,Friedrichsfelde,u-bahn,"52.506111111111,13.512777777778",['E'],Q429781
297,1971297,Friedrichsfelde Ost,s-bahn,"52.5141,13.5198",['KBS 100'],Q800473
298,1971298,Friedrichshagen,s-bahn,"52.4574,13.6233",['KBS 105'],Q800474
299,1971299,"Friedrichshagen, Wasserwerk",strassenbahn,"52.4560563,13.6419956",['84'],Q66362601
300,1971300,Friedrichstr.,s-bahn,"52.52027777777778,13.386944444444444","['KBS 105', 'KBS 110', 'KBS 156', 'KBS 157', 'KBS 152', 'KBS 100', 'KBS 115', 'KBS 154', 'KBS 153']",Q111219456
301,1971301,Friedrichstrasse,bus,"52.51718498081941, 13.388821428784585",['18'],nan
302,1971302,Friesenstrasse Ecke Columbiadamm,bus,"52.483955843943605, 13.394382269747895",['A4'],nan
303,1971303,Frohnau,s-bahn,"52.6325,13.2902",['KBS 154'],Q800472
304,1971304,"Frohnau, Invalidensiedlung",bus,"52.65584641928224, 13.29035792910375",['A15'],nan
305,1971305,Fulhamer Allee Ecke Britzer Damm,bus,"52.448878464010086, 13.436183255895306",['A98'],nan
306,1971306,Funk- w.Fernmeld,bus,"52.53373620475704, 13.45293949300804",['56'],nan
307,1971307,Fürstenbbrunner Weg Ecke Spandauer Damm,bus,"52.51838547193756, 13.280148041731874",['A54'],nan
308,1971308,Gabelung,bus,"52.59988612656876, 13.25204128545515",['A13'],nan
309,1971309,Galenusstrasse,bus,"52.581754739893306, 13.42976269339117",['52'],nan
310,1971310,Galenusstrasse,strassenbahn,"52.5818183,13.4287678",['49'],Q66195410
311,1971311,Gartenfeld,s-bahn,"52.54695,13.24882",['KBS 159'],Q96080469
312,1971312,Gartenplatz,bus,"52.53887149101001, 13.383411331672582",['A12'],nan
313,1971313,"Gartenplatz, Feldstrasse",bus,"52.538565896675905, 13.384005277447793",['A61'],nan
314,1971314,Gartenstadtweg,bus,"52.412313913821045, 13.56660267841369",['36'],nan
315,1971315,Gartenstrasse Ecke Gerichtstrasse,bus,"52.54185540858252, 13.378087416189226",['A90'],nan
316,1971316,"Gatow, Kirche",bus,"52.48684680676539, 13.18215147844503","['A35', 'A34']",nan
317,1971317,Gatower Strasse,bus,"52.489436255649245, 13.180387588417426",['A34'],nan
318,1971318,Gatowerstrasse Ecke Heerstrasse,bus,"52.515507342099255, 13.184724533784886","['A97', 'A94']",nan
319,1971319,Geflügelsteig,bus,"52.405102350485194, 13.4906582234772",['A93'],nan
320,1971320,Gehringstrasse Ecke Gustav-Adolf-Strasse,bus,"52.56275859809491, 13.459295673933369",['56'],nan
321,1971321,Gehsener Strasse,bus,"52.46321577871702, 13.58365868698432",['27'],nan
322,1971322,Gemeindefriedhof,bus,"52.598200718485565, 13.215687761018108",['A14E'],nan
323,1971323,Geraer Strasse Ecke Mariannenstrasse,bus,"52.421007110699065, 13.334936765948392",['A11'],nan
324,1971324,Gerlindeweg,bus,"52.57586888496535, 13.228881094189404",['A20'],nan
325,1971325,Gersdorfstrasse Ecke Kaiserstrasse,bus,"52.44509615026107, 13.374026265583465",['A33'],nan
326,1971326,Gesundbrunnen,s-bahn,"52.548611111111,13.389444444444","['KBS 150', 'KBS 158', 'KBS 152', 'KBS 154', 'KBS 153']",Q111239092
327,1971327,Gesundbrunnen,u-bahn,"52.548611,13.389444",['8'],Q3761416
328,1971328,Gleisdreieck,u-bahn,"52.49952,13.37409","['2', '1']",Q678372
329,1971329,"Glienicke, Kirche",bus,"52.63062737184449, 13.312861916755343",['7'],nan
330,1971330,Glienicker Brücke,bus,"52.413474089031965, 13.091235881924467",['A6'],nan
331,1971331,Gneisenaustrasse,u-bahn,"52.491388888889,13.395555555556",['7'],Q668618
332,1971332,Gneisenaustrasse Ecke Zossenstrasse,bus,"52.491565660940175, 13.394454355304944",['A24'],nan
333,1971333,Goebelplatz,bus,"52.53812718171093, 13.27991414794248",['A23'],nan
334,1971334,Goethestrasse,bus,"52.40437395250698, 13.406194791584095",['A76'],nan
335,1971335,Goethestrasse,strassenbahn,"52.455545765090996, 13.726377148130858",['S-Bhf. Rahnsdorf <> Woltersdorfer Schleuse (VEB Woltersdorf)'],nan
336,1971336,Gorkistrasse Ecke Ziekowstrasse,bus,"52.59056318133497, 13.291987805164116",['A15'],nan
337,1971337,Gotenstrasse Ecke Sachsenstrasse,bus,"52.47544248777293, 13.359879433589482",['A74'],nan
338,1971338,Gottlieb-Dunkel-Strasse Ecke Germaniastrasse,bus,"52.46056887553805, 13.417975404195007",['A73'],nan
339,1971339,Gottlieb-Dunkel-Strasse Ecke Tempelhofer Weg,bus,"52.460486783559624, 13.417983924217406",['A25'],nan
340,1971340,Gotzkowskystrasse Ecke Alt-Moabit,bus,"52.52378715845577, 13.329806393816941","['A23', 'A86']",nan
341,1971341,Gotzkowskystrasse Ecke Turmstrasse,bus,"52.52721970192428, 13.330570000205638",['A24'],nan
342,1971342,Gradestrasse,bus,"52.45253783133086, 13.4330277622881",['A41'],nan
343,1971343,Gradestrasse Ecke Britzer Damm,bus,"52.45263961788979, 13.438591133769236",['A91'],nan
344,1971344,Granitzstrasse,bus,"52.57207265500184, 13.428773831691446",['52'],nan
345,1971345,Grazer Platz,bus,"52.46714786852433, 13.344179308164394","['A83', 'A25']",nan
346,1971346,Greifswalder Str.,s-bahn,"52.539722222222,13.439444444444","['KBS 141', 'KBS 142', 'KBS 140', 'KBS 143']",Q439246
347,1971347,Greifswalder Strasse,bus,"52.53002871375482, 13.62681794411932",['44'],nan
348,1971348,Greifswalder Strasse,bus,"52.54130253684684, 13.438917276806427",['56'],nan
349,1971349,Greifswalder Strasse,strassenbahn,"52.5364975,13.4334045","['4', '13']",Q65548960
350,1971350,Grellstrasse,bus,"52.54566404757848, 13.427807153394088",['56'],nan
351,1971351,Grenzallee,u-bahn,"52.463333333333,13.443888888889",['7'],Q571836
352,1971352,Grenzallee Ecke Naumbürgerstrasse,bus,"52.464552294306756, 13.448318114755583",['A67'],nan
353,1971353,Gritznerstrasse Ecke Schildhornstrasse,bus,"52.46433356336079, 13.316493780492829",['A32'],nan
354,1971354,Grottkauer Strasse,bus,"52.52796238368814, 13.600805280630896",['49'],nan
355,1971355,Großbeerenstrasse Ecke Rathausstrasse,bus,"52.43922302452444, 13.381635581140028",['A76'],nan
356,1971356,Große Krampe,Fähre,"52.38216958209777, 13.654448156259463",['293'],nan
357,1971357,Großer Stern,bus,"52.514524715463295, 13.349933192922938","['A16', 'A69']",nan
358,1971358,Großglienicker Weg,bus,"52.483148805729485, 13.182630557348212",['A34'],nan
359,1971359,Großgörschenstr.,s-bahn,"52.4922745,13.3678588",['KBS 154'],Q21776726
360,1971360,Großziethener Chaussee Ecke Geflügelsteig,bus,"52.41045579588441, 13.47943478217651",['A93'],nan
361,1971361,Grunewald,s-bahn,"52.4892,13.2614",['KBS 156'],Q457266
362,1971362,"Grunewald, Fontanestrasse",bus,"52.48728923056679, 13.263800173256355",['A17'],nan
363,1971363,Grunewaldstrasse Ecke Martin-Luther-Strasse,bus,"52.489052179432406, 13.345015381967391","['A85', 'A73']",nan
364,1971364,Grünau,Fähre,"52.41748994875358, 13.582453633911928",['292'],nan
365,1971365,Grünau,s-bahn,"52.4122,13.5746","['KBS 110', 'KBS 141']",Q111307258
366,1971366,Grünbergallee,s-bahn,"52.3992,13.5416","['KBS 140', 'KBS 115']",Q5612896
367,1971367,Grünberger Strasse,bus,"52.51247914134981, 13.452608373648678",['34'],nan
368,1971368,Grünberger Strasse,strassenbahn,"52.5122359,13.452609",['4'],Q65706239
369,1971369,Grüne Wiese,strassenbahn,"52.562147823032035, 13.434853580549184",['71'],nan
370,1971370,Grüner Weg Ecke Buschkrugallee,bus,"52.44277699347086, 13.45626759453103","['A98', 'A25']",nan
371,1971371,Gutschmidtstrasse Ecke Buckowerdamm,bus,"52.44037969534311, 13.434824521519351",['A91'],nan
372,1971372,Gutshof,bus,"52.47510904064348, 13.120710540203262",['A34'],nan
373,1971373,Görlitzer Bahnhof (Oranienstr.),u-bahn,"52.4992,13.428",['1'],Q597759
374,1971374,Göttinger Strasse,bus,"52.46138678087216, 13.345021087503788",['A76'],nan
375,1971375,Güntzelstrasse,u-bahn,"52.49194,13.33083",['9'],Q571563
376,1971376,H.- Beimler-Strasse,bus,"52.52515376382797, 13.419905951093401",['32'],nan
377,1971377,H.-Duncker-strasse,strassenbahn,"52.468763826103014, 13.514546415709704",['21'],nan
378,1971378,Hackescher Markt,strassenbahn,"52.522700593509725, 13.401605863643521","['71', '63', '69', '73', '72', '49', '75']",Q65094590+nan
379,1971379,Haeckelstrasse,strassenbahn,"52.44042166680233, 13.505548162898839",['17'],nan
380,1971380,Hagenplatz,bus,"52.483382973651, 13.265818700272884",['A19'],nan
381,1971381,Hainbuchenstrasse Ecke Maximilian-Korso,bus,"52.63435449938953, 13.274930560381957",['A12'],nan
382,1971382,Hakenfelde,bus,"52.56835274068237, 13.211131344773793","['A56', 'A55']",nan
383,1971383,Halemweg Ecke Toeplerstrasse,bus,"52.53821272416298, 13.286713503416276",['A23'],nan
384,1971384,Halensee,s-bahn,"52.4961,13.2906","['KBS 151', 'KBS 150']",Q800476
385,1971385,Hallesches Tor,u-bahn,"52.497777777778,13.391111111111","['6', '1']",Q658302
386,1971386,Hamburger Platz,bus,"52.555394187589414, 13.438973139463632","['45', '56']",nan
387,1971387,Hamburger Strasse,bus,"52.459675762441734, 13.703408632731582",['22'],nan
388,1971388,Hans-Beimler-Strasse,bus,"52.52515376382797, 13.419905951093401",['9'],nan
389,1971389,Hansaplatz,bus,"52.5179343319099, 13.342038193257153","['A23', 'A16']",nan
390,1971390,Hansaplatz,u-bahn,"52.517777777778,13.342222222222",['9'],Q287552
391,1971391,Hardenbergplatz,bus,"52.50706777810132, 13.333173024250815",['A23'],nan
392,1971392,Haselhorster Damm Ecke Gartenfelderstrasse,bus,"52.54294023738911, 13.239881944347387",['A10'],nan
393,1971393,Hatzfeldtallee Ecke Waidmannsluster Damm,bus,"52.59599130761894, 13.291565404669369",['A20'],nan
394,1971394,Hauptstrasse,bus,"52.58488483540165, 13.366332655923804",['58'],nan
395,1971395,Hauptstrasse,strassenbahn,"52.501264193852776, 13.475813257360297",['13'],
396,1971396,Hauptstrasse,strassenbahn,"52.54887, 13.504549",['74'],Q65555786
397,1971397,Hauptstrasse,strassenbahn,"52.5970063,13.3763916",['22'],Q65364985
398,1971398,Hauptstrasse,strassenbahn,"52.619072064369824, 13.393383358408967",['49'],
399,1971399,Hauptstrasse Ecke Dominicusstrasse,bus,"52.48178377611229, 13.348418210727631","['A74', 'A73', 'A65', 'A4']",",+nan"
400,1971400,Hauptstrasse Ecke Edelweißstrasse,bus,"52.586379262142074, 13.36752938856218",['45'],nan
401,1971401,Hausvogteiplatz,u-bahn,"52.513055555556,13.396666666667",['A'],Q656523
402,1971402,Havelblick,bus,"52.60198867886582, 13.210115307087476",['A14E'],nan
403,1971403,Heckerdamm Ecke Kurt-Schumacher Damm,bus,"52.53964827167265, 13.294895884843475","['A21', 'A23']",nan
404,1971404,Heckerdamm Ecke Schumacher Damm,bus,"52.53964256135396, 13.295128288403525",['A62'],nan
405,1971405,Heckeshorn,bus,"52.43061256867765, 13.16126549245838",['A3'],nan
406,1971406,Heckmannufer Ecke Schlesischestrasse,bus,"52.49754892772146, 13.448405468856432",['A28'],nan
407,1971407,Heerstr.,s-bahn,"52.5086,13.2586",['KBS 157'],Q800502
408,1971408,Heerstrasse,bus,"52.51550447615084, 13.18456806294143",['A34'],nan
409,1971409,Heerstrasse Ecke Gatowerstrasse,bus,"52.51550760464865, 13.184621162825296",['A35'],nan
410,1971410,Heerstrasse Ecke Wilhelmstrasse,bus,"52.51662457723462, 13.179022303033726",['A13'],nan
411,1971411,Hegelschule,strassenbahn,"52.4505094,13.572684","['19', '82']",nan
412,1971412,Heidebergplan,bus,"52.541074133887626, 13.147338727333166",['A31'],nan
413,1971413,Heidelberger Platz,u-bahn,"52.479808333333,13.313236111111",['2'],Q21777872
414,1971414,Heiligensee,bus,"52.60630641043627, 13.210316674569375",['A13'],nan
415,1971415,Heiligensee,s-bahn,"52.6247,13.2292",['KBS 152'],Q800475
416,1971416,Heiligensee Ecke Alt-Heiligensee,bus,"52.61124280139964, 13.2174416207585",['A14'],nan
417,1971417,Heiligenseestrasse Ecke Karolinenstrasse,bus,"52.5979470528879, 13.275036672101873",['A14'],nan
418,1971418,Heiligenseestrasse Ecke Konradshöherstrasse,bus,"52.59988428638746, 13.252027577947842",['A20'],nan
419,1971419,"Heinersd., Kirche",bus,"52.56826376476754, 13.440601903603064","['42', '31']",nan
420,1971420,"Heinersdorf, Kirche",bus,"52.56826376476754, 13.440601903603064",['55'],nan
421,1971421,"Heinersdorf, Kirche",strassenbahn,"52.5686908,13.4389053",['71'],Q65096107
422,1971422,Heinrich-Duncker-Strasse Ecke Ehrlichstrasse,strassenbahn,"52.4789566,13.5234316",['82'],Q65951921
423,1971423,Heinrich-Mann-Platz,bus,"52.57297246262195, 13.392146133350426","['45', '58']",nan
424,1971424,Heinrich-Seidel-Strasse Ecke Steglitzer Damm,bus,"52.450217757778894, 13.345089010113751",['A33'],nan
425,1971425,Hennigsdorf (b Bln),s-bahn,"52.638,13.2057",['KBS 135'],Q800909
426,1971426,Hennigsdorf Nord,s-bahn,"52.66,13.2033",['KBS 135'],Q685717
427,1971427,Henriettenplatz,bus,"52.49701780222877, 13.290339505649852","['A29', 'A4', 'A10', 'A69', 'A19']",nan
428,1971428,Hermann-Ehlers-Platz,bus,"52.45669168870412, 13.321597837216203",['A68'],nan
429,1971429,Hermannplatz,bus,"52.48778872855567, 13.425393480017616","['A75', 'A91', 'A95', 'A67']",nan
430,1971430,Hermannplatz,u-bahn,"52.48629,13.42455","['7', '8']",Q658929
431,1971431,Hermannstr.,s-bahn,"52.4675,13.431111111111","['KBS 151', 'KBS 150']",Q111263802
432,1971432,Hermannstrasse Ecke Mariendorferweg,bus,"52.46468684744492, 13.432906875137078",['A77'],nan
433,1971433,Hermannstrasse Ecke Silbersteinstrasse,bus,"52.46644333425963, 13.43195484694859",['A65'],nan
434,1971434,Hermsdorf,s-bahn,"52.6178,13.3069",['KBS 154'],Q263189
435,1971435,Hermsdorfer Damm Ecke Burgfrauenstrasse,bus,"52.6276036979899, 13.311357973607736",['A12'],nan
436,1971436,Hermsdorfer Damm Ecke Karolinenstrasse,bus,"52.596782782505926, 13.276626902280602",['A15'],nan
437,1971437,Hertzbergplatz,bus,"52.477487105395774, 13.448598156816837",['A67'],nan
438,1971438,Herzbergstrasse,strassenbahn,"52.52637,13.499036",['69'],Q65684891
439,1971439,"Hessenwinkel, Lutherstrasse",bus,"52.430136769038455, 13.730987779637607",['22'],nan
440,1971440,Hildegardstrasse Ecke Blissestrasse,bus,"52.48181972742755, 13.320373353240422",['A86'],nan
441,1971441,Hirschgarten,s-bahn,"52.4579,13.6032",['KBS 105'],Q4892435
442,1971442,Hirschgarten,strassenbahn,"52.4518533,13.6006245","['87', '84']",Q66360740
443,1971443,Hirtestrasse,strassenbahn,"52.46228517510202, 13.582989445330378",['86'],nan
444,1971444,Hochgerichtstrasse Ecke Seegefelderstrasse,bus,"52.53829981817958, 13.183413413138643","['A63', 'A99']",nan
445,1971445,Hochmeisterplatz,bus,"52.49468637986547, 13.301254684721862",['A4'],nan
446,1971446,Hochsch.f.Ökonomie,strassenbahn,"52.4927681,13.5266059","['17', '19']",nan
447,1971447,Hochschule für Ökonomie,strassenbahn,"52.4927681,13.5266059",['69'],Q65952866+nan
448,1971448,Hohen Neuendorf (b Bln),s-bahn,"52.6684,13.287",['KBS 140'],Q4500489
449,1971449,"Hohenschönhausen, Falkenberger Strasse",strassenbahn,"52.5508672,13.5094994",['70'],Q65555882
450,1971450,"Hohenschönhausen, Gartenstadt",strassenbahn,"52.5508672,13.5094994",['63'],Q65555882
451,1971451,"Hohenschönhausen, Marzahnerstrasse",bus,"52.54629373350111, 13.516693391086049",['53'],nan
452,1971452,Hohenschönhauser Strasse,strassenbahn,"52.5359329,13.4729468",['3'],Q65553684
453,1971453,Hohenschöpping,s-bahn,"52.67,13.1945",['KBS 135'],Q19274489
454,1971454,Hohenzollerndamm,s-bahn,"52.4885,13.3004","['KBS 151', 'KBS 150']",Q800503
455,1971455,Hohenzollerndamm Ecke Seesenerstrasse,bus,"52.48842852830222, 13.302087037037975",['A21'],nan
456,1971456,Hohenzollerndamm Ecke Stadtautobahn,bus,"52.48792295982247, 13.300561105734886",['A65'],nan
457,1971457,Hohenzollerndamm Ecke Uhlandstrasse,bus,"52.49360506912394, 13.323567537558588",['A60'],nan
458,1971458,Hohenzollernplatz,u-bahn,"52.493888888889,13.325",['2'],Q571570
459,1971459,Hohenzollernring,bus,"52.55569430282622, 13.207589665448262","['A56', 'A54', 'A97', 'A55']",nan
460,1971460,Holländerstrasse Ecke Londonerstrasse,bus,"52.56338729115426, 13.342918590914856",['A64'],nan
461,1971461,Holteistrasse,bus,"52.50859353995203, 13.466288145839554",['30'],nan
462,1971462,Holteistrasse Ecke Boxhagenerstrasse,strassenbahn,"52.5088235,13.465969","['3', '13']","Q65675805, Q65675805"
463,1971463,Holtheimer Weg,bus,"52.40993443198323, 13.3033907179267",['A85'],nan
464,1971464,Holzhauser Str.,u-bahn,"52.575833333333,13.296111111111",['6'],Q557566
465,1971465,Holzhauser Strasse Ecke Breitenbachstrasse,bus,"52.58200787385374, 13.305452713054015",['A15'],nan
466,1971466,Hoppegarten (Mark),s-bahn,"52.5183,13.6734",['KBS 100'],Q15197357
467,1971467,Hosemannstrasse,bus,"52.54283538228578, 13.434755984769948",['56'],nan
468,1971468,Hottengrund,bus,"52.44597765000425, 13.126251393745859",['A35'],nan
469,1971469,Hufelandstrasse,bus,"52.5330277403084, 13.429355314635904",['9'],nan
470,1971470,Hultschiner Damm,bus,"52.47711373957008, 13.600598140620137",['8'],nan
471,1971471,Humannplatz,strassenbahn,"52.5493627,13.4213646",['70'],Q65962652
472,1971472,Humboldt-Krankenhaus,bus,"52.57241175917693, 13.347438523711851",['A64'],nan
473,1971473,Humboldthain,s-bahn,"52.5451,13.3796","['KBS 154', 'KBS 153', 'KBS 152']",Q481276
474,1971474,Hussitenstrasse Ecke Grenzstrasse,bus,"52.543531338476214, 13.380631032885086",['A90'],nan
475,1971475,Huttenstrasse Ecke Beusselstrasse,bus,"52.52740013259484, 13.32867332200994",['A89'],nan
476,1971476,Händelplatz,bus,"52.449992542295014, 13.315419307645962","['A84', 'A85']",nan
477,1971477,"Hönow, Dorfstrasse",bus,"52.54884927869554, 13.63648687804691",['44'],nan
478,1971478,"Hönow, Wiesenweg",strassenbahn,"52.484276289226976, 13.505820970561828",['21'],nan
479,1971479,Hönower Wiesenweg,strassenbahn,"52.484276289226976, 13.505820970561828",['82'],nan
480,1971480,Hönower Wiesenweg Ecke Blockdammweg,strassenbahn,"52.48430451205336, 13.505804756687008",['13'],nan
481,1971481,Hönowerstrasse Ecke Greifswalderstrasse,bus,"52.53002741612947, 13.626824800415514",['44E'],nan
482,1971482,Illigstrasse Ecke Schichauweg,bus,"52.397661817639346, 13.38515347906895",['A82'],nan
483,1971483,Ilsenburger Strasse Ecke Kaiserin-Augusta-Allee,bus,"52.525749229554776, 13.30988310299495",['A89'],nan
484,1971484,Im Dol,bus,"52.46092679564681, 13.275092012001629",['A60'],nan
485,1971485,Im Spektefeld,bus,"52.54910906739257, 13.155753309046595",['A99'],nan
486,1971486,Industriebahn,bus,"52.618604307482244, 13.390395775797886",['7'],nan
487,1971487,Innsbrucker Platz,bus,"52.478545508234895, 13.34405868604117","['A48', 'A75', 'A65', 'A83', 'A85']",nan
488,1971488,Innsbrucker Platz,s-bahn,"52.4786,13.3439","['KBS 151', 'KBS 150']",Q111263876
489,1971489,Innsbrucker Platz (Hauptstr.),u-bahn,"52.4786,13.3439",['4'],Q10275871
490,1971490,"Invalidenstrasse, Sektorengrenze",bus,"52.52762303328894, 13.373148963837362",['A86'],nan
491,1971491,Jachtwerft,strassenbahn,"52.434329403493905, 13.571443963074454",['86'],nan
492,1971492,Jakob-Kaiser-Platz,bus,"52.536739701449115, 13.293604878938678","['A55', 'A23', 'A65', 'A99', 'A21', 'A62', 'A72']",nan
493,1971493,Jannowitzbrücke,s-bahn,"52.514822222222,13.41795","['KBS 105', 'KBS 110', 'KBS 143', 'KBS 100', 'KBS 115']",Q27955427
494,1971494,Joachim-Friedrich-Strasse Ecke Kurfürstendamm,bus,"52.49797143420066, 13.296225635820692","['A29', 'A69']",nan
495,1971495,Joachimstaler Strasse Ecke Kantstrasse,bus,"52.50528819125734, 13.331575308353223",['A60'],nan
496,1971496,Joachimstaler Strasse Ecke Kurfürstendamm,bus,"52.503848526250394, 13.331282191682005","['A19', 'A29']",nan
497,1971497,Joachimstaler Strasse Ecke Lietzenburgerstrasse,bus,"52.500484201395466, 13.330871859484015",['A69'],nan
498,1971498,Johannesstift,bus,"52.56762012914222, 13.191856156464777",['A54'],nan
499,1971499,"Johannisthal, Haeckelstrasse",strassenbahn,"52.4402944,13.5052638","['85', '69']",Q66225573
500,1971500,Johannisthaler Chaussee,bus,"52.45136033294721, 13.488299619950027",['47'],nan
501,1971501,Johannisthaler Chaussee,u-bahn,"52.429166666667,13.453333333333",['7'],Q638553
502,1971502,Johannisthaler Chaussee Ecke Rudower Strasse,bus,"52.434347637532014, 13.469038766571366",['A67'],nan
503,1971503,John-Foster-Dulles-Allee Ecke Spreeweg,bus,"52.51710164054661, 13.354604473465576",['A24'],nan
504,1971504,Josef-Orlopp-Strasse,strassenbahn,"52.5236942,13.4996388",['3'],Q66015311
505,1971505,Jungfernheide,s-bahn,"52.53035,13.299433333333","['KBS 159', 'KBS 150', 'KBS 158']",Q110977325
506,1971506,Jägerstrasse,bus,"52.48596831477271, 13.574167191759361",['27'],nan
507,1971507,K.- Marx-Allee,bus,"52.51796623612338, 13.432923587088723",['32'],nan
508,1971508,Kaiser-Friedrich-Strasse Ecke Kantstrasse,bus,"52.50678051201857, 13.302334438384776",['A74'],nan
509,1971509,Kaiser-Wilhelm-Platz,bus,"52.486329247981715, 13.35655627172785","['A4', 'A48', 'A75', 'A84', 'A83']",nan
510,1971510,Kaiserdamm,u-bahn,"52.51,13.2822",['1'],Q656409
511,1971511,Kaiserdamm Ecke Königin-Elisabethstrasse,bus,"52.51000556968557, 13.281769071308744",['A10'],nan
512,1971512,Kaisereiche,bus,"52.46896806014468, 13.332614886077709","['A85', 'A75', 'A25']",nan
513,1971513,Kaiserin-Augusta-Str.,u-bahn,"52.460152777778,13.384577777778",['6'],Q559226
514,1971514,Kali-Chemie,strassenbahn,"52.46329854840191, 13.499789773217568",['21'],",+nan+nan, nan"
515,1971515,Kanalstrasse Ecke Köpenickerstrasse,bus,"52.423829984992665, 13.51449779651474",['A57'],nan
516,1971516,Kantstrasse Ecke Kaiser-Friedrichstrasse,bus,"52.506780325531686, 13.30234182337291",['A21'],nan
517,1971517,Kantstrasse Ecke Wilmersdorferstrasse,bus,"52.50670639024441, 13.306680353058255","['A89', 'A86']",nan
518,1971518,Karl-Marx-Allee,bus,"52.51831920404112, 13.430003655626638",['40'],nan
519,1971519,Karl-Marx-Strasse,u-bahn,"52.476111111111,13.439166666667",['7'],Q519494
520,1971520,Karl-Marx-Strasse Ecke Grenzallee,bus,"52.46300527471114, 13.444919696974685",['A67'],nan
521,1971521,Karl-Marx-Strasse Ecke Silbersteinstrasse,bus,"52.46761009234876, 13.442031805395064",['A65'],nan
522,1971522,Karlshorst,s-bahn,"52.4808,13.5258",['KBS 105'],Q111327045
523,1971523,Karlshorsterstrasse,strassenbahn,"52.502006751448626, 13.475382393075797",['82'],nan
524,1971524,Karolinenhof Mitte,strassenbahn,"52.39176095915858, 13.634654256792825",['86'],nan
525,1971525,Karolinenstrasse Ecke Heiligenseestrasse,bus,"52.59793847901094, 13.275044238502316",['A13'],nan
526,1971526,Karolinenstrasse Ecke Heiligenseestrasse,bus,"52.59795392022277, 13.275025454844057",['A20'],nan
527,1971527,Karow,s-bahn,"52.615,13.4692",['KBS 141'],Q111324168
528,1971528,Karower Strasse,bus,"52.632657192071434, 13.500197142047304",['42'],nan
529,1971529,Karowerstrasse,bus,"52.63349334589059, 13.498857770767476","['51/B', '31']",nan
530,1971530,Kaserne Südtor,bus,"52.55685969560147, 13.3084342409763",['A62'],nan
531,1971531,Katzbachstrasse Ecke Yorckstrasse,bus,"52.4916027871128, 13.376642792979641",['A19'],nan
532,1971532,Kaulsdorf,s-bahn,"52.5121,13.5904",['KBS 100'],Q800478
533,1971533,Kienberg,bus,"52.3517661544751, 13.549307007329256",['D/38'],nan
534,1971534,Kienitzer Strasse Ecke Hermannstrasse,bus,"52.47611119841835, 13.426764451412787",['A4'],nan
535,1971535,Kirchhainer Damm Ecke Wittelsbacherstrasse,bus,"52.38290970523653, 13.413163485858885",['A82'],nan
536,1971536,Kisselnallee Ecke Pionierstrasse,bus,"52.556501057441956, 13.188670871494672",['A63'],nan
537,1971537,Kissingenstrasse,bus,"52.56794246263401, 13.427626602915375",['52'],nan
538,1971538,Klausenerplatz,bus,"52.51924427298945, 13.291948741419509",['A87'],nan
539,1971539,Kleistpark,u-bahn,"52.490555555556,13.360277777778",['7'],Q571161
540,1971540,Klement-Gottwald-Allee,strassenbahn,"52.55389472455495, 13.467430897209223",['99'],nan
541,1971541,Klement-Gottwald-Allee Ecke Rennbahnstrasse,bus,"52.55694652931542, 13.466966083751453",['45'],",+nan"
542,1971542,Klingsorstrasse Ecke Birkbuschstrasse,bus,"52.447537942411586, 13.326352493667812",['A86'],nan
543,1971543,Klosterstr.,u-bahn,"52.516111111111,13.412222222222",['A'],Q657893
544,1971544,Knaackstrasse,strassenbahn,"52.540775616414294, 13.414314622738662","['71', '72']",nan
545,1971545,Knesebeckstrasse Ecke Seehofstrasse,bus,"52.428921348542005, 13.267697234969374",['A53'],nan
546,1971546,Kniprodeallee,strassenbahn,"52.55328910288231, 13.479535430290078","['99', '70']",nan
547,1971547,Kniprodestrasse,bus,"52.53188831051684, 13.441173619054155",['57'],nan
548,1971548,Kniprodestrasse,strassenbahn,"52.5325286,13.4406868","['4', '17', '19', '13']",Q65707391
549,1971549,Koblanckstrasse Ecke Am Großen Wannsee,bus,"52.42616121316946, 13.161456907756055",['A3'],nan
550,1971550,Kochstr.,u-bahn,"52.505897222222,13.390611111111",['6'],Q201849
551,1971551,Kolonie Ewige Heimat,bus,"52.41345967123369, 13.490245015532087",['A93'],nan
552,1971552,Kongreßhalle,bus,"52.51763253396976, 13.363196975404886",['A69'],nan
553,1971553,Konkordiastrasse Ecke Adamstrasse,bus,"52.520980678190206, 13.191234579376763",['A92'],nan
554,1971554,Kottbusser Damm (Schönleinstr.),u-bahn,"52.493055555556,13.421944444444",['8'],Q666868
555,1971555,Kottbusser Tor,u-bahn,"52.499166666667,13.418055555556","['8', '1']",Q819768
556,1971556,Kraftwerk Klingenberg,strassenbahn,"52.4881374,13.4958685","['82', '13', '21']",Q66079524
557,1971557,Krampenburg,Fähre,"52.389189989977616, 13.649374040292349",['293'],nan
558,1971558,Krampnitzer Weg,bus,"52.45227343259078, 13.13842230425098",['A35'],nan
559,1971559,Krankenhaus Havelhöhe,bus,"52.462919334280684, 13.15899083159388","['A35', 'A34']",nan
560,1971560,Krankenhaus Hohengatow,bus,"52.470449875602235, 13.169391604448148","['A35', 'A34']",nan
561,1971561,Krankenhaus Köpenick,strassenbahn,"52.43861200573594, 13.592411258792163",['95'],nan
562,1971562,Krankenhaus Neukölln,bus,"52.43991971904642, 13.459396643339986",['A41'],nan
563,1971563,Krankenhaus Tegel-Süd,bus,"52.57573397877684, 13.278749331662",['A13'],nan
564,1971564,Krankenhaus Wannsee,bus,"52.43102764694952, 13.164964517227903",['A3'],nan
565,1971565,Kranoldplatz,bus,"52.427774762936416, 13.326473583049795","['A11', 'A96']",nan
566,1971566,Kronprinzessinen Weg Ecke Potsdamer Chaussee,bus,"52.4199289618766, 13.175326111854474",['A18'],nan
567,1971567,Kronprinzessinen Weg Ecke Spanische Allee,bus,"52.433805665797344, 13.189405186742881",['A66'],nan
568,1971568,Krottnaurerstrasse,bus,"52.434048198019276, 13.206642741771725",['A53'],nan
569,1971569,Krowelstrasse,bus,"52.523670520237886, 13.20288751823451",['A35'],nan
570,1971570,Krumme Lanke,u-bahn,"52.443333333333,13.241388888889",['2'],Q663945
571,1971571,Kurfürstendamm (Joachimstaler Str.),u-bahn,"52.504166666667,13.332777777778",['3'],Q663933
572,1971572,Kurfürstendamm (Joachmistaler Str.),u-bahn,"52.504166666667,13.332777777778",['9'],Q663933
573,1971573,Kurfürstendamm Ecke Joachim-Friedrichstrasse,bus,"52.49800511755257, 13.296199745571476","['A21', 'A10']",nan
574,1971574,Kurfürstendamm Ecke Leibnizstrasse,bus,"52.500627320592564, 13.313050318113724",['A1'],nan
575,1971575,Kurfürstendamm Ecke Uhlandstrasse,bus,"52.5025171106333, 13.325215394301777",['A60'],nan
576,1971576,Kurfürstendamm Ecke Wilmersdorferstrasse,bus,"52.500005603908086, 13.307037476743691","['A74', 'A89', 'A86']",nan
577,1971577,Kurfürstenstr.,u-bahn,"52.5,13.361944444444",['1'],Q690203
578,1971578,Kurische Strasse,bus,"52.53541468899389, 13.439085794623837",['9'],nan
579,1971579,Kurt-Fischer-Platz,bus,"52.57973292845757, 13.398330728468228","['7', '50']",nan
580,1971580,Kurt-Fischer-Platz,strassenbahn,"52.578668,13.3983016","['22', '46']",Q65032974
581,1971581,Kurt-Schumacher-Platz,bus,"52.563438249109005, 13.32713028618972","['A22', 'A21', 'A61']",nan
582,1971582,Kurt-Schumacher-Platz,u-bahn,"52.563555555556,13.326572222222",['6'],Q555916
583,1971583,Köllnische Heide,s-bahn,"52.4694,13.4675","['KBS 151', 'KBS 150']",Q800505
584,1971584,Königin-Elisabeth-Strasse U-Bhf. Kaiserdamm,bus,"52.510023251654424, 13.281795105908675",['A74'],nan
585,1971585,Königin-Luise-Strasse Ecke Pacelliallee,bus,"52.45831130961841, 13.287126800851055",['A10'],nan
586,1971586,Königs Wusterhausen,s-bahn,"52.2966,13.6311",['KBS 110'],Q178002
587,1971587,Königsberger Strasse Ecke Ostpreußen Damm,bus,"52.43079422396853, 13.317499238507299",['A17'],nan
588,1971588,Königstor,bus,"52.52520269485428, 13.419834994127731","['57', '9']",nan
589,1971589,Königstrasse Ecke Kronprinzessinnenweg,bus,"52.419922358875205, 13.175346132828146",['A6'],nan
590,1971590,Köpenick,s-bahn,"52.4586,13.5808",['KBS 105'],Q800479
591,1971591,"Köpenick, Krankenhaus",bus,"52.43861200573594, 13.592411258792163","['27', '27E']",nan
592,1971592,"Köpenick, Strab.-Betriebshof",strassenbahn,"52.4399134,13.5817824","['85', '83']",Q66370900
593,1971593,Köpenicker Landstrasse Ecke Baumschulenstrasse,strassenbahn,"52.46913201072182, 13.491340045687773",['87'],nan
594,1971594,Köpenicker Strasse,bus,"52.48661965394429, 13.560355132284862",['8'],nan
595,1971595,Köpenicker Strasse Ecke Neuköllnerstrasse,bus,"52.41702876386292, 13.493990010614597",['A57'],nan
596,1971596,Körtingstrasse Ecke Großbeerenstrasse,bus,"52.434813531058246, 13.378315641328395",['A11'],nan
597,1971597,LPG Falkenberg,bus,"52.57043275562403, 13.536024836217607",['L/41'],nan
598,1971598,Lakenfelder Weg Ecke Geflügelsteig,bus,"52.4082767675799, 13.482126832781505",['A93'],nan
599,1971599,Landgericht,bus,"52.52698925988807, 13.297167647658592","['A72', 'A55']",nan
600,1971600,Landsberger Ch.,strassenbahn,"52.532258,13.476705",['3'],Q65942700
601,1971601,Landsberger Chaussee,bus,"52.53542387113373, 13.517289798830951",['53'],nan
602,1971602,Lankwitz,s-bahn,"52.4386,13.3417",['KBS 153'],Q800481
603,1971603,"Lankwitz, Kirche",bus,"52.43629186979271, 13.345745387354132","['A32', 'A81', 'A83', 'A2']",nan
604,1971604,Lauenburger Platz,bus,"52.461985842386426, 13.33927388252173",['A75'],nan
605,1971605,Lehnitz,s-bahn,"52.7411,13.2635",['KBS 140'],Q4258498
606,1971606,Lehrter Stadtbahnhof,s-bahn,"52.5253,13.3694","['KBS 157', 'KBS 156']",Q821299
607,1971607,Leibnizstrasse Ecke Kantstrasse,bus,"52.50628811926533, 13.313953720007843",['A66'],nan
608,1971608,Leinestr.,u-bahn,"52.472777777778,13.428333333333",['8'],Q668563
609,1971609,Leninallee,bus,"52.526413499256655, 13.447596483801878",['30'],nan
610,1971610,Leninallee,s-bahn,"52.5295,13.4548","['KBS 141', 'KBS 142', 'KBS 140', 'KBS 143']",Q800507
611,1971611,Leninallee,strassenbahn,"52.5259343,13.4462368","['4', '13']",Q65553230
612,1971612,Leninplatz,bus,"52.523238998562235, 13.433594583798834","['40', '32']",nan
613,1971613,Leninplatz,strassenbahn,"52.5232658,13.4326457","['63', '69', '74']",Q65553105
614,1971614,Leonorenstrasse Ecke Kaiser-Wilhelm-Strasse,bus,"52.436240390502434, 13.345788080034866",['A96'],nan
615,1971615,Leonorenstrasse Ecke Kaiser-Wilhelmstrasse,bus,"52.43627769630419, 13.345708026013773",['A81'],nan
616,1971616,Leonorenstrasse Ecke Siemensstrasse,bus,"52.444367558353996, 13.338839756344749","['A2', 'A17']",nan
617,1971617,Leopoldplatz,bus,"52.54647397037027, 13.359233475022176",['A79'],nan
618,1971618,Leopoldplatz,u-bahn,"52.5465,13.3591","['6', '9']",Q1960809
619,1971619,Lerbacher Weg,bus,"52.42568078153998, 13.34761442595845",['A2'],nan
620,1971620,Lerchenstrasse,strassenbahn,"52.455164145486215, 13.734409241881236",['S-Bhf. Rahnsdorf <> Woltersdorfer Schleuse (VEB Woltersdorf)'],nan
621,1971621,Lichtenberg,s-bahn,"52.5106,13.4964",['KBS 100'],Q634247
622,1971622,Lichtenberger Strasse,strassenbahn,"52.552032612200605, 13.465689924366766","['70', '3']",nan
623,1971623,Lichtenberger Strasse Ecke Klement-Gottwald-Allee,bus,"52.55200517673564, 13.465477958826924",['45'],nan
624,1971624,Lichtenrade,s-bahn,"52.3876,13.3963",['KBS 152'],Q6543354
625,1971625,Lichtenrader Damm Ecke Buckower Chaussee,bus,"52.41458109674137, 13.401170404046406",['A52'],nan
626,1971626,Lichterfelde Ost,s-bahn,"52.43,13.3289",['KBS 153'],Q111311299
627,1971627,Lichterfelde Süd,s-bahn,"52.41,13.3086",['KBS 153'],Q800482
628,1971628,Lichterfelde West,s-bahn,"52.4433,13.2947",['KBS 154'],Q111327103
629,1971629,"Lichterfelde, Klinikum",bus,"52.440650718877286, 13.316166539065344",['A84'],nan
630,1971630,Liebermannstrasse,bus,"52.56057009127622, 13.477542920210318",['55'],nan
631,1971631,Lincolnstrasse,bus,"52.50195493156404, 13.501966501173017",['35'],nan
632,1971632,Lindauer Allee Ecke Aroserallee,bus,"52.57375628681548, 13.352048572585508",['A12'],nan
633,1971633,Lindauer Allee Ecke Ollenhauerstrasse,bus,"52.5754842412703, 13.332109090699971",['A22'],nan
634,1971634,Lindenhof,bus,"52.45993054002376, 13.361553900753751",['A74'],nan
635,1971635,Lindenstrasse Ecke Bahnhofstrasse,bus,"52.45100061928726, 13.57206056430924",['27E'],nan
636,1971636,Lindenstrasse Ecke Bahnhofstrasse,strassenbahn,"52.4505094,13.572684","['86', '83']",Q66095701
637,1971637,Lindenstrasse Ecke Hegelschule,strassenbahn,"52.4505094,13.572684","['85', '95']",Q66095701
638,1971638,Lindenstrasse Ecke Müllerstrasse,bus,"52.417547142375135, 13.306660718895618",['A1'],nan
639,1971639,Lindenstrasse Ecke Oranienstrasse,bus,"52.50708473337127, 13.398300858764117",['A75'],nan
640,1971640,Lindenstrasse Ecke Ostpreußendamm,bus,"52.41788577186651, 13.305240762668786",['A96'],nan
641,1971641,Lindenthaler Allee,s-bahn,"52.4375,13.2325",['KBS 154'],Q315891
642,1971642,Lindenthaler Allee Ecke Potsdamerchaussee,bus,"52.43097471755184, 13.229903762284746",['A3'],nan
643,1971643,Lindhorstweg,bus,"52.44148583643127, 13.50065005792854",['48'],nan
644,1971644,Lipschitzallee,u-bahn,"52.424722222222,13.462777777778",['7'],Q571467
645,1971645,Lockenhuhnweg Ecke Waßmannsdorfer Chaussee,bus,"52.40834715501733, 13.492448756839304",['A93'],nan
646,1971646,Louise-Schroeder-Platz,bus,"52.55713317342601, 13.365513694540711","['A89', 'A16']",nan
647,1971647,Ludwigsfelder Strasse Ecke Berlepschstrasse,bus,"52.424527463738926, 13.240229115318218",['A3'],nan
648,1971648,Luise-Schröder-Platz,bus,"52.55757019957571, 13.365470778195588",['A72'],nan
649,1971649,Luisenplatz,bus,"52.52005408723936, 13.2995133852506","['A87', 'A55', 'A89', 'A54', 'A21', 'A62']",nan
650,1971650,Lupsteiner Weg,bus,"52.40950895120702, 13.251647735398342",['A10'],nan
651,1971651,Luxemburgplatz,u-bahn,"52.528333333333,13.410277777778",['A'],Q658790
652,1971652,Luzerner Strasse Ecke Appzellerstrasse,bus,"52.42377073738956, 13.29623078655261",['A53'],nan
653,1971653,Lynarstrasse Ecke Schönwälderstrasse,bus,"52.548473356426605, 13.200798402856325",['A54'],nan
654,1971654,"Lübars, Alt-Lübars",bus,"52.61810884217379, 13.354625867884963",['A20'],nan
655,1971655,Lützowplatz,bus,"52.505029017314186, 13.351822867208506","['A29', 'A24', 'A16', 'A69']",nan
656,1971656,Machnower Strasse Ecke Berlepschstrasse,bus,"52.429772198727676, 13.257041343246735",['A3'],nan
657,1971657,Machnowerstrasse Ecke Königsweg,bus,"52.39761381021893, 13.143659401544761",['A18'],nan
658,1971658,Magdalenenstr.,u-bahn,"52.5125,13.486388888889",['E'],Q473901
659,1971659,Magistratsweg Ecke Brunsbütteler Damm,bus,"52.53308685678349, 13.157955808881047","['A31', 'A80']",nan
660,1971660,Mahlsdorf,s-bahn,"52.5121,13.6106",['KBS 100'],Q800484
661,1971661,Mahlsdorf-Süd,strassenbahn,"52.4741663,13.5991443",['83'],Q66368466
662,1971662,"Mahlsdorf-Süd, Hubertus",strassenbahn,"52.4741663,13.5991443",['82'],Q66368466
663,1971663,Mahlsdorfer Allee,bus,"52.47821522453253, 13.62080080927949",['8'],nan
664,1971664,Mahlsdorferstrasse,strassenbahn,"52.46229464957853, 13.582952304855402",['19'],nan
665,1971665,"Malchow, Dorfstrasse",bus,"52.580462270708544, 13.482797576255583",['L/41'],nan
666,1971666,Malchower Weg,bus,"52.56152031238405, 13.500485897507804",['L/41'],nan
667,1971667,Malteserstrasse Ecke Schneiderstrasse,bus,"52.433364055368834, 13.353036645746402",['A83'],nan
668,1971668,Mansteinstrasse Ecke Yorckstrasse,bus,"52.4933426283317, 13.367147711313105",['A50'],nan
669,1971669,Marchlewskistr.,u-bahn,"52.516794444444,13.444991666667",['E'],Q551768
670,1971670,Mariannenplatz,bus,"52.50228674193422, 13.42408622658593",['A28'],nan
671,1971671,Mariendorf,s-bahn,"52.4478,13.3609",['KBS 152'],Q800497
672,1971672,Mariendorfer Damm Ecke Kaiserstrasse,bus,"52.44555363764078, 13.385783004808394",['A33'],nan
673,1971673,Mariendorfer Weg Ecke Britzer Damm,bus,"52.464683082004356, 13.432915443588715",['A91'],nan
674,1971674,Marienfelde,s-bahn,"52.4242,13.3747",['KBS 152'],Q800485
675,1971675,"Marienfelde, Bahnstrasse Ecke Marienfelder Allee",bus,"52.42488748540186, 13.373068643851791",['A32'],nan
676,1971676,"Marienfelde, Daimlerstrasse",bus,"52.42310029473227, 13.382719145401357",['A77'],nan
677,1971677,"Marienfelde, Stadtrand-Siedlung",bus,"52.402439963596265, 13.35280954190421",['A52'],nan
678,1971678,Marienfelder Chaussee Ecke Quarzweg,bus,"52.41826123448547, 13.416876238913156",['A78'],nan
679,1971679,Marienstrasse Ecke Königsbergerstrasse,bus,"52.42958863028136, 13.321319796385126",['A11'],nan
680,1971680,Martin-Luther-Friedhof,bus,"52.598400543805816, 13.298350500981082",['A20'],nan
681,1971681,Martin-Luther-Strasse Ecke Hohenstaufenstrasse,bus,"52.494473157147276, 13.345858810541014",['A50'],nan
682,1971682,Marx-Engels-Platz,bus,"52.51617617310524, 13.400937413635054",['57'],nan
683,1971683,Marx-Engels-Platz,s-bahn,"52.5226,13.4022","['KBS 105', 'KBS 110', 'KBS 100', 'KBS 115']",Q689312
684,1971684,Marzahner Chaussee,bus,"52.53978688562053, 13.53943029431785","['53', '37']",nan
685,1971685,"Marzahner Chaussee, Springpfuhl",bus,"52.52561231977731, 13.533687321893124",['43'],nan
686,1971686,Mattenbuder Pfad,bus,"52.61707523041324, 13.220592455088175",['A14'],nan
687,1971687,Mehringdamm,u-bahn,"52.493888888889,13.388333333333","['7', '6']",Q657905
688,1971688,Mehringdamm Ecke Gneisenaustrasse,bus,"52.49294262719779, 13.387697510363818",['A19'],nan
689,1971689,Mehringdamm Ecke Yorckstrasse,bus,"52.492833951710935, 13.387517189860588",['A28'],nan
690,1971690,Melchiorstrasse,bus,"52.507363640945584, 13.421511817837857",['18'],nan
691,1971691,Mertensstrasse,bus,"52.565332528373894, 13.209365455782565",['A97'],nan
692,1971692,Messedamm Ecke Halenseestrasse,bus,"52.50360101364283, 13.278982549046914",['A65'],nan
693,1971693,Messedamm Ecke Masurenallee,bus,"52.50644249962144, 13.28029447678361","['A94', 'A4', 'A92']",nan
694,1971694,Metzer Strasse Ecke Pichelsdorferstrasse,bus,"52.52505313824352, 13.197178187384461",['A97'],nan
695,1971695,Mitschurinweg,bus,"52.31985269747132, 13.57429849376093",['D/38'],nan
696,1971696,Mittelbruchzeile,bus,"52.56732845059774, 13.372813943321887",['A79'],nan
697,1971697,"Moabit, Waldstrasse Ecke Turmstrasse",bus,"52.52718533455642, 13.33055251486945",['A1'],nan
698,1971698,Modersohnstrasse,bus,"52.50191344103973, 13.457846352975722",['34'],nan
699,1971699,Mollstrasse,strassenbahn,"52.52609176825713, 13.417554489914771",['75'],nan
700,1971700,Mollstrasse Ecke Hans-Beimler-Strasse,strassenbahn,"52.5255473,13.4202755",['74'],Q65548984
701,1971701,Moltkestrasse,bus,"52.440415619244135, 13.316289793677031",['A85'],nan
702,1971702,Morgensternstrasse Ecke Königsbergerstrasse,bus,"52.42817589507605, 13.325153471103432",['A17'],nan
703,1971703,Moritzplatz,bus,"52.50387355112676, 13.409983330065609",['A67'],nan
704,1971704,Moritzplatz,u-bahn,"52.503611111111,13.410833333333",['8'],Q374225
705,1971705,Moritzstrasse Ecke Altstädter Ring,bus,"52.53860731838488, 13.200757771756816",['A54'],nan
706,1971706,Munsterdamm Ecke Steglitzer Damm,bus,"52.45003044948948, 13.346702868396282",['A75'],nan
707,1971707,Märkisches Museum,u-bahn,"52.511944444444,13.408888888889",['A'],Q657871
708,1971708,Märkisches Zentrum,bus,"52.59979022467802, 13.35569734166884","['A22', 'A64']",nan
709,1971709,Möckernbrücke,u-bahn,"52.499166666667,13.382777777778","['7', '1']",Q704716
710,1971710,Müggelheim,Fähre,"52.429531265153656, 13.68907896626167",['295'],nan
711,1971711,Müggelheim,bus,"52.41018331064196, 13.665897531850348","['27', '27E']",nan
712,1971712,Müggelhort,Fähre,"52.433128133685045, 13.675872395181948",['294'],nan
713,1971713,Müggelseedamm,strassenbahn,"52.4498638,13.661534",['87'],Q66361484
714,1971714,Müggelturm,bus,"52.4294010043802, 13.61606552866164","['27', '27E']",nan
715,1971715,Mühlenstrasse Ecke Florastrasse,bus,"52.56538942967303, 13.406558045840182",['50'],nan
716,1971716,Müllerstrasse Ecke Petersallee,bus,"52.55870654240446, 13.337411889151134",['A64'],nan
717,1971717,Nauener Strasse Ecke Brunsbütteler Damm,bus,"52.53407399830358, 13.18166330888111","['A31', 'A80']",nan
718,1971718,Nennhauser Damm Ecke Brunsbütteler Damm,bus,"52.5324795309336, 13.141571708880917",['A80'],nan
719,1971719,Nervenklinik,bus,"52.56234285030248, 13.158489612035405",['A5'],nan
720,1971720,Nettelbeckplatz,bus,"52.54464511696315, 13.370154535054418","['A83', 'A99']",nan
721,1971721,Neu-Westend,u-bahn,"52.515555555556,13.261111111111",['1'],Q656431
722,1971722,Neuenhagen (b Bln),s-bahn,"52.5208,13.7003",['KBS 100'],Q7001614
723,1971723,Neukölln,s-bahn,"52.469166666667,13.441666666667","['KBS 151', 'KBS 150']",Q111325412
724,1971724,Neukölln,u-bahn,"52.469444,13.442222",['7'],Q21272767
725,1971725,"Niederschönhausen, Rolandstrasse",bus,"52.58358272730836, 13.421109439678144",['50'],nan
726,1971726,Nikolassee,s-bahn,"52.4317,13.1933","['KBS 154', 'KBS 156']",Q637052
727,1971727,"Nikolassee, Alemannenstrasse",bus,"52.42669870533291, 13.191370810886667",['A53'],nan
728,1971728,Nikolskoer Weg Ecke Königstrasse,bus,"52.414023223741864, 13.10923933566183",['A6'],nan
729,1971729,Nollendorfplatz,bus,"52.49968843634292, 13.353086438468269","['A19', 'A16']",nan
730,1971730,Nollendorfplatz,u-bahn,"52.499166666667,13.353888888889","['4', '2', '1']",Q571039
731,1971731,Nordend,bus,"52.59006569360479, 13.401740566033476",['7'],nan
732,1971732,Nordend,strassenbahn,"52.5902104,13.4027524",['46'],Q65032696
733,1971733,Nordendstrasse,strassenbahn,"52.588534,13.3882952",['22'],Q65428345
734,1971734,Nöldnerplatz,s-bahn,"52.5038,13.4853",['KBS 100'],Q4892447
735,1971735,Oberfeldstrasse,bus,"52.50917456097708, 13.553299967800196","['35', '8']",nan
736,1971736,Oberhofer Platz,bus,"52.42410259117963, 13.328170432694991","['A17', 'A53']",nan
737,1971737,Oberlandstrasse Ecke Germaniastrasse,bus,"52.4634624867915, 13.402082629697773",['A65'],nan
738,1971738,Oberseestrasse,strassenbahn,"52.546290375437586, 13.496608358175184",['63'],nan
739,1971739,Oberspree,bus,"52.45375171599733, 13.548485333062546",['65'],nan
740,1971740,Oberspree,s-bahn,"52.4525,13.5382",['KBS 142'],Q15192700
741,1971741,Obus- Betriebshof,bus,"52.52032432696463, 13.499405664504195",['30'],nan
742,1971742,Oderberger Strasse Ecke Eberswalderstrasse,strassenbahn,"52.54061076763243, 13.404559930731686",['13'],nan
743,1971743,Olivaer Platz,bus,"52.50060275704949, 13.313110622018645","['A19', 'A29', 'A69']",nan
744,1971744,Olympia-Stadion,u-bahn,"52.517222222222,13.25",['1'],Q656441
745,1971745,Olympiastadion,s-bahn,"52.511,13.2416",['KBS 157'],Q800506
746,1971746,Omnibus Betriebshof,strassenbahn,"52.5442346,13.4687215",['3'],Q65939077
747,1971747,Omnibusbahnhof,bus,"52.5063904873412, 13.281046332189074",['A66'],nan
748,1971748,Onkel Toms Hütte,u-bahn,"52.450277777778,13.253333333333",['2'],Q389214
749,1971749,Oranienburg,s-bahn,"52.7536,13.2496",['KBS 140'],Q2341669
750,1971750,Oranienburger Strasse Ecke Eichborndamm,bus,"52.59549417383574, 13.332977441612183",['A21'],nan
751,1971751,Oranienburger Tor,bus,"52.52716314203455, 13.38710905184874","['59', '57']",nan
752,1971752,Oranienburger Tor,strassenbahn,"52.5256031,13.3872745","['71', '63', '70', '69', '73', '46']",Q65095375
753,1971753,Oranienburgerstrasse,strassenbahn,"52.52634950691999, 13.387210259750876",['22'],nan
754,1971754,Oranienburgerstrasse Ecke Eichborndamm,bus,"52.595482650398, 13.333000152483027",['A62'],nan
755,1971755,Oraniendamm Ecke Waidmannsluster,bus,"52.60786033478019, 13.323799153131834",['A20'],nan
756,1971756,Oranienplatz,bus,"52.50232370505019, 13.415510129463975",['A29'],nan
757,1971757,Oskar-Helene-Heim,u-bahn,"52.450277777778,13.269722222222",['2'],Q681336
758,1971758,Osloer Strasse Ecke Koloniestrasse,bus,"52.55640961337782, 13.377455066122844",['A16'],nan
759,1971759,Osloer Strasse Ecke Prinzenstrasse,bus,"52.555883614865664, 13.384242937829042",['A71'],nan
760,1971760,Osloerstrasse Ecke Schwedenstrasse,bus,"52.556656015402865, 13.373862995391455",['A79'],nan
761,1971761,Osnabrückerstrasse Ecke Tauroggenerstrasse,bus,"52.52583431510053, 13.301951162931593",['A55'],nan
762,1971762,Ostbahnhof,bus,"52.50976670730252, 13.43372198235041","['40', '30', '32']",nan
763,1971763,Ostbahnhof,s-bahn,"52.51,13.4347","['KBS 105', 'KBS 110', 'KBS 143', 'KBS 100', 'KBS 115']",Q111325075
764,1971764,Ostkreuz,s-bahn,"52.5031,13.4689","['KBS 105', 'KBS 141', 'KBS 142', 'KBS 100', 'KBS 140']",Q111251530
765,1971765,Ostpreußendamm Ecke Königsberstrasse,bus,"52.43082349697322, 13.317486979621526",['A53'],nan
766,1971766,Ostpreußendamm Ecke Wismarerstrasse,bus,"52.41788159560598, 13.305221220107752",['A85'],nan
767,1971767,Ostseeplatz,bus,"52.54690788206193, 13.440959321705915",['56'],nan
768,1971768,Ostseestrasse,bus,"52.54785805575692, 13.438529960954577","['42', '31']",nan
769,1971769,Otto-Grotewohl-Strasse,bus,"52.51648503643047, 13.380749190010452",['9'],nan
770,1971770,Otto-Suhr-Allee Ecke Cauerstrasse,bus,"52.51468031353641, 13.315233438719382",['A1'],nan
771,1971771,Pacelli/Thielallee,bus,"52.4582178770838, 13.287112137316631",['A1'],nan
772,1971772,Pankow,s-bahn,"52.5667,13.4111","['KBS 141', 'KBS 142', 'KBS 140', 'KBS 143']",Q111273850
773,1971773,Pankow (Vinetastr.),u-bahn,"52.559166666667,13.413333333333",['A'],Q570906
774,1971774,"Pankow, Achtermannstrasse",bus,"52.57784197996129, 13.423357739901034",['52'],nan
775,1971775,"Pankow, Kirche",bus,"52.57124680898358, 13.410670715665145","['45', '55', '58']",nan
776,1971776,"Pankow, Kirche",strassenbahn,"52.5706452,13.4103115","['22', '49', '46']",Q65055066
777,1971777,"Pankow, Rathaus",bus,"52.56953908840178, 13.404186437171612","['45', '55', '7', '58']",nan
778,1971778,"Pankow, Rathaus",strassenbahn,"52.5694816,13.4038045","['22', '46']",Q65055060
779,1971779,Pankow-Heinersdorf,s-bahn,"52.5780653,13.4295093","['KBS 141', 'KBS 142', 'KBS 140', 'KBS 143']",Q4892366
780,1971780,Pankower Allee Ecke Provinzstrasse,bus,"52.5646878270483, 13.378063149237262",['A14'],nan
781,1971781,Pankower Allee Ecke Residenzstrasse,bus,"52.56382049696226, 13.364270686762953",['A72'],nan
782,1971782,Pankower Allee Ecke Residenzstrasse,bus,"52.56383591570264, 13.364287664704229","['A79', 'A61']",nan
783,1971783,Pankstrasse Ecke Badstrasse,bus,"52.55227404292705, 13.381387201509149","['A61', 'A70', 'A14']",nan
784,1971784,Papestr.,s-bahn,"52.4756,13.3644","['KBS 151', 'KBS 150', 'KBS 153', 'KBS 152']",Q111323139
785,1971785,Paradestr.,u-bahn,"52.478055555556,13.386111111111",['6'],Q557543
786,1971786,Parchimer Allee,u-bahn,"52.444722222222,13.449444444444",['7'],Q571855
787,1971787,Pasedagplatz,bus,"52.55967538566088, 13.46027955028295",['55'],nan
788,1971788,Pasedagplatz,strassenbahn,"52.5594027,13.4609594",['99'],Q65954665
789,1971789,Paulsternstrasse Ecke Gartenfelderstrasse,bus,"52.544121961729175, 13.247010457215051","['A55', 'A13']",nan
790,1971790,Paulsternstrasse Ecke Nonnendammallee,bus,"52.53818291159043, 13.24773288055646","['A10', 'A99']",nan
791,1971791,Paulsternstrasse Ecke Nonnendammallee- Gartenfeld,bus,"52.544142877552005, 13.247098918881873",['A72'],nan
792,1971792,Pechsteinstrasse Ecke Wittelsbacherstrasse,bus,"52.3856003598332, 13.425095290722926",['A82'],nan
793,1971793,Petershagen Nord,s-bahn,"52.5291,13.791",['KBS 100'],Q7178217
794,1971794,Pfaueninselchaussee Ecke Königstrasse,bus,"52.41883989599949, 13.153008281938446",['A6'],nan
795,1971795,"Philharmonie, Tiergartenstrasse",bus,"52.510896228371735, 13.369565371330399",['A48'],nan
796,1971796,Pichelsberg,s-bahn,"52.5103,13.2271",['KBS 157'],Q800488
797,1971797,Pichelsdorfer Strasse Ecke Heerstrasse,bus,"52.51304433612493, 13.196882088282605","['A97', 'A92']",nan
798,1971798,Pichelsdorfer Strasse Ecke Weißenburgerstrasse,bus,"52.522958125313195, 13.19769347393154",['A35'],nan
799,1971799,Pichelsdorferstrasse Ecke Heerstrasse,bus,"52.5131147119314, 13.196918559430642",['A94'],nan
800,1971800,Piesporter Strasse,bus,"52.560428325050296, 13.476578086985889",['55'],nan
801,1971801,Pionierpark,strassenbahn,"52.45798013233545, 13.541980829050775","['85', '95', '87', '19']",nan
802,1971802,Pionierpark,strassenbahn,"52.46662288590602, 13.521257686609333",['82'],nan
803,1971803,Pirnaer Strasse Ecke Großziethener Chaussee,bus,"52.411889770836744, 13.483697219760376",['A93'],nan
804,1971804,Pirolstrasse,bus,"52.49453185233631, 13.5550157098903",['35'],nan
805,1971805,Platz der Luftbrücke,bus,"52.48492348324912, 13.386363616800153",['A24'],nan
806,1971806,Platz vor dem Neuen Tor,bus,"52.52921245715711, 13.378513556812177",['57'],nan
807,1971807,Plänterwald,s-bahn,"52.4786,13.4733","['KBS 110', 'KBS 141', 'KBS 142', 'KBS 140', 'KBS 115']",Q7205917
808,1971808,Plötzensee,bus,"52.54273203272043, 13.323541051936482",['A23'],nan
809,1971809,Podbielskiallee,u-bahn,"52.464444444444,13.296388888889",['2'],Q571324
810,1971810,Poststadion,bus,"52.52995230474121, 13.362501420883438",['A90'],nan
811,1971811,Potsdamer Strasse Ecke Bülowstrasse,bus,"52.497900834061184, 13.362004472211375",['A19'],nan
812,1971812,Potsdamer Strasse Ecke Clayallee,bus,"52.43504800046437, 13.260425575475969","['A60', 'A1', 'A18']",nan
813,1971813,Potsdamer Strasse Ecke Fischerhüttenstrasse,bus,"52.43579469577881, 13.256081625321812",['A48'],nan
814,1971814,Potsdamer Strasse Ecke Lützowstrasse,bus,"52.50306013367635, 13.365710527592352",['A24'],nan
815,1971815,Potsdamer Strasse Ecke Schöneberger Ufer,bus,"52.50581655910509, 13.368252341285233",['A29'],nan
816,1971816,Potsdamerstrasse Ecke Alt-Lichtenrade,bus,"52.40451718178554, 13.406863489776676",['A82'],nan
817,1971817,Potsdamerstrasse Ecke Pallastrasse,bus,"52.49433996562869, 13.361047600974974",['A50'],nan
818,1971818,Prenzlauer Allee,s-bahn,"52.544775,13.426116","['KBS 141', 'KBS 142', 'KBS 140', 'KBS 143']",Q32661483
819,1971819,Prenzlauer Allee,strassenbahn,"52.5396522,13.4244789","['4', '13']",Q65222180
820,1971820,Prenzlauer Chaussee,bus,"52.572129197351266, 13.42884466195991",['52'],nan
821,1971821,Prenzlauer Promenade,bus,"52.5516751737526, 13.430326005865055","['55', '42', '31']",nan
822,1971822,Prenzlauer Promenade,strassenbahn,"52.55155536618067, 13.43032253030515","['70', '71', '3', '72']",nan
823,1971823,Prenzlauer Promenade Ecke Kissingenstrasse,bus,"52.56795804833996, 13.427734373319213",['45'],nan
824,1971824,Prenzlauer Tor,strassenbahn,"52.52709114016772, 13.415809370320808",['63'],nan
825,1971825,Preysingstrasse Ecke Belßstrasse,bus,"52.42719108026967, 13.365854870586807",['A83'],nan
826,1971826,Priesterweg,bus,"52.45843974216717, 13.354954808307342",['A76'],nan
827,1971827,Priesterweg,s-bahn,"52.4601,13.3563","['KBS 153', 'KBS 152']",Q800508
828,1971828,Prinzenallee Ecke Osloerstrasse,bus,"52.555955307807594, 13.384350687345004",['A89'],nan
829,1971829,Prinzenstr.,u-bahn,"52.498333333333,13.406111111111",['1'],Q689797
830,1971830,Prinzregentenstrasse,bus,"52.47867494317333, 13.332800921486728",['A16'],nan
831,1971831,Prühßstrasse Ecke Ringstrasse,bus,"52.44249986565702, 13.377821015179013",['A76'],nan
832,1971832,Pulsstrasse Ecke Sophie-Charlottestrasse,bus,"52.52423065032997, 13.285100532504304",['A87'],nan
833,1971833,Putlitzstr.,s-bahn,"52.536,13.344","['KBS 150', 'KBS 158']",Q465972
834,1971834,Putlitzstr. (Westhafen),u-bahn,"52.536,13.344",['9'],Q465972
835,1971835,Päwesiner Weg Ecke Seeburgerstrasse,bus,"52.526347644869524, 13.181851254649866",['A13'],nan
836,1971836,Quarzweg Ecke Tauernallee,bus,"52.42783434323616, 13.40499356838889",['A78'],nan
837,1971837,Quellweg Ecke Nonnendamm Allee,bus,"52.536668576718114, 13.26843642898379",['A55'],nan
838,1971838,Quellweg Ecke Nonnendammallee,bus,"52.53666458228939, 13.26846793663626","['A72', 'A99']",nan
839,1971839,"Quickborner Strasse, Märkische Viertel",bus,"52.60613532879739, 13.364225445968884",['A21'],nan
840,1971840,Radelandstrasse Ecke Niederheideweg,bus,"52.56622418682435, 13.157116704792886",['A63'],nan
841,1971841,Rahnsdorf,Fähre,"52.43653855560519, 13.680962416954838","['295', '294']",nan
842,1971842,Rahnsdorf,s-bahn,"52.4516372,13.6899776",['KBS 105'],Q800489
843,1971843,Rahnsdorf,strassenbahn,"52.443531694444445,13.685038",['87'],Q66361311
844,1971844,Rahnsdorfer Strasse,strassenbahn,"52.4985173,13.613101",['83'],Q66364532
845,1971845,Ramlerstrasse Ecke Swinemünderstrasse,bus,"52.547403724664676, 13.39425138451123",['A71'],nan
846,1971846,Raschdorffstrasse,bus,"52.57030595557299, 13.369982491158266",['A79'],nan
847,1971847,Raschdorffstrasse Ecke Residenzstrasse,bus,"52.56791514844143, 13.362193748481843",['A14'],nan
848,1971848,Rathaus Neukölln,u-bahn,"52.481666666667,13.434166666667",['7'],Q628770
849,1971849,Rathaus Reinickendorf,bus,"52.591657836908254, 13.32633527572607","['A14', 'A12']",nan
850,1971850,Rathaus Schöneberg,bus,"52.48515473887597, 13.345086596743203","['A85', 'A16', 'A4']",nan
851,1971851,Rathaus Schöneberg,u-bahn,"52.483116666667,13.341930555556",['4'],Q570926
852,1971852,Rathaus Spandau,bus,"52.53480744415333, 13.199505517192808","['A34', 'A54', 'A80', 'A99', 'A13', 'A97', 'A5', 'A31', 'A63']",nan
853,1971853,Rathaus Steglitz,bus,"52.45683244954579, 13.320757398114617","['A48', 'A85', 'A32', 'A17', 'A86']",nan
854,1971854,Rathaus Tiergarten,bus,"52.52649085974541, 13.338358982634196",['A70'],nan
855,1971855,Rathaus Wannsee,bus,"52.418440129670444, 13.148872492834737",['A6'],nan
856,1971856,Rathaus Zehlendorf,bus,"52.433207520111885, 13.259531923613192","['A60', 'A1', 'A3', 'A53']",nan
857,1971857,Rathenauplatz,bus,"52.49476692065044, 13.28558322563665",['A65'],nan
858,1971858,Rathenower Strasse Ecke Perlebergerstrasse,bus,"52.53249887039934, 13.350566762831942",['A72'],nan
859,1971859,Rathenower Strasse Ecke Quitzowstrasse,bus,"52.535109073221705, 13.349695163221012",['A99'],nan
860,1971860,Rathenower Strasse Ecke Turmstrasse,bus,"52.526726689956426, 13.355382566972915",['A24'],nan
861,1971861,Rathenowerstrasse Ecke Alt-Moabit,bus,"52.52363004752155, 13.356848710196214",['A90'],nan
862,1971862,Rehagener Strasse Ecke Bahnhofstrasse,bus,"52.386689522873326, 13.403260673807171",['A76'],nan
863,1971863,Rehberge,u-bahn,"52.5567,13.3412",['6'],Q253850
864,1971864,Reichssportfeldstrasse Ecke Heerstrasse,bus,"52.5075494871539, 13.242139455913255","['A94', 'A92']",nan
865,1971865,Reichstag,bus,"52.517799188341854, 13.375996413386812",['A69'],nan
866,1971866,Reichweindamm,bus,"52.53566875490431, 13.300531683586101",['A23'],nan
867,1971867,Reimerweg Ecke Heerstrasse,bus,"52.521842035510815, 13.154307020090478","['A97', 'A94']",nan
868,1971868,Reinickdorferstrasse Ecke Schulstrasse,bus,"52.55156247766452, 13.367356261472993",['A79'],nan
869,1971869,Reinickendorf,s-bahn,"52.5779,13.3506",['KBS 152'],Q800496
870,1971870,Reinickendorfer Str.,u-bahn,"52.539911111111,13.370377777778",['6'],Q559249
871,1971871,Rennbahn,bus,"52.431519887104706, 13.391508229384012","['A78', 'A76']",nan
872,1971872,Rennbahnstrasse,bus,"52.557029825201695, 13.466976894786637",['L/41'],nan
873,1971873,Revaler Strasse,strassenbahn,"52.508622624868046, 13.450878908201064",['3'],nan
874,1971874,Revalerstrasse,strassenbahn,"52.50855229639016, 13.450993553724967",['4'],nan
875,1971875,Rhodeländerweg Ecke Geflügelsteig,bus,"52.40712038226217, 13.484825827501469",['A93'],nan
876,1971876,Richard-Wagner-Platz,bus,"52.517490990443804, 13.306397097578404","['A87', 'A54', 'A86', 'A55']",nan
877,1971877,Richtershorn,strassenbahn,"52.40105,13.6248473",['86'],Q66481215
878,1971878,Ringslebenstrasse Ecke Buckowerdamm,bus,"52.417492009222066, 13.438157249492027",['A91'],nan
879,1971879,Ringstrasse Ecke Drakestrasse,bus,"52.43979421249329, 13.300201657021095",['A11'],nan
880,1971880,Ringstrasse Ecke Weißwasserweg,bus,"52.43427707263818, 13.287482459511958",['A84'],nan
881,1971881,Rittberg-Krankenhaus,bus,"52.42987951650218, 13.288961460110901",['A85'],nan
882,1971882,Robert-Koch-Platz,bus,"52.527570508835595, 13.37877230286134","['40', '18', '30']",nan
883,1971883,Roedernallee Ecke Am Nordgraben,bus,"52.58808451037192, 13.339884401348952",['A64'],nan
884,1971884,Roedernallee Ecke Nordgraben,bus,"52.58810167609578, 13.33983289022124",['A22'],nan
885,1971885,Roederplatz,bus,"52.52671388514014, 13.479662353432392",['30'],nan
886,1971886,Roederplatz,strassenbahn,"52.5266001,13.479068","['17', '19', '3', '69']",Q65685373
887,1971887,Rohrdamm Ecke Nonnendamm Allee,bus,"52.53678504389336, 13.264862647067227",['A23'],nan
888,1971888,"Romain-Rolland-Strasse, Heinersdorf",strassenbahn,"52.5725511,13.4371063",['71'],Q65096052
889,1971889,Roseneck,bus,"52.47580089902253, 13.282411270445099","['A29', 'A50', 'A60', 'A17', 'A19']",nan
890,1971890,Rosenthaler Platz,bus,"52.5296729549826, 13.401428926082492","['40', '30', '16']",nan
891,1971891,Rosenthaler Platz,strassenbahn,"52.5301769,13.4016121",['49'],Q65093945
892,1971892,Rosenthalerstrasse,strassenbahn,"52.59633,13.432876",['49'],Q66192394
893,1971893,Rudolf-Mosse-Strasse Ecke Mecklenburgischestrasse,bus,"52.47520639105146, 13.303313979014733",['A60'],nan
894,1971894,Rudolstädter Strasse Ecke Hohenzollerndamm,bus,"52.48840191702023, 13.302122404029097",['A50'],nan
895,1971895,Rudow Stadtgrenze,bus,"52.401396246491636, 13.513752704948178",['A41'],nan
896,1971896,Rudower Strasse Ecke Johannisthaler Chaussee,bus,"52.43432389104007, 13.469034346222157",['A52'],nan
897,1971897,Ruhleben,u-bahn,"52.525555555556,13.241388888889",['1'],Q656401
898,1971898,Ruhlsdorfer Strasse,strassenbahn,"52.477881678462985, 13.600743084850743",['83'],nan
899,1971899,Rummelsburg,s-bahn,"52.501244,13.478545",['KBS 105'],Q15107132
900,1971900,Ruppiner Chaussee Ecke Hennigsdorferstrasse,bus,"52.62649653256502, 13.22755277861851",['A14'],nan
901,1971901,Röntgental,s-bahn,"52.6487,13.5136",['KBS 141'],Q801386
902,1971902,"Rüdersdorf, Berghof",strassenbahn,"52.47364542473097, 13.761100477139374",['S-Bhf. Friedrichshagen <> Rüdersdorf'],nan
903,1971903,"Rüdersdorf, Heinitzstrasse",strassenbahn,"52.47300367314545, 13.776547132457198",['S-Bhf. Friedrichshagen <> Rüdersdorf'],nan
904,1971904,"Rüdersdorf, Karl-Marx-Platz",strassenbahn,"52.466474025436895, 13.805127733329565",['S-Bhf. Friedrichshagen <> Rüdersdorf'],nan
905,1971905,"Rüdersdorf, Post",strassenbahn,"52.47029587176764, 13.786537970773646",['S-Bhf. Friedrichshagen <> Rüdersdorf'],nan
906,1971906,"Rüdersdorf, Schulstrasse",strassenbahn,"52.469978487336554, 13.787024282488423",['S-Bhf. Friedrichshagen <> Rüdersdorf'],nan
907,1971907,"Rüdersdorf, Torellplatz",strassenbahn,"52.4740761,13.7714228",['S-Bhf. Friedrichshagen <> Rüdersdorf'],Q66542827
908,1971908,Rüdesheimer Platz,u-bahn,"52.473333333333,13.314444444444",['2'],Q167147
909,1971909,Rügenerstrasse Ecke Brunnenstrasse,bus,"52.544656698075954, 13.391038665703189",['A14'],nan
910,1971910,S-Bf. Nöldnerplatz,bus,"52.503292912315246, 13.48432831465842",['43'],nan
911,1971911,S-Bf.Leninallee,strassenbahn,"52.52851097343215, 13.455862308166953",['17'],nan
912,1971912,S-Bhf. Adlershof,strassenbahn,"52.435251,13.5408489",['84'],Q66363728
913,1971913,S-Bhf. Altglienicke,bus,"52.40840519773821, 13.558816171743953",['23'],nan
914,1971914,S-Bhf. Baumschulenweg,bus,"52.4674967534767, 13.489379882069517",['47'],nan
915,1971915,S-Bhf. Baumschulenweg,strassenbahn,"52.46749282015981, 13.489379267619205",['21'],nan
916,1971916,S-Bhf. Biesdorf,bus,"52.513432593832405, 13.555387279249894",['37'],nan
917,1971917,S-Bhf. Buch,bus,"52.636831376314575, 13.49252085642661","['51/B', '31']",nan
918,1971918,S-Bhf. Friedrichsf.-Ost,bus,"52.513812620310404, 13.518992774284273",['43'],nan
919,1971919,S-Bhf. Friedrichsfelde Ost,bus,"52.51386336175537, 13.519096048294683",['53'],nan
920,1971920,S-Bhf. Friedrichshagen,strassenbahn,"52.4564126,13.6253656","['87', '84']",Q66360784
921,1971921,S-Bhf. Friedrichshagen (Grenze),strassenbahn,"52.4576956,13.6266712",['S-Bhf. Friedrichshagen <> Rüdersdorf'],Q66499230
922,1971922,S-Bhf. Greifswalder Strasse,strassenbahn,"52.5407234,13.4382904","['74', '75']",Q65548932
923,1971923,S-Bhf. Greifswalderstrasse,strassenbahn,"52.5407234,13.4382904",['73'],Q65548932
924,1971924,S-Bhf. Grünau,bus,"52.41361515857581, 13.573796290663196",['36'],nan
925,1971925,S-Bhf. Grünau,strassenbahn,"52.413493,13.5746802",['86'],Q62470512
926,1971926,S-Bhf. Grünbergallee,bus,"52.39982232817773, 13.540170966673278","['23', '36']",nan
927,1971927,S-Bhf. Jannowitzbr.,bus,"52.51476199535727, 13.418004455320517","['16', '32']",nan
928,1971928,S-Bhf. Jannowitzbrücke,bus,"52.514865856141625, 13.41796028027267",['18'],nan
929,1971929,S-Bhf. Karlshorst,strassenbahn,"52.481331,13.5254433",['69'],Q65952829
930,1971930,"S-Bhf. Kaulsdorf, Planitzstrasse",bus,"52.51113864301491, 13.58755467300039",['27'],nan
931,1971931,S-Bhf. Köpenick,bus,"52.45882190200453, 13.579564677172508","['27', '27E']",nan
932,1971932,S-Bhf. Köpenick,strassenbahn,"52.4582153,13.5790435","['86', '83', '82']",Q66370784
933,1971933,S-Bhf. Leninallee,bus,"52.528513273942636, 13.455602547861579","['56', '37']",nan
934,1971934,S-Bhf. Leninallee,strassenbahn,"52.52851097343215, 13.455862308166953","['63', '74']",",+nan, nan"
935,1971935,S-Bhf. Mahlsdorf,bus,"52.51234908870327, 13.61221793610957","['44E', '44']",nan
936,1971936,S-Bhf. Mahlsdorf,strassenbahn,"52.51221826761895, 13.612190748726157",['83'],nan
937,1971937,S-Bhf. Nöldnerplatz,bus,"52.50326619516546, 13.484293730152238",['35'],nan
938,1971938,S-Bhf. Ostkreuz,strassenbahn,"52.50243021718411, 13.469020052690205",['82'],nan
939,1971939,S-Bhf. Pankow,bus,"52.56742037379333, 13.412250129587665",['58'],nan
940,1971940,S-Bhf. Pankow-Heinersdorf,strassenbahn,"52.577507820515834, 13.427853061920917",['49'],nan
941,1971941,S-Bhf. Plänterwald,strassenbahn,"52.479645467025435, 13.47567729609248","['87', '95']",nan
942,1971942,S-Bhf. Prenzlauer Allee,strassenbahn,"52.5448075,13.427408","['71', '72']",Q65219791
943,1971943,S-Bhf. Rahnsdorf,bus,"52.451628368326396, 13.691579101298974",['22'],nan
944,1971944,S-Bhf. Rahnsdorf,strassenbahn,"52.4514224698383, 13.693045597650851",['S-Bhf. Rahnsdorf <> Woltersdorfer Schleuse (VEB Woltersdorf)'],nan
945,1971945,S-Bhf. Rummelsburg,bus,"52.50179539105723, 13.478028581044718",['30'],nan
946,1971946,S-Bhf. Schönhauser Allee,strassenbahn,"52.5493619,13.4135734","['22', '49', '46']",Q65088013
947,1971947,S-Bhf. Spindlersfeld,strassenbahn,"52.4457311,13.5624298",['84'],Q66363397
948,1971948,S-Bhf. Treptower Park,bus,"52.49403640886682, 13.460762565516704",['47'],nan
949,1971949,S-Bhf. Wilhelmshagen,bus,"52.43886122089184, 13.721060252199655",['22'],nan
950,1971950,S-Bhf.Köpenick,strassenbahn,"52.4582153,13.5790435",['19'],Q66370784
951,1971951,S-Bhf.Leninallee,strassenbahn,"52.52851097343215, 13.455862308166953",['19'],nan
952,1971952,S-Bhf.Ostkreuz,strassenbahn,"52.50243021718411, 13.469020052690205",['21'],nan
953,1971953,Saaleckplatz,bus,"52.41629158246214, 13.323941962356194",['A17'],nan
954,1971954,Saalestrasse Ecke Sonnenallee,bus,"52.47386409957645, 13.455877929531225",['A95'],nan
955,1971955,Saargemünder Strasse Ecke Kehler Weg,bus,"52.45038485614678, 13.278764465501387",['A11'],nan
956,1971956,Saatwinkler Damm Ecke Beusselstrasse,bus,"52.53822719902082, 13.326113998305084",['A99'],nan
957,1971957,Saatwinkler Damm Ecke Seestrasse,bus,"52.53818364322516, 13.326107534172687",['A65'],nan
958,1971958,Sadowastrasse,bus,"52.482675472271694, 13.584833068425244",['8'],nan
959,1971959,Samariterstr.,u-bahn,"52.514722222222,13.464444444444",['E'],Q552891
960,1971960,Savignyplatz,s-bahn,"52.5051746,13.3190659","['KBS 151', 'KBS 157', 'KBS 156']",Q554382
961,1971961,Scharnhorststrasse,bus,"52.530048717863, 13.374421833191816",['57'],nan
962,1971962,Scharnweberstr. (Eichborndamm),u-bahn,"52.566944444444,13.312777777778",['6'],Q557586
963,1971963,Scharnweberstrasse Ecke Eichborndamm,bus,"52.56791756977036, 13.311937354178653",['A21'],nan
964,1971964,Scheelestrasse,bus,"52.41194946340951, 13.320405423960501",['A17'],nan
965,1971965,"Schildow, Kirche",bus,"52.63581867397586, 13.377719168374458",['7'],nan
966,1971966,Schillingstr.,u-bahn,"52.520278,13.421667",['E'],Q552899
967,1971967,Schlachtensee,s-bahn,"52.4401,13.2153",['KBS 154'],Q800509
968,1971968,Schlesisches Tor,u-bahn,"52.500833333333,13.441666666667",['1'],Q602282
969,1971969,Schlichtallee,bus,"52.50240917598442, 13.48669424692361",['30'],nan
970,1971970,Schlossplatz,bus,"52.444440717970195, 13.575132622824544",['27E'],nan
971,1971971,Schlossstrasse Ecke Spandauer Damm,bus,"52.519449844334574, 13.296040553968037",['A74'],nan
972,1971972,Schloß Ruhwald,bus,"52.5216045798143, 13.260396873505604",['A54'],nan
973,1971973,Schloßplatz,bus,"52.444440717970195, 13.575132622824544",['27'],nan
974,1971974,Schloßplatz Köpenick,strassenbahn,"52.4443409,13.5753837","['86', '84']",Q66095688
975,1971975,Schloßstrasse Ecke Albrechtstrasse,bus,"52.456886912179215, 13.320708391357552",['A32'],nan
976,1971976,Schmargendorf,s-bahn,"52.479672222222,13.312441666667","['KBS 151', 'KBS 150']",Q302810
977,1971977,Schmöckwitz,Fähre,"52.38261056878911, 13.64488174610681",['293'],nan
978,1971978,Scholzplatz,bus,"52.50678815703117, 13.22840316297602",['A92'],nan
979,1971979,Schopenhauer-Strasse Ecke Spanischeallee,bus,"52.4339726015606, 13.21202648643956",['A3'],nan
980,1971980,Schulenburgpark,bus,"52.4665445725577, 13.470341233609716",['A65'],nan
981,1971981,Schulzendorf (b Tegel),s-bahn,"52.6128,13.2462",['KBS 152'],Q800487
982,1971982,Schulzendorfer Strasse Ecke Hermsdorferdamm,bus,"52.610576512247896, 13.295489543523113",['A15'],nan
983,1971983,Schumannstrasse,bus,"52.52350700053633, 13.379478600060418",['18'],nan
984,1971984,Schumannstrasse Ecke Reinhardtstrasse,bus,"52.5232589926343, 13.383820696675322",['18'],nan
985,1971985,Schwarzer Weg Ecke Sonnenallee,bus,"52.46241684454058, 13.47666099798573",['A95'],nan
986,1971986,Schwedenstrasse Ecke Osloerstrasse,bus,"52.55669597443488, 13.373830371159125","['A89', 'A61']",nan
987,1971987,Schwiezerhaus,bus,"52.46177834654878, 13.133492629933269",['A34'],nan
988,1971988,Schäferberg,bus,"52.41562661861071, 13.12630868100336",['A6'],nan
989,1971989,Schäfersee,bus,"52.564360168832955, 13.363961686416738",['A71'],nan
990,1971990,Schöneberg,s-bahn,"52.4794,13.3517","['KBS 151', 'KBS 154', 'KBS 150']",Q543855
991,1971991,Schöneberger Ufer Ecke Potsdamerstrasse,bus,"52.505826863887506, 13.368263849542636","['A83', 'A75']",nan
992,1971992,Schönefelderstrasse Ecke Waltersdorferstrasse,bus,"52.41517717297603, 13.497868264575407",['A41'],nan
993,1971993,"Schöneiche, Dorfaue",strassenbahn,"52.47886105131975, 13.70053232372426",['S-Bhf. Friedrichshagen <> Rüdersdorf'],nan
994,1971994,"Schöneiche, Dorfstrasse",strassenbahn,"52.47856620635917, 13.694957894723224",['S-Bhf. Friedrichshagen <> Rüdersdorf'],nan
995,1971995,"Schöneiche, Goethepark",strassenbahn,"52.47079746484671, 13.688349606776411",['S-Bhf. Friedrichshagen <> Rüdersdorf'],nan
996,1971996,"Schöneiche, Grätzwalde",strassenbahn,"52.47410984584059, 13.71327932499737",['S-Bhf. Friedrichshagen <> Rüdersdorf'],nan
997,1971997,"Schöneiche, Jägerstrasse",strassenbahn,"52.47278762603676, 13.730566290724404",['S-Bhf. Friedrichshagen <> Rüdersdorf'],nan
998,1971998,"Schöneiche, Rahnsdorferstrasse",strassenbahn,"52.47476591959579, 13.692324354205697",['S-Bhf. Friedrichshagen <> Rüdersdorf'],nan
999,1971999,"Schöneiche, Schillerstrasse",strassenbahn,"52.47747516744112, 13.708762100565384",['S-Bhf. Friedrichshagen <> Rüdersdorf'],nan
1000,19711000,"Schöneiche, Waldstrasse",strassenbahn,"52.46776642462116, 13.68198321602651",['S-Bhf. Friedrichshagen <> Rüdersdorf'],nan
1001,19711001,Schöneweide,s-bahn,"52.455,13.509444444444","['KBS 110', 'KBS 141', 'KBS 142', 'KBS 140', 'KBS 115']",Q111323931
1002,19711002,Schönfließ,s-bahn,"52.6648,13.3397",['KBS 140'],Q801423
1003,19711003,Schönhauser Allee,s-bahn,"52.549329,13.413706","['KBS 141', 'KBS 142', 'KBS 140', 'KBS 143']",Q111264493
1004,19711004,Schönhauser Allee,strassenbahn,"52.5537705,13.4138898",['3'],Q65076842
1005,19711005,Schönhauser Allee,u-bahn,"52.549328888889,13.413706111111",['A'],Q47014936
1006,19711006,Schönholz,s-bahn,"52.5714,13.3814","['KBS 154', 'KBS 152']",Q800490
1007,19711007,Schützallee Ecke Clayallee,bus,"52.44218524554921, 13.265418143972825",['A60'],nan
1008,19711008,Schützallee Ecke Riemeisterstrasse,bus,"52.4417219193688, 13.261674100359738",['A3'],nan
1009,19711009,Seebugerstrasse Ecke Klosterstrasse,bus,"52.5291522895126, 13.195619521760054",['A13'],nan
1010,19711010,Seegefelder Weg,bus,"52.549813200063646, 13.128679816115987",['A63'],nan
1011,19711011,Seestr.,u-bahn,"52.55056,13.35194",['6'],Q554391
1012,19711012,Seestrasse Ecke Afrikanischestrasse,bus,"52.54624596766985, 13.344021652901555",['A64'],nan
1013,19711013,Seestrasse Ecke Beusselstrasse,bus,"52.53818549275737, 13.326163618163639",['A23'],nan
1014,19711014,Seidelstr. (Flughafen Tegel),u-bahn,"52.571111,13.302778",['6'],Q557582
1015,19711015,Senefelderplatz,u-bahn,"52.53242,13.412743",['A'],Q32661454
1016,19711016,Seydlitzstrasse Ecke Lehrterstrasse,bus,"52.52795924164237, 13.364206660289726",['A90'],nan
1017,19711017,Siemensstadt,s-bahn,"52.53923,13.26365",['KBS 159'],Q96080453
1018,19711018,Siemensstadt-Fürstenbrunn,s-bahn,"52.528,13.2695",['KBS 158'],Q18747940
1019,19711019,Sommerstrasse Ecke Klemkestrasse,bus,"52.57476543169972, 13.3735118377214",['A79'],nan
1020,19711020,Sonderhauserstrasse Ecke Hildburghauserstrasse,bus,"52.415956180519764, 13.341711771261744",['A2'],nan
1021,19711021,Sondershausener Strasse Ecke Hildburghauserstrasse,bus,"52.41593912926577, 13.341726815502268",['A11'],nan
1022,19711022,Sonnenallee,s-bahn,"52.473,13.4558",['KBS 150'],Q481364
1023,19711023,Sonnenallee Ecke Erkstrasse,bus,"52.48167462225099, 13.440103660480876",['A4'],nan
1024,19711024,Sonnenallee Ecke Pannierstrasse,bus,"52.48609620424968, 13.430217857961605",['A75'],nan
1025,19711025,Sophie-Charlotte-Platz,u-bahn,"52.510833333333,13.296666666667",['1'],Q657879
1026,19711026,Sophie-Charlotten-Platz,bus,"52.51094811093668, 13.296499935495818",['A74'],nan
1027,19711027,Sophie-Charlotten-Strasse Ecke Spandauer Damm,bus,"52.518808578800325, 13.286664234138879",['A87'],nan
1028,19711028,Sowjetisches Ehrenmal,bus,"52.485358959701166, 13.46705340935477",['47'],nan
1029,19711029,Spandau,s-bahn,"52.532, 13.2089","['KBS 157', 'KBS 158']",Q800491
1030,19711030,Spandau West,s-bahn,"52.5347,13.1958","['KBS 157', 'KBS 158']",Q111325678
1031,19711031,"Spandau, Markt",bus,"52.537581553341596, 13.203797305616401",['A56'],nan
1032,19711032,"Spandau, Wasserwerk",bus,"52.55592684238338, 13.16783600781684",['A34'],nan
1033,19711033,Spandauer Damm Ecke Fürstenbrunner Weg,bus,"52.51841552917632, 13.280166898552146",['A10'],nan
1034,19711034,Spandauer Damm Ecke Königin-Elisabeth-Strasse,bus,"52.51837002948088, 13.28016802012015",['A74'],nan
1035,19711035,Spandauer Damm Ecke Stadtautobahn,bus,"52.51857412672491, 13.283160489189049",['A65'],nan
1036,19711036,Spanische Allee Ecke Potsdamerchaussee,bus,"52.42961565609535, 13.22409178123359","['A3', 'A18']",nan
1037,19711037,Sperberstrasse,bus,"52.58732574489259, 13.226042437329946",['A14E'],nan
1038,19711038,Spichernstr. (Bundesallee),u-bahn,"52.496388888889,13.330555555556","['2', '9']",Q667046
1039,19711039,Spindlersfeld,s-bahn,"52.4472,13.5613",['KBS 142'],Q4892371
1040,19711040,Spittelmarkt,bus,"52.5113056030484, 13.401437968143412",['32'],nan
1041,19711041,Spittelmarkt,u-bahn,"52.511111111111,13.403611111111",['A'],Q569489
1042,19711042,Spreewaldplatz,bus,"52.49746662927152, 13.43173832995115",['A75'],nan
1043,19711043,Staaken,s-bahn,"52.5378,13.1414",['KBS 158'],Q477545
1044,19711044,Stadion Buschallee,strassenbahn,"52.5566718,13.4869834","['99', '70']",Q65504715
1045,19711045,Stadtberg,bus,"52.53441142039244, 13.541360189116462",['43'],nan
1046,19711046,Stadtmitte,u-bahn,"52.5122,13.3894",['A'],Q660066
1047,19711047,Stahlheimerstrasse,strassenbahn,"52.5525647,13.425432",['3'],Q65921488
1048,19711048,Stegerwaldstrasse Ecke Marienfelder Allee,bus,"52.42073131510698, 13.369265796384356",['A32'],nan
1049,19711049,Steglitz,s-bahn,"52.4562,13.3216",['KBS 154'],Q111264179
1050,19711050,Steglitzer Damm Ecke Bismarckstrasse,bus,"52.45103853874437, 13.337972380176712",['A2'],nan
1051,19711051,Steglitzer Damm Ecke Halskestrasse,bus,"52.45001256122418, 13.346717236952571","['A81', 'A83']",nan
1052,19711052,Steuerhaus,strassenbahn,"52.530493,13.4614989",['69'],Q65553632
1053,19711053,Strab. Bhf. Siegfriedstrasse,strassenbahn,"52.5206411,13.4994454",['69'],Q66014798
1054,19711054,Strab.-Betriebshof,strassenbahn,"52.5206411,13.4994454","['17', '19']",Q66014798
1055,19711055,Strandbad,bus,"52.599760109249864, 13.213133160337714",['A14E'],nan
1056,19711056,Strasse nach Saatwinkel,bus,"52.561942642559984, 13.254607013215507",['A13'],nan
1057,19711057,Strausberg,s-bahn,"52.531933,13.836933",['KBS 100'],Q7622326
1058,19711058,Strausberg Nord,s-bahn,"52.5902,13.9084",['KBS 100'],Q7622324
1059,19711059,Strausberg Stadt,s-bahn,"52.5766,13.8878",['KBS 100'],Q7622325
1060,19711060,Strausberger Platz,u-bahn,"52.518055555556,13.430833333333",['E'],Q570999
1061,19711061,Stresowplatz,bus,"52.53362877636616, 13.206781830760963","['A31', 'A5', 'A80']",nan
1062,19711062,Stresowplatz,bus,"52.53399215320223, 13.206691555024998",['A56'],nan
1063,19711063,Stromstrasse Ecke Alt-Moabit,bus,"52.52539701700869, 13.342786224224186",['A86'],nan
1064,19711064,Stromstrasse Ecke Turmstrasse,bus,"52.526341844675855, 13.343124963846464",['A24'],nan
1065,19711065,Stubenrauchstrasse,bus,"52.42413109104233, 13.48548111318564","['A52', '48']",nan
1066,19711066,Stubenrauchstrasse Ecke Kanalstrasse,bus,"52.43167138147915, 13.495271691543689",['A57'],nan
1067,19711067,Stölpchensee,bus,"52.409451062200475, 13.143793033461112",['A18'],nan
1068,19711068,"Stölpchensee, Glienickerstrasse",bus,"52.41159251323316, 13.136103952643023",['A66'],nan
1069,19711069,Suermondtstrasse,strassenbahn,"52.549051692659646, 13.501598848581892",['63'],nan
1070,19711070,Sundgauer Str.,s-bahn,"52.436291,13.273772",['KBS 154'],Q800513
1071,19711071,Sundgauer Strasse Ecke Berlinerstrasse,bus,"52.43833636899285, 13.271438368698744",['A48'],nan
1072,19711072,Säntisstrasse,bus,"52.41320161792562, 13.378457433742751","['A78', 'A76']",nan
1073,19711073,Südende,s-bahn,"52.4481,13.3536",['KBS 153'],Q800511
1074,19711074,Südstern,u-bahn,"52.489444444444,13.407777777778",['7'],Q656081
1075,19711075,Tauroggener Strasse Ecke Osnabrückerstrasse,bus,"52.525848873521234, 13.301915580118559",['A72'],nan
1076,19711076,Tegel,s-bahn,"52.5886,13.2894",['KBS 152'],Q800493
1077,19711077,Tegel,u-bahn,"52.58944,13.28389",['6'],Q656090
1078,19711078,Tegeler Strasse Ecke Fennstrasse,bus,"52.5379038369897, 13.361621241809747",['A83'],nan
1079,19711079,"Tegelort, Almazeile",bus,"52.57056766747865, 13.229206320115837",['A20'],nan
1080,19711080,Teltower Damm Ecke Potsdamerstrasse,bus,"52.435059519028655, 13.260384104797224","['A10', 'A53']",nan
1081,19711081,Teltower Strasse Ecke Charlottenburgerchaussee,bus,"52.52693840124093, 13.216003627032839",['A35'],nan
1082,19711082,Teltowerstrasse Ecke Charlottenburgerstrasse,bus,"52.52694632793839, 13.21601948232148",['A54'],nan
1083,19711083,Tempelhof,bus,"52.47100865527257, 13.385669584056798",['A68'],nan
1084,19711084,Tempelhof,s-bahn,"52.4708,13.3854","['KBS 151', 'KBS 150']",Q111264368
1085,19711085,Tempelhof,u-bahn,"52.47075,13.385361111111",['6'],Q3983109
1086,19711086,Tempelhofer Damm Ecke Ordensmeisterstrasse,bus,"52.45582321742813, 13.383969709705047",['A25'],nan
1087,19711087,Tempelhofer Damm Ecke Tempelhof,bus,"52.46600279683165, 13.385601564598742","['A73', 'A65']",nan
1088,19711088,Tessenowstrasse Ecke Roadernallee,bus,"52.583169728899165, 13.343714896398085",['A64'],nan
1089,19711089,Tessenowstrasse Ecke Roedernallee,bus,"52.58312467969267, 13.34369397778962",['A12'],nan
1090,19711090,Teuptitzerstrasse Ecke Kiehl-Ufer,bus,"52.47953358511357, 13.455564998960526",['A4'],nan
1091,19711091,Theodor-Heuss-Platz,bus,"52.50937134345749, 13.272564724049401","['A94', 'A4', 'A92']",nan
1092,19711092,Theodor-Heuss-Platz,u-bahn,"52.509722222222,13.273055555556",['1'],Q657857
1093,19711093,Thielplatz,u-bahn,"52.451111111111,13.282222222222",['2'],Q571331
1094,19711094,Thuner Platz,bus,"52.42375896990032, 13.296184869051308","['A85', 'A53']",nan
1095,19711095,Thälmannplatz,strassenbahn,"52.45059921293253, 13.752440969865605",['S-Bhf. Rahnsdorf <> Woltersdorfer Schleuse (VEB Woltersdorf)'],nan
1096,19711096,Thälmannplatz,u-bahn,"52.51167,13.38472",['A'],Q658391
1097,19711097,Tiergarten,s-bahn,"52.5144,13.3365","['KBS 157', 'KBS 156']",Q572112
1098,19711098,Tiergartenstrasse Ecke Hofjägerallee,bus,"52.50957037738087, 13.351367801648413",['A69'],nan
1099,19711099,Tiergartenstrasse Ecke Hofjägerstrasse,bus,"52.50959871663513, 13.351363960159109",['A24'],nan
1100,19711100,Tierpark Berlin,strassenbahn,"52.50297204519277, 13.520916474066839","['17', '19', '69']",nan
1101,19711101,Transvaalstrasse Ecke Afrikanischestrasse,bus,"52.55037720062858, 13.339088323376581",['A64'],nan
1102,19711102,"Treptow, Eichenstrasse",bus,"52.49476666624515, 13.45313221364275",['47'],nan
1103,19711103,"Treptow, Rathaus",bus,"52.48358899866382, 13.480324760498638",['47'],nan
1104,19711104,Treptower Park,s-bahn,"52.4938,13.4618","['KBS 110', 'KBS 141', 'KBS 142', 'KBS 140', 'KBS 115']",Q559274
1105,19711105,Treuenbrietzener Strasse Ecke Wilhelmsruher Damm,bus,"52.596917797110216, 13.360503823659403",['A62'],nan
1106,19711106,Turmstr.,u-bahn,"52.52585,13.341352777778",['9'],Q571400
1107,19711107,Turmstrasse Ecke Beusselstrasse,bus,"52.52737827445803, 13.328702359065009",['A23'],nan
1108,19711108,U-Bhf Parchimer Allee,bus,"52.44566826032012, 13.449942053238908",['A98'],nan
1109,19711109,U-Bhf- Pankow,strassenbahn,"52.5675692,13.4121641",['49'],Q65055075
1110,19711110,U-Bhf. Alt-Mariendorf,bus,"52.440202628447636, 13.387296995844753","['A77', 'A11', 'A78', 'A76']",nan
1111,19711111,U-Bhf. Blaschko-Allee,bus,"52.45247827369382, 13.448999962354293",['A41'],nan
1112,19711112,U-Bhf. Britz-Süd,bus,"52.43696136998766, 13.447541261443378",['A98'],nan
1113,19711113,U-Bhf. Bülowstrasse,bus,"52.49787469517453, 13.362124599310649","['A83', 'A75']",nan
1114,19711114,U-Bhf. Dahlem-Dorf,bus,"52.45807069736877, 13.289706947871178",['A68'],nan
1115,19711115,U-Bhf. Dimitroffstrasse,strassenbahn,"52.5401928,13.4113979","['4', '70', '22', '13', '49', '46']",Q65088313
1116,19711116,U-Bhf. Flughafen,bus,"52.48488595983176, 13.38599654703171",['A4'],nan
1117,19711117,U-Bhf. Friedrich-Wilhelm-Platz,bus,"52.47196472383641, 13.328450045496385","['A81', 'A2']",nan
1118,19711118,U-Bhf. Friedrich-Wlhelm-Patz,bus,"52.471352944875925, 13.328677559293238",['A25'],nan
1119,19711119,U-Bhf. Friedrichsf.,bus,"52.50662404064935, 13.511664823527427",['43'],nan
1120,19711120,U-Bhf. Friedrichsfelde,bus,"52.50624112361932, 13.512853060220209","['35', '8']",nan
1121,19711121,U-Bhf. Gesundbrunnen,bus,"52.548660755358114, 13.387873629581087","['A71', 'A61', 'A14', 'A99', 'A64']",nan
1122,19711122,U-Bhf. Hallesches Tor,bus,"52.497910015148264, 13.391307667735301","['A24', 'A95', 'A67']",nan
1123,19711123,U-Bhf. Johannisthaler Chaussee,bus,"52.42939879120581, 13.45322918593096",['A52'],nan
1124,19711124,U-Bhf. Kochstrasse,bus,"52.50669823641868, 13.390503218886558","['A29', 'A75']",nan
1125,19711125,U-Bhf. Kottbusser Tor,bus,"52.499122758255055, 13.4182411702772",['A67'],nan
1126,19711126,U-Bhf. Krumme Lanke,bus,"52.44308074990891, 13.24046555211665","['A3', 'A53']",nan
1127,19711127,U-Bhf. Kurfürstenstrasse,bus,"52.49972761554077, 13.362749156897042","['A84', 'A48']",nan
1128,19711128,U-Bhf. Kurt-Schumacher-Platz,bus,"52.56338157214657, 13.32719915637487",['A62'],nan
1129,19711129,U-Bhf. Leinestrasse,bus,"52.472634832836185, 13.428552064915147",['A91'],nan
1130,19711130,U-Bhf. Leopold-Platz,bus,"52.54640033291444, 13.359096803326494",['A12'],nan
1131,19711131,U-Bhf. Leopoldplatz,bus,"52.54638728410018, 13.359182634014466",['A64'],nan
1132,19711132,U-Bhf. Luxemburgerplatz,bus,"52.528646145999396, 13.41008675307388",['30'],nan
1133,19711133,U-Bhf. Luxemburgplatz,bus,"52.527978233139706, 13.410372775049936",['40'],nan
1134,19711134,U-Bhf. Luxemburgplatz,strassenbahn,"52.5286105,13.4104123","['71', '63', '73', '72', '75']",Q65690179
1135,19711135,U-Bhf. Marchlewskistrasse,bus,"52.51694156475367, 13.44263127423712",['34'],nan
1136,19711136,U-Bhf. Moritzplatz,bus,"52.50366899509004, 13.41055755394872",['A75'],nan
1137,19711137,U-Bhf. Märk. Museum,bus,"52.51268704851662, 13.41123144588713",['18'],nan
1138,19711138,U-Bhf. Neukölln,bus,"52.46951739972892, 13.44165342826323",['A77'],nan
1139,19711139,U-Bhf. Oskar-Helene-Heim,bus,"52.450279005868815, 13.270361987159156","['A60', 'A11', 'A1', 'A18']",nan
1140,19711140,U-Bhf. Pankow,bus,"52.56721533989539, 13.412199219637507","['7', '52']",nan
1141,19711141,U-Bhf. Pankow,strassenbahn,"52.5675692,13.4121641",['46'],Q65055075
1142,19711142,U-Bhf. Pankow (Vinetastrasse),bus,"52.559329803871, 13.413333194922279","['58', '50']",nan
1143,19711143,U-Bhf. Parchimer Allee,bus,"52.44566869961195, 13.44991915431808",['A25'],nan
1144,19711144,U-Bhf. Ruhleben,bus,"52.52596833151868, 13.241478578696297","['A54', 'A80', 'A56', 'A5', 'A35', 'A31']",nan
1145,19711145,U-Bhf. Rüdesheimer Platz,bus,"52.4720831087791, 13.314909778144818",['A17'],nan
1146,19711146,U-Bhf. Schlesisches Tor,bus,"52.50108419874335, 13.441971259873345",['A28'],nan
1147,19711147,U-Bhf. Seestrasse,bus,"52.550315408708514, 13.352298502985231","['A89', 'A16', 'A12', 'A65']",nan
1148,19711148,U-Bhf. Stadtmitte,bus,"52.5104179669139, 13.389881304836392",['59'],nan
1149,19711149,U-Bhf. Tegel,bus,"52.589503132547385, 13.283630715732999","['A20', 'A14', 'A15', 'A13']",nan
1150,19711150,U-Bhf. Tempelhof,bus,"52.4698750992553, 13.38558705982547",['A28'],nan
1151,19711151,U-Bhf. Thielplatz,bus,"52.45104520805668, 13.281736418792137",['A10'],nan
1152,19711152,U-Bhf. Thälmannplatz,bus,"52.511432831026575, 13.383450096801164","['59', '32']",nan
1153,19711153,U-Bhf. Turmstrasse,bus,"52.52632424312701, 13.341455452869354","['A90', 'A72']",nan
1154,19711154,U-Bhf. Zwickauer Damm,bus,"52.42316772174534, 13.484176739454373",['A57'],nan
1155,19711155,U-Bhf.Friedrichsfelde,bus,"52.506361976971874, 13.51268945651161",['53'],nan
1156,19711156,U-Bhf.Pankow,strassenbahn,"52.5675692,13.4121641",['22'],Q65055075
1157,19711157,U-Bhf.Turmstrasse,bus,"52.526371647047405, 13.340798067015479",['A70'],nan
1158,19711158,Uferstrasse Ecke Badstrasse,bus,"52.55367026662195, 13.377351365534434",['A64'],nan
1159,19711159,Uhlandstr.,u-bahn,"52.5025,13.325555555556",['3'],Q568224
1160,19711160,Uhlandstrasse Ecke Kurfürstendamm,bus,"52.502532428867724, 13.325280453057784",['A29'],nan
1161,19711161,Uhlandstrasse Ecke Lietzenburgerstrasse,bus,"52.5000208843936, 13.324889322236627",['A69'],nan
1162,19711162,Uhlenhorst,strassenbahn,"52.468276850494775, 13.5867542618861",['82'],nan
1163,19711163,Ullsteinstr.,u-bahn,"52.453775,13.384302777778",['6'],Q637870
1164,19711164,Unter den Eichen Ecke Habelschwerdterallee,bus,"52.44571623856252, 13.293689331540065",['A11'],nan
1165,19711165,Unter den Linden,bus,"52.51702903261799, 13.38895444458836",['18'],nan
1166,19711166,Urban-Krankenhaus,bus,"52.493469358698874, 13.406245116325284","['A95', 'A28']",nan
1167,19711167,Usedomer Strasse Ecke Brunnenstrasse,bus,"52.54111444748482, 13.393771487382672","['A64', 'A99']",nan
1168,19711168,VEB Autotrans,bus,"52.44338031555146, 13.518980156884613",['65'],nan
1169,19711169,VEB Bautransporte,bus,"52.44295541604966, 13.519519091051876",['26'],nan
1170,19711170,VEB Bootswerften,strassenbahn,"52.42547977761138, 13.586220039541647","['85', '83']",nan
1171,19711171,VEB Elektrokohle,bus,"52.52657182447818, 13.490269380511203",['30'],nan
1172,19711172,VEB Elektrokohle,strassenbahn,"52.5265974,13.4897656","['17', '19']",Q65685127
1173,19711173,Velten (Mark),s-bahn,"52.685,13.172222",['KBS 135'],Q19274518
1174,19711174,Verwaltungs-Gebäude,bus,"52.537063326963775, 13.262285169635492",['A10'],nan
1175,19711175,Viktoria-Luise-Platz,u-bahn,"52.496161111111,13.342702777778",['4'],Q178685
1176,19711176,Vinetaplatz,bus,"52.54113780146798, 13.398421301960559","['A64', 'A90', 'A71']",nan
1177,19711177,Vinetastrasse,strassenbahn,"52.559617, 13.413232",['46'],Q65075426
1178,19711178,Virchow-Krankenhaus,bus,"52.54371513062133, 13.339317916518894",['A16'],nan
1179,19711179,Voltastr.,u-bahn,"52.542093,13.393022",['8'],Q663308
1180,19711180,Waidmannslust,s-bahn,"52.6064,13.321",['KBS 154'],Q800492
1181,19711181,Waldemarplatz,bus,"52.43775537029681, 13.220189780766606",['A53'],nan
1182,19711182,Waldhornstrasse Ecke Waidmannsluster,bus,"52.602848011031845, 13.308122846179481",['A20'],nan
1183,19711183,Waldkrankenhaus,bus,"52.56214542863615, 13.158340085815741",['A5'],nan
1184,19711184,Waldsassener Strasse Ecke Ahrensdorfer Strasse,bus,"52.408225355200884, 13.350659531949683",['A2'],nan
1185,19711185,Waldschänke,bus,"52.443318139967566, 13.68593963431219",['22'],nan
1186,19711186,Waldstrasse Ecke Ollenhauerstrasse,bus,"52.575474808811066, 13.33213901491599",['A62'],nan
1187,19711187,Walter-Schreiber-Platz,bus,"52.465038263870944, 13.328465797721938","['A48', 'A2', 'A81', 'A85', 'A17', 'A86', 'A76']",nan
1188,19711188,Walter-Ulbricht-Stadion,strassenbahn,"52.535963327585435, 13.376321651970404","['63', '69']",nan
1189,19711189,Walter-Ulbricht-Stadion über Greifswalderstrasse,strassenbahn,"52.536515137173154, 13.377775719050113",['73'],nan
1190,19711190,Waltersdorf,bus,"52.36492901110609, 13.555712408051676",['D/38'],nan
1191,19711191,Walther-Schreiber-Platz,u-bahn,"52.465,13.328333333333",['9'],Q638584
1192,19711192,Walther-Ulbricht-Stadion,bus,"52.53664798445947, 13.378298128444149",['59'],nan
1193,19711193,Wannsee,bus,"52.42192223789253, 13.17584115774181","['A6', 'A3', 'A66']",nan
1194,19711194,Wannsee,s-bahn,"52.4214,13.1792","['KBS 154', 'KBS 156']",Q111325896
1195,19711195,Warnemünder Strasse Ecke Breitestrasse,bus,"52.475387773205306, 13.290476424172102",['A17'],nan
1196,19711196,Warschauer Str.,s-bahn,"52.506416666667,13.450955555556","['KBS 105', 'KBS 100']",Q111252298
1197,19711197,Warschauer Str. (< Ostkreuz),s-bahn,"52.506416666667,13.450955555556","['KBS 110', 'KBS 115']",Q664036
1198,19711198,Warschauer Str. (> Ostkreuz),s-bahn,"52.506416666667,13.450955555556",['KBS 143'],Q664036
1199,19711199,Warschauer Strasse,bus,"52.512432267445355, 13.452598837307189","['30', '34']",nan
1200,19711200,Warschauer Strasse,strassenbahn,"52.50502,13.44863",['3'],Q63490275
1201,19711201,"Wartenberg, Lindenbergerstrasse",bus,"52.574853834797615, 13.518015937548133",['39'],nan
1202,19711202,"Wartenberg, Siedlung",bus,"52.58393195902164, 13.53076033685478",['39'],nan
1203,19711203,Washingtonplatz,bus,"52.52421575930872, 13.370599576836959",['A83'],nan
1204,19711204,Wattstrasse Ecke Usedomerstrasse,bus,"52.54025184152471, 13.39064471206562",['A90'],nan
1205,19711205,Waßmannsdorfer Chaussee Ecke Großziethenerstrasse,bus,"52.41562947173571, 13.496800815740109",['A93'],nan
1206,19711206,Wedding,s-bahn,"52.5425,13.3661","['KBS 150', 'KBS 158']",Q638604
1207,19711207,Weddingplatz,bus,"52.54113612364086, 13.368501029385115","['A83', 'A90', 'A70', 'A72']",nan
1208,19711208,Weinmeisterhornweg Ecke Gatowerstrasse,bus,"52.509262939441044, 13.180337401840518",['A35'],nan
1209,19711209,Weinmeisterhornweg Ecke Wilhelmstrasse,bus,"52.511021675152456, 13.171598887862116",['A13'],nan
1210,19711210,"Weißensee, Nüßlerstrasse",bus,"52.56398537909407, 13.469733771213992",['56'],nan
1211,19711211,"Weißensee, Pasedagplatz",strassenbahn,"52.5594027,13.4609594","['73', '72']",Q65954665
1212,19711212,"Weißensee, Schwarzelfenweg",bus,"52.56729838338304, 13.46535452978551",['45'],nan
1213,19711213,Weißenseer Weg,bus,"52.53305919668049, 13.476252837088406",['37'],nan
1214,19711214,Weißenseer Weg,strassenbahn,"52.532258,13.476705","['63', '74']",Q65942700
1215,19711215,Wendenschloß,Fähre,"52.418495536542906, 13.587117060699361",['292'],nan
1216,19711216,Wendenschloß,strassenbahn,"52.4169658,13.5885926",['85'],Q66363928
1217,19711217,Wendenschloß Ecke Ekhofstrasse,strassenbahn,"52.41633000736971, 13.589690772826726",['83'],nan
1218,19711218,Wendenschloßstrasse Ecke Müggelheimerstrasse,bus,"52.44260945038952, 13.582258586234335",['27'],nan
1219,19711219,Wernerbad,bus,"52.51776756999088, 13.607950781560175",['49'],nan
1220,19711220,Wernerwerk,bus,"52.535626996027915, 13.275370882199947",['A99'],nan
1221,19711221,Wernerwerk,s-bahn,"52.534863,13.27599",['KBS 159'],Q96077001
1222,19711222,Westend,s-bahn,"52.5181,13.2844",['KBS 150'],Q323214
1223,19711223,Westkreuz,s-bahn,"52.5011,13.2839","['KBS 157', 'KBS 150', 'KBS 156']",Q678125
1224,19711224,Westpfahlweg,u-bahn,"52.446,13.386",['6'],Q554481
1225,19711225,Wiebestrasse Ecke Huttenstrasse,bus,"52.528373737577084, 13.319430350974567","['A24', 'A70', 'A72']",nan
1226,19711226,Wiener Brücke,strassenbahn,"52.49588477409083, 13.43650068505988","['87', '95']",nan
1227,19711227,Wiesenbaude,bus,"52.430495242672045, 13.31180861060395","['A11', 'A53']",nan
1228,19711228,"Wießensee, Bernkastelerstrasse",strassenbahn,"52.55700474140414, 13.467005851524313",['74'],nan
1229,19711229,Wildau,s-bahn,"52.32,13.634",['KBS 110'],Q8000974
1230,19711230,Wildenbruchstrasse Ecke Sonnenallee,bus,"52.48169672949658, 13.440142223599054",['A95'],nan
1231,19711231,Wilhelm-Piek-Strasse,strassenbahn,"52.52702460365742, 13.415673446354111","['71', '72']",nan
1232,19711232,Wilhelminenhofstrasse,strassenbahn,"52.460837970970566, 13.521054382869073","['17', '69', '21']",nan
1233,19711233,Wilhelminenhofstrasse Ecke Edisonstrasse,strassenbahn,"52.4619496,13.5139049","['87', '82']",Q65951882
1234,19711234,Wilhelmshagen,s-bahn,"52.4386,13.7222",['KBS 105'],Q800494
1235,19711235,Wilhelmsruh,s-bahn,"52.5814,13.3631",['KBS 154'],Q800495
1236,19711236,"Wilhelmsruh, Kopenhagener Strasse",bus,"52.5810790150792, 13.363686505238974",['A71'],nan
1237,19711237,"Wilhelmsruh, Schillerstrasse",bus,"52.58796525493634, 13.368781651322008",['45'],nan
1238,19711238,"Wilhelmsruhe, Fontanestrasse",bus,"52.58985938767378, 13.361193570257216",['55'],nan
1239,19711239,Wilhelmsruher Damm Ecke Eichhorster Weg,bus,"52.59622750478084, 13.34760087169217",['A64'],nan
1240,19711240,Wilhelmsruherdamm Ecke Dannenwalderweg,bus,"52.59583456532558, 13.339326603345377",['A21'],nan
1241,19711241,Wilhelmstrand,Fähre,"52.47414813158205, 13.496978297109985",['291'],nan
1242,19711242,Wilhelmstrasse,bus,"52.52797851356547, 13.19530184736694",['A34'],nan
1243,19711243,Wilhelmstrasse Ecke Adamstrasse,bus,"52.52107002529741, 13.187973386740664",['A35'],nan
1244,19711244,"Wilhemsruher Damm, Sektorengrenze",bus,"52.597333910146176, 13.367849330574769",['A62'],nan
1245,19711245,Wilmersdorf,s-bahn,"52.477658333333,13.328525","['KBS 151', 'KBS 150']",Q464094
1246,19711246,Wilmersdorfer Strasse Ecke Kantstrasse,bus,"52.50670415830274, 13.306674550076462","['A92', 'A66']",nan
1247,19711247,Wilmersdorfer Strasse Ecke Kurfürstendamm,bus,"52.50002844680595, 13.307125123915897","['A19', 'A29', 'A69']",nan
1248,19711248,Wilmersdorfer Strasse Ecke Stuttgarter Platz,bus,"52.50565911212379, 13.306975135365523",['A74'],nan
1249,19711249,Wilmersdorferstrasse Ecke Kantstrasse,bus,"52.50669449513379, 13.306675440959262",['A94'],nan
1250,19711250,Wilmersdorferstrasse Ecke Otto-Suhr-Allee,bus,"52.51811241460663, 13.304434824223463",['A87'],nan
1251,19711251,Wismarer Strasse Ecke Goerzallee,bus,"52.42194411178237, 13.29850122813426",['A1'],nan
1252,19711252,Wittenau (Kremmener Bahn),s-bahn,"52.597013,13.334329",['KBS 152'],Q111264319
1253,19711253,Wittenau (Nordbahn),s-bahn,"52.597013,13.334329",['KBS 154'],Q111264319
1254,19711254,Wittenauer Strasse Ecke Eichhorster Weg,bus,"52.603567444678504, 13.334500787387645",['A22'],nan
1255,19711255,Wittenauer Strasse Ecke Eichhorsterweg,bus,"52.60355532882215, 13.334494223837098",['A15'],nan
1256,19711256,Wittenbergplatz,bus,"52.50188939146253, 13.342697883756577","['A29', 'A73', 'A60', 'A85', 'A19']",nan
1257,19711257,Wittenbergplatz,u-bahn,"52.501944444444,13.343055555556","['2', '3', '1']",Q692727
1258,19711258,Witzleben,s-bahn,"52.5078,13.2836",['KBS 150'],Q321266
1259,19711259,Wolfmarsteig,bus,"52.41268952057738, 13.536602630335091",['23'],nan
1260,19711260,Wollankstr.,s-bahn,"52.5651525,13.3923627","['KBS 154', 'KBS 152']",Q800515
1261,19711261,"Wollankstrasse, Sektorengrenze",bus,"52.56430359772002, 13.392965448863897",['A70'],nan
1262,19711262,"Woltersdorf, Krankenhaus",strassenbahn,"52.447268599163, 13.76152918513502",['S-Bhf. Rahnsdorf <> Woltersdorfer Schleuse (VEB Woltersdorf)'],nan
1263,19711263,Woltersdorfer Schleuse,strassenbahn,"52.443313315690396, 13.763955523989587",['S-Bhf. Rahnsdorf <> Woltersdorfer Schleuse (VEB Woltersdorf)'],nan
1264,19711264,Wongrowitzer Steig,strassenbahn,"52.4669377,13.5853227",['83'],Q66370743
1265,19711265,Wröhmannerpark,bus,"52.54211043974185, 13.205928603238073",['A55'],nan
1266,19711266,Wröhmännerpark,bus,"52.54211748904623, 13.205924363736663","['A97', 'A54', 'A34', 'A56']",nan
1267,19711267,Wuhlheide,s-bahn,"52.4689,13.5533",['KBS 105'],Q800514
1268,19711268,Wutzkyallee,bus,"52.42577358082765, 13.473973229675313",['A52'],nan
1269,19711269,Wutzkyallee,u-bahn,"52.423333333333,13.475",['7'],Q571841
1270,19711270,Würzburger Strasse Ecke Bambergerstrasse,bus,"52.3881186408188, 13.419254676220243",['A82'],nan
1271,19711271,Yorckstr.,s-bahn,"52.491777777778,13.372141666667","['KBS 153', 'KBS 152']",Q21776729
1272,19711272,Yorckstrasse,u-bahn,"52.493056,13.370833",['7'],Q12011022
1273,19711273,Zabel-Krüger-Damm Ecke Oraniendamm,bus,"52.607852272409865, 13.323814094344057",['A12'],nan
1274,19711274,Zehlendorf,s-bahn,"52.4309,13.2584","['KBS 154', 'KBS 155']",Q737962
1275,19711275,Zeltinger Platz,bus,"52.633501673257435, 13.290447049862035","['A12', 'A15']",nan
1276,19711276,Zentralflughafen,bus,"52.390577379800106, 13.515594573201453",['36'],nan
1277,19711277,Zentralflughafen Berlin-Schönefeld,s-bahn,"52.3914,13.5128","['KBS 140', 'KBS 115']",Q661069
1278,19711278,Zentralschule,bus,"52.43465069286089, 13.703692212644038",['22'],nan
1279,19711279,Zentralviehhof,s-bahn,"52.5238,13.4644","['KBS 141', 'KBS 142', 'KBS 140', 'KBS 143']",Q800512
1280,19711280,Zepernick (b Bernau),s-bahn,"52.6598,13.5342",['KBS 141'],Q801657
1281,19711281,Zeuthen,s-bahn,"52.3486,13.6274","['KBS 110', 'KBS 141']",Q8069824
1282,19711282,Ziekowstrasse Ecke Gorkistrasse,bus,"52.59058635821372, 13.292106368112313",['A14'],nan
1283,19711283,Zitadellenweg Ecke Am Juliusturm,bus,"52.5377797402122, 13.21728514752948",['A55'],nan
1284,19711284,Zobeltitzstrasse Ecke Eichborndamm,bus,"52.56961381566704, 13.312560336097278",['A61'],nan
1285,19711285,"Zoo, Hardenbergplatz",bus,"52.507121394467354, 13.33326398937747","['A94', 'A55', 'A54', 'A73', 'A62', 'A92', 'A66']",nan
1286,19711286,Zoologischer Garten,s-bahn,"52.507222222222,13.3325","['KBS 151', 'KBS 157', 'KBS 156']",Q111326238
1287,19711287,Zoologischer Garten,u-bahn,"52.5058669,13.3330236","['9', '1']",Q4024764
1288,19711288,Zweibrücker Strasse Ecke Falkenseerchaussee,bus,"52.54675553552608, 13.188777044021656",['A63'],nan
1289,19711289,Zwickauer Damm,bus,"52.42412841468055, 13.48547693484881",['A57'],nan
1290,19711290,Zwickauer Damm,u-bahn,"52.423333333333,13.483888888889",['7'],Q572096
1291,19711291,Zwickauer Damm Ecke Neuköllnerstrasse,bus,"52.42412190520111, 13.485431075141827",['A41'],nan
