stop_name,type,line_name,stop_id,location,identifier
"Moabit, Waldstr. Ecke Turmstr.",autobus,A1,19710_west,,
Otto-Suhr-Allee Ecke Cauerstr.,autobus,A1,19711_west,,
Kurfürstendamm Ecke Leibnizstr.,autobus,A1,19712_west,,
Fehrbellinerplatz,autobus,A1,19713_west,,
Detmolderstr. Ecke Blissestr.,autobus,A1,19714_west,,
Breitenbachplatz,autobus,A1,19715_west,,
Botanischer Garten,autobus,A1,19716_west,,
Pacelli/Thielallee,autobus,A1,19717_west,,
Clayallee Ecke Königin-Luisestr.,autobus,A1,19718_west,,
U-Bhf. Oskar-Helene-Heim,autobus,A1,19719_west,,
Potsdamerstr. Ecke Clayallee,autobus,A1,197110_west,,
Rathaus Zehlendorf,autobus,A1,197111_west,,
Beeskowdamm Ecke Teltowerdamm,autobus,A1,197112_west,,
Wismarerstr. Ecke Goerzallee,autobus,A1,197113_west,,
Lindenstr. Ecke Müllerstr.,autobus,A1,197114_west,,
Haselhorsterdamm Ecke Gartenfelderstr.,autobus,A10,197115_west,,
Paulsternstr. Ecke Nonnendammallee,autobus,A10,197116_west,,
Verwaltungs-Gebäude,autobus,A10,197117_west,,
Spandauerdamm Ecke Fürstenbrunnerweg,autobus,A10,197118_west,,
Kaiserdamm Ecke Königin-Elisabethstr.,autobus,A10,197119_west,,
Amtsgericht,autobus,A10,197120_west,,
Kurfürstendamm Ecke Joachim-Friedrichstr.,autobus,A10,197121_west,,
Henriettenplatz,autobus,A10,197122_west,,
Elsterplatz,autobus,A10,197123_west,,
Königin-Luisestr. Ecke Pacelliallee,autobus,A10,197124_west,,
U-Bhf. Thielplatz,autobus,A10,197125_west,,
Berlinerstr. Ecke Unter den Eichen,autobus,A10,197126_west,,
Teltowerdamm Ecke Potsdamerstr.,autobus,A10,197127_west,,
Behring-Krankenhaus,autobus,A10,197128_west,,
Lupsteinerweg,autobus,A10,197129_west,,
"Dahlem, Waldfriedhof",autobus,A11,197130_west,,
U-Bhf. Oskar-Helene-Heim,autobus,A11,197131_west,,
Saargemünderstr. Ecke Kehlerweg,autobus,A11,197132_west,,
Corrensplatz,autobus,A11,197133_west,,
Unter den Eichen Ecke Habelschwerdterallee,autobus,A11,197134_west,,
Ringstr. Ecke Drakestr.,autobus,A11,197135_west,,
Wiesenbaude,autobus,A11,197136_west,,
Marienstr. Ecke Königsbergerstr.,autobus,A11,197137_west,,
Kranoldplatz,autobus,A11,197138_west,,
Geraerstr. Ecke Mariannenstr.,autobus,A11,197139_west,,
Sondershausenerstr. Ecke Hildburghauserstr.,autobus,A11,197140_west,,
Alt-Marienfelde Ecke Marienfelderallee,autobus,A11,197141_west,,
Daimlerstr. Ecke Großbeerenstr.,autobus,A11,197142_west,,
Körtingstr. Ecke Großbeerenstr.,autobus,A11,197143_west,,
U-Bhf. Alt-Mariendorf,autobus,A11,197144_west,,
Bernauerstr. Ecke Gartenstr.,autobus,A12,197145_west,,
Gartenplatz,autobus,A12,197146_west,,
U-Bhf. Leopold-Platz,autobus,A12,197147_west,,
U-Bhf. Seestr.,autobus,A12,197148_west,,
Bristolstr. Ecke Barfusstr.,autobus,A12,197149_west,,
Emmentalerstr. Ecke Aroserallee,autobus,A12,197150_west,,
Lindauerallee Ecke Aroserallee,autobus,A12,197151_west,,
Tessenowstr. Ecke Roedernallee,autobus,A12,197152_west,,
Rathaus Reinickendorf,autobus,A12,197153_west,,
Zabel-Krüger-Damm Ecke Oraniendamm,autobus,A12,197154_west,,
Almutstr. Ecke Berlinerstr.,autobus,A12,197155_west,,
Hermsdorferdamm Ecke Burgfrauenstr.,autobus,A12,197156_west,,
Zeltingerplatz,autobus,A12,197157_west,,
Donnersmarckplatz,autobus,A12,197158_west,,
Hainbuchenstr. Ecke Maximilian-Korso,autobus,A12,197159_west,,
Heiligensee,autobus,A13,197160_west,,
Gabelung,autobus,A13,197161_west,,
Karolinenstr. Ecke Heiligenseestr.,autobus,A13,197162_west,,
U-Bhf. Tegel,autobus,A13,197163_west,,
Bernauerstr. Ecke Berlinerstr.,autobus,A13,197164_west,,
Krankenhaus Tegel-Süd,autobus,A13,197165_west,,
Strasse nach Saatwinkel,autobus,A13,197166_west,,
Paulsternstr. Ecke Gartenfelderstr.,autobus,A13,197167_west,,
Daumstr. Ecke Am Juliusturm,autobus,A13,197168_west,,
Carl-Schurzstr. Ecke Am Juliusturm,autobus,A13,197169_west,,
Rathaus Spandau,autobus,A13,197170_west,,
Seebugerstr. Ecke Klosterstr.,autobus,A13,197171_west,,
Päwesinerweg Ecke Seeburgerstr.,autobus,A13,197172_west,,
Heerstr. Ecke Wilhelmstr.,autobus,A13,197173_west,,
Weinmeisterhornweg Ecke Wilhelmstr.,autobus,A13,197174_west,,
Heiligensee Ecke Alt-Heiligensee,autobus,A14,197175_west,,
Mattenbuder Pfad,autobus,A14,197176_west,,
Ruppinerchaussee Ecke Hennigsdorferstr.,autobus,A14,197177_west,,
Dambockstr. Ecke Ruppinerchaussee,autobus,A14,197178_west,,
Heiligenseestr. Ecke Karolinenstr.,autobus,A14,197179_west,,
U-Bhf. Tegel,autobus,A14,197180_west,,
Ziekowstr. Ecke Gorkistr.,autobus,A14,197181_west,,
Rathaus Reinickendorf,autobus,A14,197182_west,,
Bonhoeffer Klinik,autobus,A14,197183_west,,
Aroserallee Ecke Lindauerallee,autobus,A14,197184_west,,
Raschdorffstr. Ecke Residenzstr.,autobus,A14,197185_west,,
Pankowerallee Ecke Provinzstr.,autobus,A14,197186_west,,
Pankstr. Ecke Badstr.,autobus,A14,197187_west,,
U-Bhf. Gesundbrunnen,autobus,A14,197188_west,,
Rügenerstr. Ecke Brunnenstr.,autobus,A14,197189_west,,
Alt-Heiligensee,autobus,A14E,197190_west,,
Havelblick,autobus,A14E,197191_west,,
Strandbad,autobus,A14E,197192_west,,
Gemeindefriedhof,autobus,A14E,197193_west,,
Sperberstr.,autobus,A14E,197194_west,,
Falkenplatz,autobus,A14E,197195_west,,
Wittenauerstr. Ecke Eichhorsterweg,autobus,A15,197196_west,,
Cyclopstr. Ecke Oranienburgerstr.,autobus,A15,197197_west,,
Alt-Wittenau Ecke Eichborndamm,autobus,A15,197198_west,,
Breitenbachstr. Ecke Eichborndamm,autobus,A15,197199_west,,
Holzhauserstr. Ecke Breitenbachstr.,autobus,A15,1971100_west,,
Ernststr. Ecke Conradstr.,autobus,A15,1971101_west,,
Gorkistr. Ecke Ziekowstr.,autobus,A15,1971102_west,,
U-Bhf. Tegel,autobus,A15,1971103_west,,
Hermsdorferdamm Ecke Karolinenstr.,autobus,A15,1971104_west,,
Schulzendorferstr. Ecke Hermsdorferdamm,autobus,A15,1971105_west,,
Dominikus-Krankenhaus,autobus,A15,1971106_west,,
Donnersmarckplatz,autobus,A15,1971107_west,,
Zeltingerplatz,autobus,A15,1971108_west,,
Am Pilz,autobus,A15,1971109_west,,
"Frohnau, Invalidensiedlung",autobus,A15,1971110_west,,
Osloerstr. Ecke Koloniestr.,autobus,A16,1971111_west,,
Louise-Schroeder-Platz,autobus,A16,1971112_west,,
U-Bhf. Seestr.,autobus,A16,1971113_west,,
Virchow-Krankenhaus,autobus,A16,1971114_west,,
Fennstr. Ecke Tegelerstr.,autobus,A16,1971115_west,,
Birkenstr. Ecke Perlebergerstr.,autobus,A16,1971116_west,,
Hansaplatz,autobus,A16,1971117_west,,
Großer Stern,autobus,A16,1971118_west,,
Lützowplatz,autobus,A16,1971119_west,,
Nollendorfplatz,autobus,A16,1971120_west,,
Rathaus Schöneberg,autobus,A16,1971121_west,,
Prinzregentenstr.,autobus,A16,1971122_west,,
Bundesplatz,autobus,A16,1971123_west,,
Breitenbachplatz,autobus,A16,1971124_west,,
Englerallee,autobus,A16,1971125_west,,
"Grunewald, Fontanestr.",autobus,A17,1971126_west,,
Roseneck,autobus,A17,1971127_west,,
Warnemünderstr. Ecke Breitestr.,autobus,A17,1971128_west,,
U-Bhf. Rüdesheimerplatz,autobus,A17,1971129_west,,
Friedrich-Wilhelm-Platz,autobus,A17,1971130_west,,
Walter-Schreiber-Platz,autobus,A17,1971131_west,,
Rathaus Steglitz,autobus,A17,1971132_west,,
Bismarckstr. Ecke Albrechtstr.,autobus,A17,1971133_west,,
Leonorenstr. Ecke Siemensstr.,autobus,A17,1971134_west,,
Königsbergerstr. Ecke Ostpreußendamm,autobus,A17,1971135_west,,
Morgensternstr. Ecke Königsbergerstr.,autobus,A17,1971136_west,,
Oberhoferplatz,autobus,A17,1971137_west,,
Saaleckplatz,autobus,A17,1971138_west,,
Scheelestr.,autobus,A17,1971139_west,,
Celsiusstr.,autobus,A17,1971140_west,,
U-Bhf. Oskar-Helene-Heim,autobus,A18,1971141_west,,
Potsdamerstr. Ecke Clayallee,autobus,A18,1971142_west,,
Spanischeallee Ecke Potsdamerchaussee,autobus,A18,1971143_west,,
Kronprinzessinenweg Ecke Potsdamerchaussee,autobus,A18,1971144_west,,
Stölpchensee,autobus,A18,1971145_west,,
Machnowerstr. Ecke Königsweg,autobus,A18,1971146_west,,
Roseneck,autobus,A19,1971147_west,,
Hagenplatz,autobus,A19,1971148_west,,
Erdenerstr. Ecke Königsallee,autobus,A19,1971149_west,,
Henriettenplatz,autobus,A19,1971150_west,,
Wilmersdorferstr. Ecke Kurfürstendamm,autobus,A19,1971151_west,,
Olivaerplatz,autobus,A19,1971152_west,,
Joachimstalerstr. Ecke Kurfürstendamm,autobus,A19,1971153_west,,
Breitscheidplatz,autobus,A19,1971154_west,,
Wittenbergplatz,autobus,A19,1971155_west,,
Nollendorfplatz,autobus,A19,1971156_west,,
Potsdamerstr. Ecke Bülowstr.,autobus,A19,1971157_west,,
Bautzenerstr. Ecke Yorckstr.,autobus,A19,1971158_west,,
Katzbachstr. Ecke Yorckstr.,autobus,A19,1971159_west,,
Mehringdamm Ecke Gneisenaustr.,autobus,A19,1971160_west,,
Flughafen,autobus,A19,1971161_west,,
U-Bhf. Friedrich-Wilhelm-Platz,autobus,A2,1971162_west,,
Walter-Schreiber-Platz,autobus,A2,1971163_west,,
Bismarcktrasse Ecke Feuerbachstr.,autobus,A2,1971164_west,,
Steglitzerdamm Ecke Bismarckstr.,autobus,A2,1971165_west,,
Leonorenstr. Ecke Siemensstr.,autobus,A2,1971166_west,,
"Lankwitz, Kirche",autobus,A2,1971167_west,,
Lerbacherweg,autobus,A2,1971168_west,,
Sonderhauserstr. Ecke Hildburghauserstr.,autobus,A2,1971169_west,,
Waldsassenerstr. Ecke Ahrensdorferstr.,autobus,A2,1971170_west,,
"Tegelort, Almazeile",autobus,A20,1971171_west,,
Gerlindeweg,autobus,A20,1971172_west,,
Falkenplatz,autobus,A20,1971173_west,,
Freiheitsweg,autobus,A20,1971174_west,,
Heiligenseestr. Ecke Konradshöherstr.,autobus,A20,1971175_west,,
Karolinenstr. Ecke Heiligenseestr.,autobus,A20,1971176_west,,
U-Bhf. Tegel,autobus,A20,1971177_west,,
Hatzfeldtallee Ecke Waidmannslusterdamm,autobus,A20,1971178_west,,
Martin-Luther-Friedhof,autobus,A20,1971179_west,,
Freie Scholle,autobus,A20,1971180_west,,
Waldhornstr. Ecke Waidmannsluster,autobus,A20,1971181_west,,
Cyclopstr. Ecke Waidmannsluster,autobus,A20,1971182_west,,
Oraniendamm Ecke Waidmannsluster,autobus,A20,1971183_west,,
Am Vierrutenberg,autobus,A20,1971184_west,,
"Lübars, Alt-Lübars",autobus,A20,1971185_west,,
"Quickbornerstr., Märkische Viertel",autobus,A21,1971186_west,,
Wilhelmsruherdamm Ecke Dannenwalderweg,autobus,A21,1971187_west,,
Oranienburgerstr. Ecke Eichborndamm,autobus,A21,1971188_west,,
Alt-Wittenau Ecke Eichborndamm,autobus,A21,1971189_west,,
Breitenbachstr. Ecke Eichborndamm,autobus,A21,1971190_west,,
Scharnweberstr. Ecke Eichborndamm,autobus,A21,1971191_west,,
Kurt-Schumacher-Platz,autobus,A21,1971192_west,,
Heckerdamm Ecke Kurt-Schumacherdamm,autobus,A21,1971193_west,,
Jakob-Kaiser-Platz,autobus,A21,1971194_west,,
Luisenplatz,autobus,A21,1971195_west,,
Kantstr. Ecke Kaiser-Friedrichstr.,autobus,A21,1971196_west,,
Amtsgericht,autobus,A21,1971197_west,,
Kurfürstendamm Ecke Joachim-Friedrichstr.,autobus,A21,1971198_west,,
Hohenzollerndamm Ecke Seesenerstr.,autobus,A21,1971199_west,,
Fehrbellinerplatz,autobus,A21,1971200_west,,
Kurt-Schumacher-Platz,autobus,A22,1971201_west,,
Lindauerallee Ecke Ollenhauerstr.,autobus,A22,1971202_west,,
Roedernallee Ecke Nordgraben,autobus,A22,1971203_west,,
Märkisches Zentrum,autobus,A22,1971204_west,,
Calauerstr. Ecke Finsterwalderstr.,autobus,A22,1971205_west,,
Wittenauerstr. Ecke Eichhorsterweg,autobus,A22,1971206_west,,
Hardenbergplatz,autobus,A23,1971207_west,,
Ernst-Reuter-Platz,autobus,A23,1971208_west,,
Hansaplatz,autobus,A23,1971209_west,,
Gotzkowskystr. Ecke Alt-Moabit,autobus,A23,1971210_west,,
Turmstr. Ecke Beusselstr.,autobus,A23,1971211_west,,
Seestr. Ecke Beusselstr.,autobus,A23,1971212_west,,
Plötzensee,autobus,A23,1971213_west,,
Reichweindamm,autobus,A23,1971214_west,,
Jakob-Kaiser-Platz,autobus,A23,1971215_west,,
Heckerdamm Ecke Kurt-Schumacherdamm,autobus,A23,1971216_west,,
Halemweg Ecke Toeplerstr.,autobus,A23,1971217_west,,
Goebelplatz,autobus,A23,1971218_west,,
Rohrdamm Ecke Nonnendammallee,autobus,A23,1971219_west,,
Buolstr. Ecke Rohrdamm,autobus,A23,1971220_west,,
Wiebestr. Ecke Huttenstr.,autobus,A24,1971221_west,,
Gotzkowskystr. Ecke Turmstr.,autobus,A24,1971222_west,,
Stromstr. Ecke Turmstr.,autobus,A24,1971223_west,,
Rathenowerstr. Ecke Turmstr.,autobus,A24,1971224_west,,
Alt-Moabit Ecke Paulstr.,autobus,A24,1971225_west,,
John-Foster-Dulles-Allee Ecke Spreeweg,autobus,A24,1971226_west,,
Tiergartenstr. Ecke Hofjägerstr.,autobus,A24,1971227_west,,
Lützowplatz,autobus,A24,1971228_west,,
Potsdamerstr. Ecke Lützowstr.,autobus,A24,1971229_west,,
Askanischerplatz,autobus,A24,1971230_west,,
U-Bhf. Hallesches Tor,autobus,A24,1971231_west,,
Gneisenaustr. Ecke Zossenstr.,autobus,A24,1971232_west,,
Columbiadamm Ecke Friesenstr.,autobus,A24,1971233_west,,
Platz der Luftbrücke,autobus,A24,1971234_west,,
U-Bhf. Friedrich-Wlhelm-Patz,autobus,A25,1971235_west,,
Kaisereiche,autobus,A25,1971236_west,,
Grazerplatz,autobus,A25,1971237_west,,
Attilaplatz,autobus,A25,1971238_west,,
Tempelhoferdamm Ecke Ordensmeisterstr.,autobus,A25,1971239_west,,
Gottlieb-Dunkelstr. Ecke Tempelhoferweg,autobus,A25,1971240_west,,
Britzerdamm,autobus,A25,1971241_west,,
U-Bhf. Parchimerallee,autobus,A25,1971242_west,,
Grünerweg Ecke Buschkrugallee,autobus,A25,1971243_west,,
U-Bhf. Tempelhof,autobus,A28,1971244_west,,
Dudenstr. Ecke Katzbachstr.,autobus,A28,1971245_west,,
Mehringdamm Ecke Yorckstr.,autobus,A28,1971246_west,,
Urban-Krankenhaus,autobus,A28,1971247_west,,
Mariannenplatz,autobus,A28,1971248_west,,
U-Bhf. Schlesisches Tor,autobus,A28,1971249_west,,
Heckmannufer Ecke Schlesischestr.,autobus,A28,1971250_west,,
Roseneck,autobus,A29,1971251_west,,
Berkaerstr. Ecke Teplitzerstr.,autobus,A29,1971252_west,,
Bismarckplatz,autobus,A29,1971253_west,,
Henriettenplatz,autobus,A29,1971254_west,,
Joachim-Friedrichstr. Ecke Kurfürstendamm,autobus,A29,1971255_west,,
Wilmersdorferstr. Ecke Kurfürstendamm,autobus,A29,1971256_west,,
Olivaerplatz,autobus,A29,1971257_west,,
Uhlandstr. Ecke Kurfürstendamm,autobus,A29,1971258_west,,
Joachimstalerstr. Ecke Kurfürstendamm,autobus,A29,1971259_west,,
Wittenbergplatz,autobus,A29,1971260_west,,
Lützowplatz,autobus,A29,1971261_west,,
Potsdamerstr. Ecke Schöneberger Ufer,autobus,A29,1971262_west,,
Askanischerplatz,autobus,A29,1971263_west,,
U-Bhf. Kochstr.,autobus,A29,1971264_west,,
Oranienplatz,autobus,A29,1971265_west,,
Düppel-Süd,autobus,A3,1971266_west,,
Ludwigsfelderstr. Ecke Berlepschstr.,autobus,A3,1971267_west,,
Machnowerstr. Ecke Berlepschstr.,autobus,A3,1971268_west,,
Rathaus Zehlendorf,autobus,A3,1971269_west,,
Schützallee Ecke Riemeisterstr.,autobus,A3,1971270_west,,
U-Bhf. Krumme Lanke,autobus,A3,1971271_west,,
Lindenthalerallee Ecke Potsdamerchaussee,autobus,A3,1971272_west,,
Spanischeallee Ecke Potsdamerchaussee,autobus,A3,1971273_west,,
Schopenhauerstr. Ecke Spanischeallee,autobus,A3,1971274_west,,
Borussenstr. Ecke Spanischeallee,autobus,A3,1971275_west,,
Wannsee,autobus,A3,1971276_west,,
Am Großen Wannsee Ecke Königstr.,autobus,A3,1971277_west,,
Koblanckstr. Ecke Am Großen Wannsee,autobus,A3,1971278_west,,
Krankenhaus Wannsee,autobus,A3,1971279_west,,
Heckeshorn,autobus,A3,1971280_west,,
U-Bhf. Ruhleben,autobus,A31,1971281_west,,
Stresowplatz,autobus,A31,1971282_west,,
Rathaus Spandau,autobus,A31,1971283_west,,
Nauenerstr. Ecke Brunsbüttelerdamm,autobus,A31,1971284_west,,
Magistratsweg Ecke Brunsbüttelerdamm,autobus,A31,1971285_west,,
Heidebergplan,autobus,A31,1971286_west,,
Breitenbachplatz,autobus,A32,1971287_west,,
Gritznerstr. Ecke Schildhornstr.,autobus,A32,1971288_west,,
Schloßstr. Ecke Albrechtstr.,autobus,A32,1971289_west,,
Rathaus Steglitz,autobus,A32,1971290_west,,
Bismarckstr. Ecke Albrechtstr.,autobus,A32,1971291_west,,
"Lankwitz, Kirche",autobus,A32,1971292_west,,
Belßstr. Ecke Malteserstr.,autobus,A32,1971293_west,,
Alt-Marienfelde Ecke Marienfelderallee,autobus,A32,1971294_west,,
Stegerwaldstr. Ecke Marienfelderallee,autobus,A32,1971295_west,,
"Marienfelde, Bahnstr. Ecke Marienfelderallee",autobus,A32,1971296_west,,
Berlinickestr.,autobus,A33,1971297_west,,
Bismarckstr. Ecke Steglitzerdamm,autobus,A33,1971298_west,,
Heinrich-Seidelstr. Ecke Steglitzerdamm,autobus,A33,1971299_west,,
Gersdorfstr. Ecke Kaiserstr.,autobus,A33,1971300_west,,
Mariendorferdamm Ecke Kaiserstr.,autobus,A33,1971301_west,,
Dirschelweg Ecke Rixdorferstr.,autobus,A33,1971302_west,,
"Spandau, Wasserwerk",autobus,A34,1971303_west,,
Friedhof,autobus,A34,1971304_west,,
Askanierring,autobus,A34,1971305_west,,
Wröhmännerpark,autobus,A34,1971306_west,,
Rathaus Spandau,autobus,A34,1971307_west,,
Wilhelmstr.,autobus,A34,1971308_west,,
Adamstr.,autobus,A34,1971309_west,,
Heerstr.,autobus,A34,1971310_west,,
Gatowerstr.,autobus,A34,1971311_west,,
"Gatow, Kirche",autobus,A34,1971312_west,,
Großglienickerweg,autobus,A34,1971313_west,,
Krankenhaus Hohengatow,autobus,A34,1971314_west,,
Krankenhaus Havelhöhe,autobus,A34,1971315_west,,
Alt-Kladow,autobus,A34,1971316_west,,
Schwiezerhaus,autobus,A34,1971317_west,,
Gutshof,autobus,A34,1971318_west,,
U-Bhf. Ruhleben,autobus,A35,1971319_west,,
Teltowerstr. Ecke Charlottenburgerchaussee,autobus,A35,1971320_west,,
Krowelstr.,autobus,A35,1971321_west,,
Pichelsdorferstr. Ecke Weißenburgerstr.,autobus,A35,1971322_west,,
Adamstr. Ecke Földerichstr.,autobus,A35,1971323_west,,
Wilhelmstr. Ecke Adamstr.,autobus,A35,1971324_west,,
Heerstr. Ecke Gatowerstr.,autobus,A35,1971325_west,,
Weinmeisterhornweg Ecke Gatowerstr.,autobus,A35,1971326_west,,
"Gatow, Kirche",autobus,A35,1971327_west,,
Krankenhaus Hohengatow,autobus,A35,1971328_west,,
Krankenhaus Havelhöhe,autobus,A35,1971329_west,,
Alt-Kladow Ecke Kladowerdamm,autobus,A35,1971330_west,,
Krampnitzerweg,autobus,A35,1971331_west,,
Hottengrund,autobus,A35,1971332_west,,
Brixplatz,autobus,A4,1971333_west,,
Theodor-Heuss-Platz,autobus,A4,1971334_west,,
Messedamm Ecke Masurenallee,autobus,A4,1971335_west,,
Henriettenplatz,autobus,A4,1971336_west,,
Hochmeisterplatz,autobus,A4,1971337_west,,
Fehrbellinerplatz,autobus,A4,1971338_west,,
Bundesallee Ecke Badenschestr.,autobus,A4,1971339_west,,
Rathaus Schöneberg,autobus,A4,1971340_west,,
Hauptstr. Ecke Dominicusstr.,autobus,A4,1971341_west,,
Kaiser-Wilhelm-Platz,autobus,A4,1971342_west,,
U-Bhf. Flughafen,autobus,A4,1971343_west,,
Friesenstr. Ecke Columbiadamm,autobus,A4,1971344_west,,
Kienitzerstr. Ecke Hermannstr.,autobus,A4,1971345_west,,
Sonnenallee Ecke Erkstr.,autobus,A4,1971346_west,,
Teuptitzerstr. Ecke Kiehl-Ufer,autobus,A4,1971347_west,,
Gradestr.,autobus,A41,1971348_west,,
U-Bhf. Blaschko-Allee,autobus,A41,1971349_west,,
Krankenhaus Neukölln,autobus,A41,1971350_west,,
Zwickauerdamm Ecke Neuköllnerstr.,autobus,A41,1971351_west,,
Schönefelderstr. Ecke Waltersdorferstr.,autobus,A41,1971352_west,,
Rudow Stadtgrenze,autobus,A41,1971353_west,,
Potsdamerstr. Ecke Fischerhüttenstr.,autobus,A48,1971354_west,,
Sundgauerstr. Ecke Berlinerstr.,autobus,A48,1971355_west,,
Drakestr. Ecke Unter den Eichen,autobus,A48,1971356_west,,
Rathaus Steglitz,autobus,A48,1971357_west,,
Walter-Schreiber-Platz,autobus,A48,1971358_west,,
Innsbruckerplatz,autobus,A48,1971359_west,,
Kaiser-Wilhelm-Platz,autobus,A48,1971360_west,,
U-Bhf. Kurfürstenstr.,autobus,A48,1971361_west,,
"Philharmonie, Tiergartenstr.",autobus,A48,1971362_west,,
U-Bhf. Ruhleben,autobus,A5,1971363_west,,
Stresowplatz,autobus,A5,1971364_west,,
Rathaus Spandau,autobus,A5,1971365_west,,
Falkenseerchaussee Ecke Zeppelinstr.,autobus,A5,1971366_west,,
Waldkrankenhaus,autobus,A5,1971367_west,,
Nervenklinik,autobus,A5,1971368_west,,
Roseneck,autobus,A50,1971369_west,,
Forckenbeckstr. Ecke Hohenzollerndamm,autobus,A50,1971370_west,,
Rudolstädterstr. Ecke Hohenzollerndamm,autobus,A50,1971371_west,,
Fehrbellinerplatz,autobus,A50,1971372_west,,
Martin-Lutherstr. Ecke Hohenstaufenstr.,autobus,A50,1971373_west,,
Potsdamerstr. Ecke Pallastr.,autobus,A50,1971374_west,,
Mansteinstr. Ecke Yorckstr.,autobus,A50,1971375_west,,
"Marienfelde, Stadtrand-Siedlung",autobus,A52,1971376_west,,
Alt-Marienfelde Ecke Marienfelderallee,autobus,A52,1971377_west,,
Lichtenraderdamm Ecke Buckowerchaussee,autobus,A52,1971378_west,,
Buckowerdamm Ecke Alt-Buckow,autobus,A52,1971379_west,,
U-Bhf. Johannisthalerchaussee,autobus,A52,1971380_west,,
Rudowerstr. Ecke Johannisthalerchaussee,autobus,A52,1971381_west,,
Wutzkyallee,autobus,A52,1971382_west,,
Efeuweg,autobus,A52,1971383_west,,
Stubenrauchstr.,autobus,A52,1971384_west,,
"Nikolassee, Alemannenstr.",autobus,A53,1971385_west,,
Krottnaurerstr.,autobus,A53,1971386_west,,
Waldemarplatz,autobus,A53,1971387_west,,
Argentinischeallee Ecke Matterhornstr.,autobus,A53,1971388_west,,
U-Bhf. Krumme Lanke,autobus,A53,1971389_west,,
Teltowerdamm Ecke Potsdamerstr.,autobus,A53,1971390_west,,
Rathaus Zehlendorf,autobus,A53,1971391_west,,
Knesebeckstr. Ecke Seehofstr.,autobus,A53,1971392_west,,
Dahlemerweg Ecke Seehofstr.,autobus,A53,1971393_west,,
4. Ring,autobus,A53,1971394_west,,
Luzernerstr. Ecke Appzellerstr.,autobus,A53,1971395_west,,
Thunerplatz,autobus,A53,1971396_west,,
Wiesenbaude,autobus,A53,1971397_west,,
Ostpreußendamm Ecke Königsberstr.,autobus,A53,1971398_west,,
Oberhoferplatz,autobus,A53,1971399_west,,
"Zoo, Hardenbergplatz",autobus,A54,1971400_west,,
Ernst-Reuter-Platz,autobus,A54,1971401_west,,
Cauerstr. Ecke Otto-Suhr-Allee,autobus,A54,1971402_west,,
Richard-Wagner-Platz,autobus,A54,1971403_west,,
Luisenplatz,autobus,A54,1971404_west,,
Fürstenbbrunnerweg Ecke Spandauerdamm,autobus,A54,1971405_west,,
Schloß Ruhwald,autobus,A54,1971406_west,,
U-Bhf. Ruhleben,autobus,A54,1971407_west,,
Teltowerstr. Ecke Charlottenburgerstr.,autobus,A54,1971408_west,,
Rathaus Spandau,autobus,A54,1971409_west,,
Moritzstr. Ecke Altstädter Ring,autobus,A54,1971410_west,,
Wröhmännerpark,autobus,A54,1971411_west,,
Lynarstr. Ecke Schönwälderstr.,autobus,A54,1971412_west,,
Hohenzollernring,autobus,A54,1971413_west,,
Johannesstift,autobus,A54,1971414_west,,
"Zoo, Hardenbergplatz",autobus,A55,1971415_west,,
Ernst-Reuter-Platz,autobus,A55,1971416_west,,
Cauerstr. Ecke Otto-Suhr-Allee,autobus,A55,1971417_west,,
Richard-Wagner-Platz,autobus,A55,1971418_west,,
Luisenplatz,autobus,A55,1971419_west,,
Osnabrückerstr. Ecke Tauroggenerstr.,autobus,A55,1971420_west,,
Landgericht,autobus,A55,1971421_west,,
Jakob-Kaiser-Platz,autobus,A55,1971422_west,,
Quellweg Ecke Nonnendammallee,autobus,A55,1971423_west,,
Paulsternstr. Ecke Gartenfelderstr.,autobus,A55,1971424_west,,
Zitadellenweg Ecke Am Juliusturm,autobus,A55,1971425_west,,
Carl-Schurzstr. Ecke Am Juliusturm,autobus,A55,1971426_west,,
Wröhmannerpark,autobus,A55,1971427_west,,
Hohenzollernring,autobus,A55,1971428_west,,
Hakenfelde,autobus,A55,1971429_west,,
U-Bhf. Ruhleben,autobus,A56,1971430_west,,
Stresowplatz,autobus,A56,1971431_west,,
"Spandau, Markt",autobus,A56,1971432_west,,
Wröhmännerpark,autobus,A56,1971433_west,,
Hohenzollernring,autobus,A56,1971434_west,,
Hakenfelde,autobus,A56,1971435_west,,
Zwickauerdamm,autobus,A57,1971436_west,,
U-Bhf. Zwickauerdamm,autobus,A57,1971437_west,,
Köpenickerstr. Ecke Neuköllnerstr.,autobus,A57,1971438_west,,
Kanalstr. Ecke Köpenickerstr.,autobus,A57,1971439_west,,
Stubenrauchstr. Ecke Kanalstr.,autobus,A57,1971440_west,,
Wannsee,autobus,A6,1971441_west,,
Königstr. Ecke Kronprinzessinnenweg,autobus,A6,1971442_west,,
Pfaueninselchaussee Ecke Königstr.,autobus,A6,1971443_west,,
Rathaus Wannsee,autobus,A6,1971444_west,,
Friedenstr. Ecke Königstr.,autobus,A6,1971445_west,,
Schäferberg,autobus,A6,1971446_west,,
Nikolskoerweg Ecke Königstr.,autobus,A6,1971447_west,,
Glienicker Brücke,autobus,A6,1971448_west,,
Wittenbergplatz,autobus,A60,1971449_west,,
Breitscheidplatz,autobus,A60,1971450_west,,
Joachimstalerstr. Ecke Kantstr.,autobus,A60,1971451_west,,
Kurfürstendamm Ecke Uhlandstr.,autobus,A60,1971452_west,,
Hohenzollerndamm Ecke Uhlandstr.,autobus,A60,1971453_west,,
Berlinerstr. Ecke Uhlandstr.,autobus,A60,1971454_west,,
Rudolf-Mossestr. Ecke Mecklenburgischestr.,autobus,A60,1971455_west,,
Berkaerstr. Ecke Breitestr.,autobus,A60,1971456_west,,
Roseneck,autobus,A60,1971457_west,,
Im Dol,autobus,A60,1971458_west,,
U-Bhf. Oskar-Helene-Heim,autobus,A60,1971459_west,,
Schützallee Ecke Clayallee,autobus,A60,1971460_west,,
Potsdamerstr. Ecke Clayallee,autobus,A60,1971461_west,,
Rathaus Zehlendorf,autobus,A60,1971462_west,,
"Gartenplatz, Feldstr.",autobus,A61,1971463_west,,
U-Bhf. Gesundbrunnen,autobus,A61,1971464_west,,
Pankstr. Ecke Badstr.,autobus,A61,1971465_west,,
Schwedenstr. Ecke Osloerstr.,autobus,A61,1971466_west,,
Pankowerallee Ecke Residenzstr.,autobus,A61,1971467_west,,
Aroserallee Ecke Lindauerallee,autobus,A61,1971468_west,,
Kurt-Schumacher-Platz,autobus,A61,1971469_west,,
Zobeltitzstr. Ecke Eichborndamm,autobus,A61,1971470_west,,
"Wilhemsruherdamm, Sektorengrenze",autobus,A62,1971471_west,,
Treuenbrietzenerstr. Ecke Wilhelmsruherdamm,autobus,A62,1971472_west,,
Eichhorsterweg Ecke Wilhelmsruherdamm,autobus,A62,1971473_west,,
Oranienburgerstr. Ecke Eichborndamm,autobus,A62,1971474_west,,
Alt-Wittenau Ecke Oranienburgerstr.,autobus,A62,1971475_west,,
Bonhoeffer Klinik,autobus,A62,1971476_west,,
Waldstr. Ecke Ollenhauerstr.,autobus,A62,1971477_west,,
U-Bhf. Kurt-Schumacher-Platz,autobus,A62,1971478_west,,
Kaserne Südtor,autobus,A62,1971479_west,,
Heckerdamm Ecke Schumacherdamm,autobus,A62,1971480_west,,
Jakob-Kaiser-Platz,autobus,A62,1971481_west,,
Luisenplatz,autobus,A62,1971482_west,,
Ernst-Reuter-Platz,autobus,A62,1971483_west,,
"Zoo, Hardenbergplatz",autobus,A62,1971484_west,,
Radelandstr. Ecke Niederheideweg,autobus,A63,1971485_west,,
Kisselnallee Ecke Pionierstr.,autobus,A63,1971486_west,,
Zweibrückerstr. Ecke Falkenseerchaussee,autobus,A63,1971487_west,,
Rathaus Spandau,autobus,A63,1971488_west,,
Hochgerichtstr. Ecke Seegefelderstr.,autobus,A63,1971489_west,,
Seegefelderweg,autobus,A63,1971490_west,,
Märkisches Zentrum,autobus,A64,1971491_west,,
Eichhorsterweg,autobus,A64,1971492_west,,
Wilhelmsruherdamm Ecke Eichhorsterweg,autobus,A64,1971493_west,,
Roedernallee Ecke Am Nordgraben,autobus,A64,1971494_west,,
Tessenowstr. Ecke Roadernallee,autobus,A64,1971495_west,,
Humboldt-Krankenhaus,autobus,A64,1971496_west,,
Holländerstr. Ecke Londonerstr.,autobus,A64,1971497_west,,
Müllerstr. Ecke Petersallee,autobus,A64,1971498_west,,
Transvaalstr. Ecke Afrikanischestr.,autobus,A64,1971499_west,,
Seestr. Ecke Afrikanischestr.,autobus,A64,1971500_west,,
U-Bhf. Leopoldplatz,autobus,A64,1971501_west,,
Uferstr. Ecke Badstr.,autobus,A64,1971502_west,,
U-Bhf. Gesundbrunnen,autobus,A64,1971503_west,,
Usedomerstr. Ecke Brunnenstr.,autobus,A64,1971504_west,,
Vinetaplatz,autobus,A64,1971505_west,,
U-Bhf. Seestr.,autobus,A65,1971506_west,,
Saatwinklerdamm Ecke Seestr.,autobus,A65,1971507_west,,
Jakob-Kaiser-Platz,autobus,A65,1971508_west,,
Spandauerdamm Ecke Stadtautobahn,autobus,A65,1971509_west,,
Messedamm Ecke Halenseestr.,autobus,A65,1971510_west,,
Rathenauplatz,autobus,A65,1971511_west,,
Hohenzollerndamm Ecke Stadtautobahn,autobus,A65,1971512_west,,
Bundesallee Ecke Stadtautobahn,autobus,A65,1971513_west,,
Innsbruckerplatz,autobus,A65,1971514_west,,
Hauptstr. Ecke Dominicusstr.,autobus,A65,1971515_west,,
Tempelhoferdamm Ecke Tempelhof,autobus,A65,1971516_west,,
Oberlandstr. Ecke Germaniastr.,autobus,A65,1971517_west,,
Hermannstr. Ecke Silbersteinstr.,autobus,A65,1971518_west,,
Karl-Marxstr. Ecke Silbersteinstr.,autobus,A65,1971519_west,,
Schulenburgpark,autobus,A65,1971520_west,,
"Zoo, Hardenbergplatz",autobus,A66,1971521_west,,
Leibnizstr. Ecke Kantstr.,autobus,A66,1971522_west,,
Wilmersdorferstr. Ecke Kantstr.,autobus,A66,1971523_west,,
Amtsgericht,autobus,A66,1971524_west,,
Omnibusbahnhof,autobus,A66,1971525_west,,
Kronprinzessinenweg Ecke Spanischeallee,autobus,A66,1971526_west,,
Wannsee,autobus,A66,1971527_west,,
Am Großen Wannsee Ecke Königsstr.,autobus,A66,1971528_west,,
"Stölpchensee, Glienickerstr.",autobus,A66,1971529_west,,
U-Bhf. Hallesches Tor,autobus,A67,1971530_west,,
Moritzplatz,autobus,A67,1971531_west,,
U-Bhf. Kottbusser Tor,autobus,A67,1971532_west,,
Hermannplatz,autobus,A67,1971533_west,,
Hertzbergplatz,autobus,A67,1971534_west,,
Grenzallee Ecke Naumbürgerstr.,autobus,A67,1971535_west,,
Karl-Marxstr. Ecke Grenzallee,autobus,A67,1971536_west,,
Blaschkoallee Ecke Buschkrugallee,autobus,A67,1971537_west,,
Johannisthalerchaussee Ecke Rudowerstr.,autobus,A67,1971538_west,,
Clayallee Ecke Königin-Luisestr.,autobus,A68,1971539_west,,
U-Bhf. Dahlem-Dorf,autobus,A68,1971540_west,,
Hermann-Ehlers-Platz,autobus,A68,1971541_west,,
Bismarckstr. Ecke Bergstr.,autobus,A68,1971542_west,,
Attilaplatz,autobus,A68,1971543_west,,
Tempelhof,autobus,A68,1971544_west,,
Dauerwaldweg Ecke Eichkampstr.,autobus,A69,1971545_west,,
Deutschlandhalle,autobus,A69,1971546_west,,
Henriettenplatz,autobus,A69,1971547_west,,
Joachim-Friedrichstr. Ecke Kurfürstendamm,autobus,A69,1971548_west,,
Wilmersdorferstr. Ecke Kurfürstendamm,autobus,A69,1971549_west,,
Olivaerplatz,autobus,A69,1971550_west,,
Uhlandstr. Ecke Lietzenburgerstr.,autobus,A69,1971551_west,,
Joachimstalerstr. Ecke Lietzenburgerstr.,autobus,A69,1971552_west,,
Breitscheidplatz,autobus,A69,1971553_west,,
Bayreutherstr. Ecke Kurfürstenstr.,autobus,A69,1971554_west,,
Lützowplatz,autobus,A69,1971555_west,,
Tiergartenstr. Ecke Hofjägerallee,autobus,A69,1971556_west,,
Großer Stern,autobus,A69,1971557_west,,
Kongreßhalle,autobus,A69,1971558_west,,
Reichstag,autobus,A69,1971559_west,,
"Wollankstr., Sektorengrenze",autobus,A70,1971560_west,,
Pankstr. Ecke Badstr.,autobus,A70,1971561_west,,
Weddingplatz,autobus,A70,1971562_west,,
U-Bhf. Turmstr.,autobus,A70,1971563_west,,
Rathaus Tiergarten,autobus,A70,1971564_west,,
Wiebestr. Ecke Huttenstr.,autobus,A70,1971565_west,,
"Wilhelmsruh, Kopenhagenerstr.",autobus,A71,1971566_west,,
Schäfersee,autobus,A71,1971567_west,,
Osloerstr. Ecke Prinzenstr.,autobus,A71,1971568_west,,
U-Bhf. Gesundbrunnen,autobus,A71,1971569_west,,
Ramlerstr. Ecke Swinemünderstr.,autobus,A71,1971570_west,,
Vinetaplatz,autobus,A71,1971571_west,,
"Alt-Reinickendorf, Klemkestr. Ecke Kopenhagenerstr.",autobus,A72,1971572_west,,
Pankowerallee Ecke Residenzstr.,autobus,A72,1971573_west,,
Luise-Schröder-Platz,autobus,A72,1971574_west,,
Weddingplatz,autobus,A72,1971575_west,,
Rathenowerstr. Ecke Perlebergerstr.,autobus,A72,1971576_west,,
U-Bhf. Turmstr.,autobus,A72,1971577_west,,
Wiebestr. Ecke Huttenstr.,autobus,A72,1971578_west,,
Tauroggenerstr. Ecke Osnabrückerstr.,autobus,A72,1971579_west,,
Landgericht,autobus,A72,1971580_west,,
Jakob-Kaiser-Platz,autobus,A72,1971581_west,,
Quellweg Ecke Nonnendammallee,autobus,A72,1971582_west,,
Paulsternstr. Ecke Nonnendammallee- Gartenfeld,autobus,A72,1971583_west,,
"Zoo, Hardenbergplatz",autobus,A73,1971584_west,,
Wittenbergplatz,autobus,A73,1971585_west,,
Grunewaldstr. Ecke Martin-Lutherstr.,autobus,A73,1971586_west,,
Hauptstr. Ecke Dominicusstr.,autobus,A73,1971587_west,,
Berlinickeplatz,autobus,A73,1971588_west,,
Tempelhoferdamm Ecke Tempelhof,autobus,A73,1971589_west,,
Gottlieb-Dunkelstr. Ecke Germaniastr.,autobus,A73,1971590_west,,
Britzerdamm Ecke Blaschkoallee,autobus,A73,1971591_west,,
Buschkrug Ecke Blaschkoallee,autobus,A73,1971592_west,,
Königin-Elisabethstr. U-Bhf. Kaiserdamm,autobus,A74,1971593_west,,
Spandauerdamm Ecke Königin-Elisabethstr.,autobus,A74,1971594_west,,
Schlossstr. Ecke Spandauerdamm,autobus,A74,1971595_west,,
Sophie-Charlotten-Platz,autobus,A74,1971596_west,,
Kaiser-Friedrichstr. Ecke Kantstr.,autobus,A74,1971597_west,,
Wilmersdorferstr. Ecke Stuttgarterplatz,autobus,A74,1971598_west,,
Kurfürstendamm Ecke Wilmersdorferstr.,autobus,A74,1971599_west,,
Fehrbellinerplatz,autobus,A74,1971600_west,,
Bundesallee Ecke Berlinerstr.,autobus,A74,1971601_west,,
Hauptstr. Ecke Dominicusstr.,autobus,A74,1971602_west,,
Gotenstr. Ecke Sachsenstr.,autobus,A74,1971603_west,,
Alboinstr. Ecke Sachsenstr.,autobus,A74,1971604_west,,
Alboinplatz,autobus,A74,1971605_west,,
Lindenhof,autobus,A74,1971606_west,,
Munsterdamm Ecke Steglitzerdamm,autobus,A75,1971607_west,,
Bismarckstr. Ecke Steglitzerdamm,autobus,A75,1971608_west,,
Lauenburgerplatz,autobus,A75,1971609_west,,
Kaisereiche,autobus,A75,1971610_west,,
Innsbruckerplatz,autobus,A75,1971611_west,,
Kaiser-Wilhelm-Platz,autobus,A75,1971612_west,,
U-Bhf. Bülowstr.,autobus,A75,1971613_west,,
Schöneberger Ufer Ecke Potsdamerstr.,autobus,A75,1971614_west,,
Askanischerplatz,autobus,A75,1971615_west,,
U-Bhf. Kochstr.,autobus,A75,1971616_west,,
Lindenstr. Ecke Oranienstr.,autobus,A75,1971617_west,,
U-Bhf. Moritzplatz,autobus,A75,1971618_west,,
Spreewaldplatz,autobus,A75,1971619_west,,
Sonnenallee Ecke Pannierstr.,autobus,A75,1971620_west,,
Hermannplatz,autobus,A75,1971621_west,,
Walter-Schreiber-Platz,autobus,A76,1971622_west,,
Bismarckstr. Ecke Feuerbachstr.,autobus,A76,1971623_west,,
Göttingerstr.,autobus,A76,1971624_west,,
Priesterweg,autobus,A76,1971625_west,,
Attilastr. Ecke Gersdorferstr.,autobus,A76,1971626_west,,
Prühßstr. Ecke Ringstr.,autobus,A76,1971627_west,,
Großbeerenstr. Ecke Rathausstr.,autobus,A76,1971628_west,,
U-Bhf. Alt-Mariendorf,autobus,A76,1971629_west,,
Rennbahn,autobus,A76,1971630_west,,
Säntisstr.,autobus,A76,1971631_west,,
Buckowerchaussee Ecke Mariendorferdamm,autobus,A76,1971632_west,,
Goethestr.,autobus,A76,1971633_west,,
Rehagenerstr. Ecke Bahnhofstr.,autobus,A76,1971634_west,,
Blohmstr. Ecke Illigstr.,autobus,A76,1971635_west,,
Britzerallee Ecke Nobelstr.,autobus,A77,1971636_west,,
U-Bhf. Neukölln,autobus,A77,1971637_west,,
Hermannstr. Ecke Mariendorferweg,autobus,A77,1971638_west,,
Eisenacherstr. Ecke Rixdorferstr.,autobus,A77,1971639_west,,
U-Bhf. Alt-Mariendorf,autobus,A77,1971640_west,,
"Marienfelde, Daimlerstr.",autobus,A77,1971641_west,,
U-Bhf. Alt-Mariendorf,autobus,A78,1971642_west,,
Rennbahn,autobus,A78,1971643_west,,
Säntisstr.,autobus,A78,1971644_west,,
Quarzweg Ecke Tauernallee,autobus,A78,1971645_west,,
Marienfelderchaussee Ecke Quarzweg,autobus,A78,1971646_west,,
Alt-Buckow Ecke Buckowerdamm,autobus,A78,1971647_west,,
Leopoldplatz,autobus,A79,1971648_west,,
Reinickdorferstr. Ecke Schulstr.,autobus,A79,1971649_west,,
Osloerstr. Ecke Schwedenstr.,autobus,A79,1971650_west,,
Pankowerallee Ecke Residenzstr.,autobus,A79,1971651_west,,
Mittelbruchzeile,autobus,A79,1971652_west,,
Raschdorffstr.,autobus,A79,1971653_west,,
Sommerstr. Ecke Klemkestr.,autobus,A79,1971654_west,,
U-Bhf. Ruhleben,autobus,A80,1971655_west,,
Stresowplatz,autobus,A80,1971656_west,,
Rathaus Spandau,autobus,A80,1971657_west,,
Nauenerstr. Ecke Brunsbüttelerdamm,autobus,A80,1971658_west,,
Magistratsweg Ecke Brunsbüttelerdamm,autobus,A80,1971659_west,,
Nennhauserdamm Ecke Brunsbüttelerdamm,autobus,A80,1971660_west,,
U-Bhf. Friedrich-Wilhelm-Platz,autobus,A81,1971661_west,,
Walter-Schreiber-Platz,autobus,A81,1971662_west,,
Bismarckstr. Ecke Bergstr.,autobus,A81,1971663_west,,
Steglitzerdamm Ecke Halskestr.,autobus,A81,1971664_west,,
Leonorenstr. Ecke Kaiser-Wilhelmstr.,autobus,A81,1971665_west,,
"Lankwitz, Kirche",autobus,A81,1971666_west,,
"Alt-Lankwitz, Dorfaue",autobus,A81,1971667_west,,
Alt-Mariendorf Ecke Am Heidefriedhof,autobus,A81,1971668_west,,
Dardanellenweg Ecke Rixdorferstr.,autobus,A81,1971669_west,,
Alt-Lichtenrade Ecke Goethestr.,autobus,A82,1971670_west,,
Barnetstr. Ecke Halker Zeile,autobus,A82,1971671_west,,
Illigstr. Ecke Schichauweg,autobus,A82,1971672_west,,
Blohmstr. Ecke Illigstr.,autobus,A82,1971673_west,,
Kirchhainerdamm Ecke Wittelsbacherstr.,autobus,A82,1971674_west,,
Pechsteinstr. Ecke Wittelsbacherstr.,autobus,A82,1971675_west,,
Würzburgerstr. Ecke Bambergerstr.,autobus,A82,1971676_west,,
Potsdamerstr. Ecke Alt-Lichtenrade,autobus,A82,1971677_west,,
Nettelbeckplatz,autobus,A83,1971678_west,,
Weddingplatz,autobus,A83,1971679_west,,
Tegelerstr. Ecke Fennstr.,autobus,A83,1971680_west,,
Washingtonplatz,autobus,A83,1971681_west,,
Schöneberger Ufer Ecke Potsdamerstr.,autobus,A83,1971682_west,,
U-Bhf. Bülowstr.,autobus,A83,1971683_west,,
Kaiser-Wilhelm-Platz,autobus,A83,1971684_west,,
Innsbruckerplatz,autobus,A83,1971685_west,,
Grazerplatz,autobus,A83,1971686_west,,
Bergstr. Ecke Torwaldsenstr.,autobus,A83,1971687_west,,
Steglitzerdamm Ecke Halskestr.,autobus,A83,1971688_west,,
"Lankwitz, Kirche",autobus,A83,1971689_west,,
Malteserstr. Ecke Schneiderstr.,autobus,A83,1971690_west,,
Belßstr. Ecke Malteserstr.,autobus,A83,1971691_west,,
Preysingstr. Ecke Belßstr.,autobus,A83,1971692_west,,
Ringstr. Ecke Weißwasserweg,autobus,A84,1971693_west,,
"Lichterfelde, Klinikum",autobus,A84,1971694_west,,
Händelplatz,autobus,A84,1971695_west,,
Friedenauer Brücke,autobus,A84,1971696_west,,
Kaiser-Wilhelm-Platz,autobus,A84,1971697_west,,
U-Bhf. Kurfürstenstr.,autobus,A84,1971698_west,,
Holtheimerweg,autobus,A85,1971699_west,,
Ostpreußendamm Ecke Wismarerstr.,autobus,A85,1971700_west,,
Thunerplatz,autobus,A85,1971701_west,,
Rittberg-Krankenhaus,autobus,A85,1971702_west,,
Drakestr.,autobus,A85,1971703_west,,
Moltkestr.,autobus,A85,1971704_west,,
Händelplatz,autobus,A85,1971705_west,,
Rathaus Steglitz,autobus,A85,1971706_west,,
Walter-Schreiber-Platz,autobus,A85,1971707_west,,
Kaisereiche,autobus,A85,1971708_west,,
Innsbruckerplatz,autobus,A85,1971709_west,,
Rathaus Schöneberg,autobus,A85,1971710_west,,
Grunewaldstr. Ecke Martin-Lutherstr.,autobus,A85,1971711_west,,
Wittenbergplatz,autobus,A85,1971712_west,,
"Invalidenstr., Sektorengrenze",autobus,A86,1971713_west,,
Stromstr. Ecke Alt-Moabit,autobus,A86,1971714_west,,
Gotzkowskystr. Ecke Alt-Moabit,autobus,A86,1971715_west,,
Ernst-Reuter-Platz,autobus,A86,1971716_west,,
Richard-Wagner-Platz,autobus,A86,1971717_west,,
Kantstr. Ecke Wilmersdorferstr.,autobus,A86,1971718_west,,
Kurfürstendamm Ecke Wilmersdorferstr.,autobus,A86,1971719_west,,
Fehrbellinerplatz,autobus,A86,1971720_west,,
Hildegardstr. Ecke Blissestr.,autobus,A86,1971721_west,,
Bundesplatz,autobus,A86,1971722_west,,
Friedrich-Wilhelm-Platz,autobus,A86,1971723_west,,
Walter-Schreiber-Platz,autobus,A86,1971724_west,,
Rathaus Steglitz,autobus,A86,1971725_west,,
Klingsorstr. Ecke Birkbuschstr.,autobus,A86,1971726_west,,
Birkbuschstr.,autobus,A86,1971727_west,,
Richard-Wagner-Platz,autobus,A87,1971728_west,,
Wilmersdorferstr. Ecke Otto-Suhr-Allee,autobus,A87,1971729_west,,
Luisenplatz,autobus,A87,1971730_west,,
Klausenerplatz,autobus,A87,1971731_west,,
Sophie-Charlottenstr. Ecke Spandauerdamm,autobus,A87,1971732_west,,
Pulsstr. Ecke Sophie-Charlottestr.,autobus,A87,1971733_west,,
"Bornholmerstr., Sektorengrenze",autobus,A89,1971734_west,,
Prinzenallee Ecke Osloerstr.,autobus,A89,1971735_west,,
Schwedenstr. Ecke Osloerstr.,autobus,A89,1971736_west,,
Louise-Schroeder-Platz,autobus,A89,1971737_west,,
U-Bhf. Seestr.,autobus,A89,1971738_west,,
Afrikanischestr. Ecke Seestr.,autobus,A89,1971739_west,,
Beusselstr. Ecke Seestr.,autobus,A89,1971740_west,,
Huttenstr. Ecke Beusselstr.,autobus,A89,1971741_west,,
Ilsenburgerstr. Ecke Kaiserin-Augusta-Allee,autobus,A89,1971742_west,,
Luisenplatz,autobus,A89,1971743_west,,
Bismarckstr.,autobus,A89,1971744_west,,
Kantstr. Ecke Wilmersdorferstr.,autobus,A89,1971745_west,,
Kurfürstendamm Ecke Wilmersdorferstr.,autobus,A89,1971746_west,,
Fehrbellinerplatz,autobus,A89,1971747_west,,
"Bhf. Zoo, Hardenbergplatz",autobus,A90,1971748_west,,
Ernst-Reuter-Platz,autobus,A90,1971749_west,,
Dovebrücke,autobus,A90,1971750_west,,
Alt-Moabit Ecke Gotzkowskystr.,autobus,A90,1971751_west,,
U-Bhf. Turmstr.,autobus,A90,1971752_west,,
Rathenowerstr. Ecke Alt-Moabit,autobus,A90,1971753_west,,
Seydlitzstr. Ecke Lehrterstr.,autobus,A90,1971754_west,,
Poststadion,autobus,A90,1971755_west,,
Am Nordhafen,autobus,A90,1971756_west,,
Weddingplatz,autobus,A90,1971757_west,,
Gartenstr. Ecke Gerichtstr.,autobus,A90,1971758_west,,
Hussitenstr. Ecke Grenzstr.,autobus,A90,1971759_west,,
Wattstr. Ecke Usedomerstr.,autobus,A90,1971760_west,,
Vinetaplatz,autobus,A90,1971761_west,,
Hermannplatz,autobus,A91,1971762_west,,
U-Bhf. Leinestr.,autobus,A91,1971763_west,,
Mariendorferweg Ecke Britzerdamm,autobus,A91,1971764_west,,
Gradestr. Ecke Britzerdamm,autobus,A91,1971765_west,,
Gutschmidtstr. Ecke Buckowerdamm,autobus,A91,1971766_west,,
Ringslebenstr. Ecke Buckowerdamm,autobus,A91,1971767_west,,
"Zoo, Hardenbergplatz",autobus,A92,1971768_west,,
Wilmersdorferstr. Ecke Kantstr.,autobus,A92,1971769_west,,
Amtsgericht,autobus,A92,1971770_west,,
Messedamm Ecke Masurenallee,autobus,A92,1971771_west,,
Theodor-Heuss-Platz,autobus,A92,1971772_west,,
Reichssportfeldstr. Ecke Heerstr.,autobus,A92,1971773_west,,
Scholzplatz,autobus,A92,1971774_west,,
Pichelsdorferstr. Ecke Heerstr.,autobus,A92,1971775_west,,
Konkordiastr. Ecke Adamstr.,autobus,A92,1971776_west,,
Waßmannsdorferchaussee Ecke Großziethenerstr.,autobus,A93,1971777_west,,
Eichenauerweg Ecke Waßmannsdorferchaussee,autobus,A93,1971778_west,,
Lockenhuhnweg Ecke Waßmannsdorferchaussee,autobus,A93,1971779_west,,
Geflügelsteig,autobus,A93,1971780_west,,
Rhodeländerweg Ecke Geflügelsteig,autobus,A93,1971781_west,,
Lakenfelderweg Ecke Geflügelsteig,autobus,A93,1971782_west,,
Großziethenerchaussee Ecke Geflügelsteig,autobus,A93,1971783_west,,
Pirnaerstr. Ecke Großziethenerchaussee,autobus,A93,1971784_west,,
Kolonie Ewige Heimat,autobus,A93,1971785_west,,
"Zoo, Hardenbergplatz",autobus,A94,1971786_west,,
Wilmersdorferstr. Ecke Kantstr.,autobus,A94,1971787_west,,
Amtsgericht,autobus,A94,1971788_west,,
Messedamm Ecke Masurenallee,autobus,A94,1971789_west,,
Theodor-Heuss-Platz,autobus,A94,1971790_west,,
Reichssportfeldstr. Ecke Heerstr.,autobus,A94,1971791_west,,
Pichelsdorferstr. Ecke Heerstr.,autobus,A94,1971792_west,,
Gatowerstr. Ecke Heerstr.,autobus,A94,1971793_west,,
Reimerweg Ecke Heerstr.,autobus,A94,1971794_west,,
Schwarzerweg Ecke Sonnenallee,autobus,A95,1971795_west,,
Saalestr. Ecke Sonnenallee,autobus,A95,1971796_west,,
Wildenbruchstr. Ecke Sonnenallee,autobus,A95,1971797_west,,
Hermannplatz,autobus,A95,1971798_west,,
Urban-Krankenhaus,autobus,A95,1971799_west,,
U-Bhf. Hallesches Tor,autobus,A95,1971800_west,,
Flughafen Tempelhof,autobus,A96,1971801_west,,
Berlinickeplatz,autobus,A96,1971802_west,,
Attilaplatz,autobus,A96,1971803_west,,
Leonorenstr. Ecke Kaiser-Wilhelmstr.,autobus,A96,1971804_west,,
Kranoldplatz,autobus,A96,1971805_west,,
Lindenstr. Ecke Ostpreußendamm,autobus,A96,1971806_west,,
Reimerweg Ecke Heerstr.,autobus,A97,1971807_west,,
Gatowerstr. Ecke Heerstr.,autobus,A97,1971808_west,,
Pichelsdorferstr. Ecke Heerstr.,autobus,A97,1971809_west,,
Metzerstr. Ecke Pichelsdorferstr.,autobus,A97,1971810_west,,
Rathaus Spandau,autobus,A97,1971811_west,,
Wröhmännerpark,autobus,A97,1971812_west,,
Hohenzollernring,autobus,A97,1971813_west,,
Mertensstr.,autobus,A97,1971814_west,,
Aalemannufer,autobus,A97,1971815_west,,
U-Bhf. Britz-Süd,autobus,A98,1971816_west,,
Buckowerdamm Ecke Gutschmidtstr.,autobus,A98,1971817_west,,
Fulhamerallee Ecke Britzerdamm,autobus,A98,1971818_west,,
U-Bhf Parchimerallee,autobus,A98,1971819_west,,
Grünerweg Ecke Buschkrugallee,autobus,A98,1971820_west,,
Usedomerstr. Ecke Brunnenstr.,autobus,A99,1971821_west,,
U-Bhf. Gesundbrunnen,autobus,A99,1971822_west,,
Brunnenplatz,autobus,A99,1971823_west,,
Nettelbeckplatz,autobus,A99,1971824_west,,
Rathenowerstr. Ecke Quitzowstr.,autobus,A99,1971825_west,,
Emdenerstr. Ecke Siemensstr.,autobus,A99,1971826_west,,
Saatwinklerdamm Ecke Beusselstr.,autobus,A99,1971827_west,,
Jakob-Kaiser-Platz,autobus,A99,1971828_west,,
Wernerwerk,autobus,A99,1971829_west,,
Quellweg Ecke Nonnendammallee,autobus,A99,1971830_west,,
Paulsternstr. Ecke Nonnendammallee,autobus,A99,1971831_west,,
Carl-Schurzstr. Ecke Am Juliusturm,autobus,A99,1971832_west,,
Rathaus Spandau,autobus,A99,1971833_west,,
Hochgerichtstr. Ecke Seegefelderstr.,autobus,A99,1971834_west,,
Falkenseerchaussee Ecke Zeppelinstr.,autobus,A99,1971835_west,,
Im Spektefeld,autobus,A99,1971836_west,,
Gesundbrunnen,s-bahn,KBS 150,1971837_west,,
Wedding,s-bahn,KBS 150,1971838_west,,
Putlitzstr.,s-bahn,KBS 150,1971839_west,,
Beusselstr.,s-bahn,KBS 150,1971840_west,,
Jungfernheide,s-bahn,KBS 150,1971841_west,,
Westend,s-bahn,KBS 150,1971842_west,,
Witzleben,s-bahn,KBS 150,1971843_west,,
Westkreuz,s-bahn,KBS 150,1971844_west,,
Halensee,s-bahn,KBS 150,1971845_west,,
Hohenzollerndamm,s-bahn,KBS 150,1971846_west,,
Schmargendorf,s-bahn,KBS 150,1971847_west,,
Wilmersdorf,s-bahn,KBS 150,1971848_west,,
Innsbruckerplatz,s-bahn,KBS 150,1971849_west,,
Schöneberg,s-bahn,KBS 150,1971850_west,,
Papestr.,s-bahn,KBS 150,1971851_west,,
Tempelhof,s-bahn,KBS 150,1971852_west,,
Hermannstr.,s-bahn,KBS 150,1971853_west,,
Neukölln,s-bahn,KBS 150,1971854_west,,
Sonnenallee,s-bahn,KBS 150,1971855_west,,
Zoologischer Garten,s-bahn,KBS 151,1971856_west,,
Savignyplatz,s-bahn,KBS 151,1971857_west,,
Charlottenburg,s-bahn,KBS 151,1971858_west,,
Halensee,s-bahn,KBS 151,1971859_west,,
Hohenzollerndamm,s-bahn,KBS 151,1971860_west,,
Schmargendorf,s-bahn,KBS 151,1971861_west,,
Wilmersdorf,s-bahn,KBS 151,1971862_west,,
Innsbruckerplatz,s-bahn,KBS 151,1971863_west,,
Schöneberg,s-bahn,KBS 151,1971864_west,,
Papestr.,s-bahn,KBS 151,1971865_west,,
Tempelhof,s-bahn,KBS 151,1971866_west,,
Hermannstr.,s-bahn,KBS 151,1971867_west,,
Neukölln,s-bahn,KBS 151,1971868_west,,
Köllnische Heide,s-bahn,KBS 151,1971869_west,,
Heiligensee,s-bahn,KBS 152,1971870_west,,
Schulzendorf (b Tegel),s-bahn,KBS 152,1971871_west,,
Tegel,s-bahn,KBS 152,1971872_west,,
Eichbornstr.,s-bahn,KBS 152,1971873_west,,
Wittenau (Kremmener Bahn),s-bahn,KBS 152,1971874_west,,
Reinickendorf,s-bahn,KBS 152,1971875_west,,
Schönholz,s-bahn,KBS 152,1971876_west,,
Wollankstr.,s-bahn,KBS 152,1971877_west,,
Gesundbrunnen,s-bahn,KBS 152,1971878_west,,
Humboldthain,s-bahn,KBS 152,1971879_west,,
Friedrichstr.,s-bahn,KBS 152,1971880_west,,
Anhalter Bahnhof,s-bahn,KBS 152,1971881_west,,
Yorckstr.,s-bahn,KBS 152,1971882_west,,
Papestr.,s-bahn,KBS 152,1971883_west,,
Priesterweg,s-bahn,KBS 152,1971884_west,,
Mariendorf,s-bahn,KBS 152,1971885_west,,
Marienfelde,s-bahn,KBS 152,1971886_west,,
Buckower Ch.,s-bahn,KBS 152,1971887_west,,
Lichtenrade,s-bahn,KBS 152,1971888_west,,
Gesundbrunnen,s-bahn,KBS 153,1971889_west,,
Humboldthain,s-bahn,KBS 153,1971890_west,,
Friedrichstr.,s-bahn,KBS 153,1971891_west,,
Anhalter Bahnhof,s-bahn,KBS 153,1971892_west,,
Yorckstr.,s-bahn,KBS 153,1971893_west,,
Papestr.,s-bahn,KBS 153,1971894_west,,
Priesterweg,s-bahn,KBS 153,1971895_west,,
Südende,s-bahn,KBS 153,1971896_west,,
Lankwitz,s-bahn,KBS 153,1971897_west,,
Lichterfelde Ost,s-bahn,KBS 153,1971898_west,,
Lichterfelde Süd,s-bahn,KBS 153,1971899_west,,
Frohnau,s-bahn,KBS 154,1971900_west,,
Hermsdorf,s-bahn,KBS 154,1971901_west,,
Waidmannslust,s-bahn,KBS 154,1971902_west,,
Wittenau (Nordbahn),s-bahn,KBS 154,1971903_west,,
Wilhelmsruh,s-bahn,KBS 154,1971904_west,,
Schönholz,s-bahn,KBS 154,1971905_west,,
Wollankstr.,s-bahn,KBS 154,1971906_west,,
Gesundbrunnen,s-bahn,KBS 154,1971907_west,,
Humboldthain,s-bahn,KBS 154,1971908_west,,
Friedrichstr.,s-bahn,KBS 154,1971909_west,,
Anhalter Bahnhof,s-bahn,KBS 154,1971910_west,,
Großgörschenstr.,s-bahn,KBS 154,1971911_west,,
Schöneberg,s-bahn,KBS 154,1971912_west,,
Friedenau,s-bahn,KBS 154,1971913_west,,
Feuerbachstr.,s-bahn,KBS 154,1971914_west,,
Steglitz,s-bahn,KBS 154,1971915_west,,
Botanischer Garten,s-bahn,KBS 154,1971916_west,,
Lichterfelde West,s-bahn,KBS 154,1971917_west,,
Sundgauerstr.,s-bahn,KBS 154,1971918_west,,
Zehlendorf,s-bahn,KBS 154,1971919_west,,
Lindenthalerallee,s-bahn,KBS 154,1971920_west,,
Schlachtensee,s-bahn,KBS 154,1971921_west,,
Nikolassee,s-bahn,KBS 154,1971922_west,,
Wannsee,s-bahn,KBS 154,1971923_west,,
Zehlendorf,s-bahn,KBS 155,1971924_west,,
Düppel-Kleinmachnow,s-bahn,KBS 155,1971925_west,,
Friedrichstr.,s-bahn,KBS 156,1971926_west,,
Lehrter Stadtbahnhof,s-bahn,KBS 156,1971927_west,,
Bellevue,s-bahn,KBS 156,1971928_west,,
Tiergarten,s-bahn,KBS 156,1971929_west,,
Zoologischer Garten,s-bahn,KBS 156,1971930_west,,
Savignyplatz,s-bahn,KBS 156,1971931_west,,
Charlottenburg,s-bahn,KBS 156,1971932_west,,
Westkreuz,s-bahn,KBS 156,1971933_west,,
Grunewald,s-bahn,KBS 156,1971934_west,,
Nikolassee,s-bahn,KBS 156,1971935_west,,
Wannsee,s-bahn,KBS 156,1971936_west,,
Friedrichstr.,s-bahn,KBS 157,1971937_west,,
Lehrter Stadtbahnhof,s-bahn,KBS 157,1971938_west,,
Bellevue,s-bahn,KBS 157,1971939_west,,
Tiergarten,s-bahn,KBS 157,1971940_west,,
Zoologischer Garten,s-bahn,KBS 157,1971941_west,,
Savignyplatz,s-bahn,KBS 157,1971942_west,,
Charlottenburg,s-bahn,KBS 157,1971943_west,,
Westkreuz,s-bahn,KBS 157,1971944_west,,
Eichkamp,s-bahn,KBS 157,1971945_west,,
Heerstr.,s-bahn,KBS 157,1971946_west,,
Olympiastadion,s-bahn,KBS 157,1971947_west,,
Pichelsberg,s-bahn,KBS 157,1971948_west,,
Spandau,s-bahn,KBS 157,1971949_west,,
Spandau West,s-bahn,KBS 157,1971950_west,,
Gesundbrunnen,s-bahn,KBS 158,1971951_west,,
Wedding,s-bahn,KBS 158,1971952_west,,
Putlitzstr.,s-bahn,KBS 158,1971953_west,,
Beusselstr.,s-bahn,KBS 158,1971954_west,,
Jungfernheide,s-bahn,KBS 158,1971955_west,,
Siemensstadt-Fürstenbrunn,s-bahn,KBS 158,1971956_west,,
Spandau,s-bahn,KBS 158,1971957_west,,
Spandau West,s-bahn,KBS 158,1971958_west,,
Staaken,s-bahn,KBS 158,1971959_west,,
Jungfernheide,s-bahn,KBS 159,1971960_west,,
Wernerwerk,s-bahn,KBS 159,1971961_west,,
Siemensstadt,s-bahn,KBS 159,1971962_west,,
Gartenfeld,s-bahn,KBS 159,1971963_west,,
Schlesisches Tor,u-bahn,1,1971964_west,,
Görlitzer Bahnhof (Oranienstr.),u-bahn,1,1971965_west,,
Kottbusser Tor,u-bahn,1,1971966_west,,
Prinzenstr.,u-bahn,1,1971967_west,,
Hallesches Tor,u-bahn,1,1971968_west,,
Möckernbrücke,u-bahn,1,1971969_west,,
Gleisdreieck,u-bahn,1,1971970_west,,
Kurfürstenstr.,u-bahn,1,1971971_west,,
Nollendorfplatz,u-bahn,1,1971972_west,,
Wittenbergplatz,u-bahn,1,1971973_west,,
Zoologischer Garten,u-bahn,1,1971974_west,,
Ernst-Reuter-Platz,u-bahn,1,1971975_west,,
Deutsche Oper (Bismarckstr.),u-bahn,1,1971976_west,,
Sophie-Charlotte-Platz,u-bahn,1,1971977_west,,
Kaiserdamm,u-bahn,1,1971978_west,,
Theodor-Heuss-Platz,u-bahn,1,1971979_west,,
Neu-Westend,u-bahn,1,1971980_west,,
Olympia-Stadion,u-bahn,1,1971981_west,,
Ruhleben,u-bahn,1,1971982_west,,
Gleisdreieck,u-bahn,2,1971983_west,,
Bülowstr.,u-bahn,2,1971984_west,,
Nollendorfplatz,u-bahn,2,1971985_west,,
Wittenbergplatz,u-bahn,2,1971986_west,,
Augsburgerstr.,u-bahn,2,1971987_west,,
Spichernstr. (Bundesallee),u-bahn,2,1971988_west,,
Hohenzollernplatz,u-bahn,2,1971989_west,,
Fehrbellinerplatz,u-bahn,2,1971990_west,,
Heidelbergerplatz,u-bahn,2,1971991_west,,
Rüdesheimerplatz,u-bahn,2,1971992_west,,
Breitenbachplatz,u-bahn,2,1971993_west,,
Podbielskiallee,u-bahn,2,1971994_west,,
Dahlem-Dorf,u-bahn,2,1971995_west,,
Thielplatz,u-bahn,2,1971996_west,,
Oskar-Helene-Heim,u-bahn,2,1971997_west,,
Onkel Toms Hütte,u-bahn,2,1971998_west,,
Krumme Lanke,u-bahn,2,1971999_west,,
Wittenbergplatz,u-bahn,3,19711000_west,,
Kurfürstendamm (Joachimstalerstr.),u-bahn,3,19711001_west,,
Uhlandstr.,u-bahn,3,19711002_west,,
Nollendorfplatz,u-bahn,4,19711003_west,,
Viktoria-Luise-Platz,u-bahn,4,19711004_west,,
Bayerischerplatz,u-bahn,4,19711005_west,,
Rathaus Schöneberg,u-bahn,4,19711006_west,,
Innsbruckerplatz (Hauptstr.),u-bahn,4,19711007_west,,
Tegel,u-bahn,6,19711008_west,,
Borsigwerke,u-bahn,6,19711009_west,,
Holzhauserstr.,u-bahn,6,19711010_west,,
Seidelstr. (Flughafen Tegel),u-bahn,6,19711011_west,,
Scharnweberstr. (Eichborndamm),u-bahn,6,19711012_west,,
Kurt-Schumacher-Platz,u-bahn,6,19711013_west,,
Afrikanischestr. (Friedrich-Ebert-Siedlung),u-bahn,6,19711014_west,,
Rehberge,u-bahn,6,19711015_west,,
Seestr.,u-bahn,6,19711016_west,,
Leopoldplatz,u-bahn,6,19711017_west,,
Bahnhof Wedding,u-bahn,6,19711018_west,,
Reinickendorferstr.,u-bahn,6,19711019_west,,
Bahnhof Friedrichstr. (Stadtbahn),u-bahn,6,19711020_west,,
Kochstr.,u-bahn,6,19711021_west,,
Hallesches Tor,u-bahn,6,19711022_west,,
Mehringdamm,u-bahn,6,19711023_west,,
Flughafen,u-bahn,6,19711024_west,,
Paradestr.,u-bahn,6,19711025_west,,
Tempelhof,u-bahn,6,19711026_west,,
Alt-Tempelhof,u-bahn,6,19711027_west,,
Kaiserin-Augustastr.,u-bahn,6,19711028_west,,
Ullsteinstr.,u-bahn,6,19711029_west,,
Westpfahlweg,u-bahn,6,19711030_west,,
Alt-Mariendorf,u-bahn,6,19711031_west,,
Fehrbellinerplatz,u-bahn,7,19711032_west,,
Blissestr.,u-bahn,7,19711033_west,,
Berlinerstr.,u-bahn,7,19711034_west,,
Bayerischerplatz,u-bahn,7,19711035_west,,
Eisenacherstr.,u-bahn,7,19711036_west,,
Kleistpark,u-bahn,7,19711037_west,,
Yorckstr.,u-bahn,7,19711038_west,,
Möckernbrücke,u-bahn,7,19711039_west,,
Mehringdamm,u-bahn,7,19711040_west,,
Gneisenaustr.,u-bahn,7,19711041_west,,
Südstern,u-bahn,7,19711042_west,,
Hermannplatz,u-bahn,7,19711043_west,,
Rathaus Neukölln,u-bahn,7,19711044_west,,
Karl-Marxstr.,u-bahn,7,19711045_west,,
Neukölln,u-bahn,7,19711046_west,,
Grenzallee,u-bahn,7,19711047_west,,
Blaschkoallee,u-bahn,7,19711048_west,,
Parchimerallee,u-bahn,7,19711049_west,,
Britz-Süd,u-bahn,7,19711050_west,,
Johannisthalerchaussee,u-bahn,7,19711051_west,,
Lipschitzallee,u-bahn,7,19711052_west,,
Wutzkyallee,u-bahn,7,19711053_west,,
Gesundbrunnen,u-bahn,8,19711054_west,,
Voltastr.,u-bahn,8,19711055_west,,
Moritzplatz,u-bahn,8,19711056_west,,
Kottbusser Tor,u-bahn,8,19711057_west,,
Kottbusserdamm (Schönleinstr.),u-bahn,8,19711058_west,,
Hermannplatz,u-bahn,8,19711059_west,,
Boddinstr.,u-bahn,8,19711060_west,,
Leinestr.,u-bahn,8,19711061_west,,
Leopoldplatz,u-bahn,9,19711062_west,,
Amrumerstr. (Rudolf-Virchow-Krankenhaus),u-bahn,9,19711063_west,,
Putlitzstr. (Westhafen),u-bahn,9,19711064_west,,
Birkenstr.,u-bahn,9,19711065_west,,
Turmstr.,u-bahn,9,19711066_west,,
Hansaplatz,u-bahn,9,19711067_west,,
Zoologischer Garten,u-bahn,9,19711068_west,,
Kurfürstendamm (Joachmistalerstr.),u-bahn,9,19711069_west,,
Spichernstr. (Bundesallee),u-bahn,9,19711070_west,,
Güntzelstr.,u-bahn,9,19711071_west,,
Berlinerstr.,u-bahn,9,19711072_west,,
Bundesplatz,u-bahn,9,19711073_west,,
