stop_name,type,line_name,stop_id,location,identifier
Ostbahnhof,tram,1,19640_east,,
U-Bhf. Strausbergerplatz,tram,1,19641_east,,
Leninplatz,tram,1,19642_east,,
"Alexanderplatz, Memhardstr.",tram,1,19643_east,,
Rosenthalerplatz,tram,1,19644_east,,
Invalidenstr. Ecke Chausseestr.,tram,1,19645_east,,
Oranienburger Tor,tram,1,19646_east,,
Hannoverschestr.,tram,1,19647_east,,
Adalbertstr. Ecke Köpenickerstr.,autobus,A1P,19648_east,,
S-Bhf. Jannowitzbrücke,autobus,A1P,19649_east,,
"Alexanderplatz, Grunerstr.",autobus,A1P,196410_east,,
S-Bhf. Warschauerstr.,tram,3,196411_east,,
Kopernikusstr.,tram,3,196412_east,,
Holteistr. Ecke Boxhagenerstr.,tram,3,196413_east,,
Bhf. Frankfurterallee,tram,3,196414_east,,
Roederplatz,tram,3,196415_east,,
Hohenschönhauserstr.,tram,3,196416_east,,
Omnibus-Bhf. Lichtenbergerstr.,tram,3,196417_east,,
Klement-Gottwald-Allee,tram,3,196418_east,,
Antonplatz,tram,3,196419_east,,
Prenzlauer Promenade,tram,3,196420_east,,
Schönhauserallee,tram,3,196421_east,,
Björnsonstr.,tram,3,196422_east,,
S-Bhf. Warschauerstr.,tram,4,196423_east,,
Grünbergerstr.,tram,4,196424_east,,
Frankfurter Tor,tram,4,196425_east,,
Bersarinplatz,tram,4,196426_east,,
Leninallee,tram,4,196427_east,,
Kniprodestr.,tram,4,196428_east,,
Greifswalderstr.,tram,4,196429_east,,
Prenzlauerallee,tram,4,196430_east,,
U-Bhf. Dimitroffstr.,tram,4,196431_east,,
Eberswalderstr. Ecke Oderbergerstr.,tram,4,196432_east,,
Heinrich-Heine-Str.,tram,11,196433_east,,
S-Bhf. Jannowitzbrücke,tram,11,196434_east,,
"Alexanderplatz, Memhardstr.",tram,11,196435_east,,
Rosenthalerplatz,tram,11,196436_east,,
Brunnenstr. Ecke Invalidenstr.,tram,11,196437_east,,
Oranienburger Tor,tram,11,196438_east,,
Bhf. Friedrichstr.,tram,11,196439_east,,
Am Kupfergraben,tram,11,196440_east,,
Hönower Wiesenweg Ecke Blockdammweg,tram,13,196441_east,,
Kraftwerk Klingenberg,tram,13,196442_east,,
Karlshorsterstr.,tram,13,196443_east,,
Holteistr. Ecke Boxhagenerstr.,tram,13,196444_east,,
Frankfurter Tor,tram,13,196445_east,,
Bersarinplatz,tram,13,196446_east,,
Leninallee,tram,13,196447_east,,
Kniprodestr.,tram,13,196448_east,,
Greifswalderstr.,tram,13,196449_east,,
Prenzlauerallee,tram,13,196450_east,,
U-Bhf. Dimitroffstr.,tram,13,196451_east,,
Oderbergerstr. Ecke Eberswalderstr.,tram,13,196452_east,,
"Rosenthal, Hauptstr.",tram,22,196453_east,,
Nordendstr.,tram,22,196454_east,,
Kurt-Fischer-Platz,tram,22,196455_east,,
"Pankow, Kirche",tram,22,196456_east,,
S-Bhf. Pankow,tram,22,196457_east,,
U-Bhf. Vinetastr.,tram,22,196458_east,,
S-Bhf. Schönhauserallee,tram,22,196459_east,,
U-Bhf. Dimitroffstr.,tram,22,196460_east,,
Rosenthalerplatz,tram,22,196461_east,,
"Alexanderplatz, Memhardstr.",tram,22,196462_east,,
S-Bhf. Jannowitzbrücke,tram,22,196463_east,,
"Niederschönhausen, Schillerstr.",tram,46,196464_east,,
Nordend,tram,46,196465_east,,
Ossietzkyplatz,tram,46,196466_east,,
Kurt-Fischer-Platz,tram,46,196467_east,,
"Pankow, Kirche",tram,46,196468_east,,
S-Bhf. Pankow,tram,46,196469_east,,
U-Bhf. Vinetastr.,tram,46,196470_east,,
S-Bhf. Schönhauserallee,tram,46,196471_east,,
U-Bhf. Dimitroffstr.,tram,46,196472_east,,
Brunnenstr.,tram,46,196473_east,,
Oranienburger Tor,tram,46,196474_east,,
Bhf. Friedrichstr.,tram,46,196475_east,,
Am Kupfergraben,tram,46,196476_east,,
"Niederschönhausen, Idastr.",tram,46P,196477_east,,
Ossietzkyplatz,tram,46P,196478_east,,
"Buchholz, Hauptstr.",tram,49,196479_east,,
Rosenthalerstr.,tram,49,196480_east,,
Galenusstr.,tram,49,196481_east,,
S-Bhf. Pankow-Heinersdorf,tram,49,196482_east,,
"Pankow, Kirche",tram,49,196483_east,,
S-Bhf. Pankow,tram,49,196484_east,,
U-Bhf. Vinetastr.,tram,49,196485_east,,
Bornholmerstr.,tram,49,196486_east,,
S-Bhf. Schönhauserallee,tram,49,196487_east,,
U-Bhf. Dimitroffstr.,tram,49,196488_east,,
Rosenthalerplatz,tram,49,196489_east,,
"Hackescher Markt, Große Präsidentenstr.",tram,49,196490_east,,
"Hohenschönhausen, Gartenstadt",tram,63,196491_east,,
Falkenbergerstr. Ecke Wartenbergerstr.,tram,63,196492_east,,
"Hohenschönhausen, Hauptstr.",tram,63,196493_east,,
Degnerstr.,tram,63,196494_east,,
Weißenseerweg,tram,63,196495_east,,
Steuerhaus,tram,63,196496_east,,
Dimitroffstr.,tram,63,196497_east,,
Leninplatz,tram,63,196498_east,,
"Alexanderplatz, Memhardstr.",tram,63,196499_east,,
"Hackescher Markt, Große Präsidentenstr.",tram,63,1964100_east,,
"Hohenschönhausen, Falkenbergerstr.",tram,64,1964101_east,,
"Hohenschönhausen, Hauptstr.",tram,64,1964102_east,,
Degnerstr.,tram,64,1964103_east,,
Weißenseerweg,tram,64,1964104_east,,
Steuerhaus,tram,64,1964105_east,,
Dimitroffstr.,tram,64,1964106_east,,
Leninplatz,tram,64,1964107_east,,
"Alexanderplatz, Leninallee",tram,64,1964108_east,,
S-Bhf. Jannowitzbrücke,tram,64,1964109_east,,
Spittelmarkt,tram,64,1964110_east,,
Dönhoffplatz,tram,64,1964111_east,,
"Johannisthal, Haeckelstr.",tram,69,1964112_east,,
Bhf. Schöneweide,tram,69,1964113_east,,
Wilhelminenhofstr.,tram,69,1964114_east,,
S-Bhf. Karlshorst,tram,69,1964115_east,,
Hochschule für Ökonomie,tram,69,1964116_east,,
Tierpark Berlin,tram,69,1964117_east,,
Alt-Friedrichsfelde Ecke Am Tierpark,tram,69,1964118_east,,
Bhf. Lichtenberg,tram,69,1964119_east,,
Strab. Bhf. Siegfriedstr.,tram,69,1964120_east,,
Herzbergstr.,tram,69,1964121_east,,
Roederplatz,tram,69,1964122_east,,
Steuerhaus,tram,69,1964123_east,,
Dimitroffstr.,tram,69,1964124_east,,
Leninplatz,tram,69,1964125_east,,
"Alexanderplatz, Memhardstr.",tram,69,1964126_east,,
Hackescher Markt,tram,69,1964127_east,,
Oranienburger Tor,tram,69,1964128_east,,
Walter-Ulbricht-Stadion,tram,69,1964129_east,,
"Johannisthal, Haeckelstr.",tram,69E,1964130_east,,
Bhf. Schöneweide,tram,69E,1964131_east,,
Wilhelminenhofstr.,tram,69E,1964132_east,,
S-Bhf. Karlshorst,tram,69E,1964133_east,,
Hochschule für Ökonomie,tram,69E,1964134_east,,
Tierpark Berlin,tram,69E,1964135_east,,
Alt-Friedrichsfelde Ecke Am Tierpark,tram,69E,1964136_east,,
Alt-Friedrichsfelde,tram,69E,1964137_east,,
Bhf. Lichtenberg,tram,69E,1964138_east,,
Strab. Bhf. Siegfriedstr.,tram,69E,1964139_east,,
Herzbergstr.,tram,69E,1964140_east,,
Roederplatz,tram,69E,1964141_east,,
Steuerhaus,tram,69E,1964142_east,,
Dimitroffstr.,tram,69E,1964143_east,,
Kniprodestr.,tram,69E,1964144_east,,
"Hohenschönhausen, Falkenbergerstr.",tram,70,1964145_east,,
Berlinerstr. Ecke Suermondtstr.,tram,70,1964146_east,,
Stadion Buschallee,tram,70,1964147_east,,
Buschallee Ecke Klement-Gottwald-Allee,tram,70,1964148_east,,
Lichtenbergerstr.,tram,70,1964149_east,,
Antonplatz,tram,70,1964150_east,,
Prenzlauer Promenade,tram,70,1964151_east,,
Humannplatz,tram,70,1964152_east,,
U-Bhf. Dimitroffstr.,tram,70,1964153_east,,
Brunnenstr.,tram,70,1964154_east,,
Oranienburger Tor,tram,70,1964155_east,,
Bhf. Friedrichstr.,tram,70,1964156_east,,
Am Kupfergraben,tram,70,1964157_east,,
"Heinersdorf, Romain-Rolland-Str.",tram,71,1964158_east,,
"Heinersdorf, Kirche",tram,71,1964159_east,,
Am Steinberg,tram,71,1964160_east,,
Prenzlauerallee Ecke Wisbyerstr.,tram,71,1964161_east,,
S-Bhf. Prenzlauerallee,tram,71,1964162_east,,
Dimitroffstr.,tram,71,1964163_east,,
Saarbrückerstr.,tram,71,1964164_east,,
Prenzlauer Tor,tram,71,1964165_east,,
"Alexanderplatz, Grunerstr.",tram,71,1964166_east,,
"Jüdenstr., Molkenmarkt",tram,71,1964167_east,,
"Weißensee, Pasedagplatz",tram,72,1964168_east,,
Klement-Gottwald-Allee Ecke Rennbahnstr.,tram,72,1964169_east,,
Lichtenbergerstr.,tram,72,1964170_east,,
Antonplatz,tram,72,1964171_east,,
Prenzlauer Promenade,tram,72,1964172_east,,
S-Bhf. Prenzlauerallee,tram,72,1964173_east,,
Dimitroffstr.,tram,72,1964174_east,,
Saarbrückerstr.,tram,72,1964175_east,,
"Alexanderplatz, Memhardstr.",tram,72,1964176_east,,
Molkenmarkt,tram,72,1964177_east,,
Spittelmarkt,tram,72,1964178_east,,
Charlottenstr.,tram,72,1964179_east,,
Taubenstr. Ecke Glinkastr.,tram,72,1964180_east,,
"Wießensee, Pasedagplatz",tram,74,1964181_east,,
Klement-Gottwald-Allee Ecke Rennbahnstr.,tram,74,1964182_east,,
Lichtenbergerstr.,tram,74,1964183_east,,
Antonplatz,tram,74,1964184_east,,
S-Bhf. Greifswalderstr.,tram,74,1964185_east,,
Königstor,tram,74,1964186_east,,
"Alexanderplatz, Memhardstr.",tram,74,1964187_east,,
Molkenmarkt,tram,74,1964188_east,,
Spittelmarkt,tram,74,1964189_east,,
Leipzigerstr. Ecke Wilhelmstr.,tram,74,1964190_east,,
Klement-Gottwald-Allee Ecke Rennbahnstr.,tram,74E,1964191_east,,
Lichtenbergerstr.,tram,74E,1964192_east,,
Antonplatz,tram,74E,1964193_east,,
S-Bhf. Greifswalderstr.,tram,74E,1964194_east,,
Dimitroffstr.,tram,74E,1964195_east,,
Königstor,tram,74E,1964196_east,,
"Alexanderplatz, Memhardstr.",tram,74E,1964197_east,,
S-Bhf. Jannowitzbrücke,tram,74E,1964198_east,,
Spittelmarkt,tram,74E,1964199_east,,
"Mahlsdorf-Süd, Hubertus",tram,82,1964200_east,,
S-Bhf. Köpenick,tram,82,1964201_east,,
Lindenstr. Ecke Hegelschule,tram,82,1964202_east,,
Pionierpark,tram,82,1964203_east,,
Wilhelminenhofstr. Ecke Edisonstr.,tram,82,1964204_east,,
Heinrich-Duncker-Str. Ecke Ehrlichstr.,tram,82,1964205_east,,
Kraftwerk Klingenberg,tram,82,1964206_east,,
S-Bhf. Ostkreuz,tram,82,1964207_east,,
Stralauerallee Ecke Markgrafendamm,tram,82,1964208_east,,
Warschauerstr.,tram,82,1964209_east,,
Ostbahnhof,tram,82,1964210_east,,
S-Bhf. Jannowitzbrücke,tram,82,1964211_east,,
"Alexanderplatz, Memhardstr.",tram,82,1964212_east,,
Invalidenstr.,tram,82,1964213_east,,
Chausseestr.,tram,82,1964214_east,,
Walter-Ulbricht-Stadion,tram,82,1964215_east,,
Kinderheim,autobus,A82P,1964216_east,,
Friedrich-Junge-Str.,autobus,A82P,1964217_east,,
Markgrafendamm,autobus,A82P,1964218_east,,
Wendenschloß Ecke Ekhofstr.,tram,83,1964219_east,,
VEB Schiffswerft,tram,83,1964220_east,,
RFT-Werk,tram,83,1964221_east,,
Strab. Bhf. Köpenick,tram,83,1964222_east,,
Lindenstr. Ecke Bahnhofstr.,tram,83,1964223_east,,
S-Bhf. Köpenick,tram,83,1964224_east,,
Mahlsdorf-Süd,tram,83,1964225_east,,
Bürgerwäldchen,tram,83,1964226_east,,
Rahnsdorferstr.,tram,83,1964227_east,,
S-Bhf. Mahlsdorf,tram,83,1964228_east,,
Am Falkenberg,tram,84,1964229_east,,
"Altglienicke, Kirche",tram,84,1964230_east,,
S-Bhf. Adlershof,tram,84,1964231_east,,
S-Bhf. Spindlersfeld,tram,84,1964232_east,,
Luisenhain,tram,84,1964233_east,,
Bahnhofstr. Ecke Lindenstr.,tram,84,1964234_east,,
Seelenbinderstr. Ecke Bahnhofstr.,tram,84,1964235_east,,
Hirschgarten,tram,84,1964236_east,,
S-Bhf. Friedrichshagen,tram,84,1964237_east,,
"Bölschestr., Brauerei",tram,84,1964238_east,,
"Friedrichshagen, Wasserwerk",tram,84,1964239_east,,
Wendenschloß,tram,85,1964240_east,,
VEB Schiffswerft,tram,85,1964241_east,,
RFT-Werk,tram,85,1964242_east,,
Strab. Bhf. Köpenick,tram,85,1964243_east,,
Lindenstr. Ecke Hegelschule,tram,85,1964244_east,,
Parkstr.,tram,85,1964245_east,,
Edisonstr.,tram,85,1964246_east,,
Bhf. Schöneweide,tram,85,1964247_east,,
"Johannisthal, Haeckelstr.",tram,85,1964248_east,,
Alt-Schmöckwitz,tram,86,1964249_east,,
Karolinenhof Mitte,tram,86,1964250_east,,
Richtershorn,tram,86,1964251_east,,
Freibad Grünau,tram,86,1964252_east,,
S-Bhf. Grünau,tram,86,1964253_east,,
Chemische Fabrik,tram,86,1964254_east,,
Grünstr.,tram,86,1964255_east,,
Lindenstr. Ecke Bahnhofstr.,tram,86,1964256_east,,
S-Bhf. Köpenick,tram,86,1964257_east,,
Hirtestr.,tram,86,1964258_east,,
"Mahlsdorf-Süd, Hubertus",tram,86,1964259_east,,
Rahnsdorf,tram,87,1964260_east,,
S-Bhf. Friedrichshagen,tram,87,1964261_east,,
"Bölschestr., Brauerei",tram,87,1964262_east,,
Hirschgarten,tram,87,1964263_east,,
Seelenbinderstr. Ecke Bahnhofstr.,tram,87,1964264_east,,
Bahnhofstr. Ecke Lindenstr.,tram,87,1964265_east,,
Parkstr.,tram,87,1964266_east,,
Wilhelminenhofstr. Ecke Edisonstr.,tram,87,1964267_east,,
Bhf. Schöneweide,tram,87,1964268_east,,
Kali-Chemie,tram,87,1964269_east,,
Köpenicker Landstr. Ecke Baumschulenstr.,tram,87,1964270_east,,
S-Bhf. Plänterwald,tram,87,1964271_east,,
Am Treptower Park Ecke Elsenstr.,tram,87,1964272_east,,
Wiener Brücke,tram,87,1964273_east,,
"Oberspree, Bruno-Bürgel-Weg",tram,92,1964274_east,,
Bhf. Schöneweide,tram,92,1964275_east,,
Kali-Chemie,tram,92,1964276_east,,
Baumschulenstr.,tram,92,1964277_east,,
S-Bhf. Baumschulenweg,tram,92,1964278_east,,
Sonnenallee Ecke Baumschulenstr.,tram,92,1964279_east,,
Krankenhaus Köpenick,tram,95,1964280_east,,
Lindenstr. Ecke Hegelschule,tram,95,1964281_east,,
Parkstr.,tram,95,1964282_east,,
Edisonstr.,tram,95,1964283_east,,
Bhf. Schöneweide,tram,95,1964284_east,,
Kali-Chemie,tram,95,1964285_east,,
Baumschulenstr.,tram,95,1964286_east,,
S-Bhf. Plänterwald,tram,95,1964287_east,,
Elsenstr.,tram,95,1964288_east,,
Wiener Brücke,tram,95,1964289_east,,
"Hessenwinkel, Lindenstr.",autobus,A22,1964290_east,,
Fahlenbergstr. Ecke Fürstenwalderallee,autobus,A22,1964291_east,,
S-Bhf. Wilhelmshagen,autobus,A22,1964292_east,,
Zentralschule,autobus,A22,1964293_east,,
Waldschänke,autobus,A22,1964294_east,,
S-Bhf. Rahnsdorf,autobus,A22,1964295_east,,
"Fichtenau, Stadtgrenze",autobus,A22,1964296_east,,
Falkenhöhe,autobus,A23,1964297_east,,
S-Bhf. Altglienicke,autobus,A23,1964298_east,,
Normannenstr.,autobus,A23,1964299_east,,
Wolfmarsteig,autobus,A23,1964300_east,,
Schönefelderchaussee,autobus,A23,1964301_east,,
"Altglienicke, Kirche",autobus,A23,1964302_east,,
VEB Bautransporte,autobus,A26,1964303_east,,
Bhf. Schöneweide,autobus,A26,1964304_east,,
"S-Bhf. Kaulsdorf, Planitzstr.",autobus,A27,1964305_east,,
Chemnitzerstr. Ecke Alt-Kaulsdorf,autobus,A27,1964306_east,,
Ulmenstr.,autobus,A27,1964307_east,,
Wongrowitzerstr.,autobus,A27,1964308_east,,
S-Bhf. Köpenick,autobus,A27,1964309_east,,
Bahnhofstr. Ecke Lindenstr.,autobus,A27,1964310_east,,
"Köpenick, Krankenhaus",autobus,A27,1964311_east,,
Müggelseeperle,autobus,A27,1964312_east,,
Müggelheim,autobus,A27,1964313_east,,
Zentralflughafen,autobus,A36,1964314_east,,
"Schönefeld, Kirche",autobus,A36,1964315_east,,
Gartenstr.,autobus,A36,1964316_east,,
S-Bhf. Grünbergallee,autobus,A36,1964317_east,,
"Bohnsdorf, Kirche",autobus,A36,1964318_east,,
Gartenstadtweg,autobus,A36,1964319_east,,
S-Bhf. Grünau,autobus,A36,1964320_east,,
"Wartenberg, Siedlung",autobus,A39,1964321_east,,
"Wartenberg, Dorfstr.",autobus,A39,1964322_east,,
Falkenbergerchaussee,autobus,A39,1964323_east,,
"Kolonie ""land In Sonne""",autobus,A39,1964324_east,,
"Hohenschönhausen, Falkenbergerstr.",autobus,A39,1964325_east,,
"Buch, Kiesgruben",autobus,A42,1964326_east,,
"Karowerstr., Alt-Buch",autobus,A42,1964327_east,,
Strasse 78,autobus,A42,1964328_east,,
Alt-Karow,autobus,A42,1964329_east,,
Güteraußenring,autobus,A42,1964330_east,,
"Blankenburg, Bahnhofstr.",autobus,A42,1964331_east,,
"Heinersdorf, Kirche",autobus,A42,1964332_east,,
Am Steinberg,autobus,A42,1964333_east,,
Prenzlauer Promenade (Spitze),autobus,A42,1964334_east,,
Bürknersfelde,autobus,A43,1964335_east,,
"Marzahn, Berlinerchaussee",autobus,A43,1964336_east,,
Güterbahnhof Springpfuhl,autobus,A43,1964337_east,,
S-Bhf. Friedrichsfelde-Ost,autobus,A43,1964338_east,,
"Alt-Friedrichsfelde, Am Tierpark",autobus,A43,1964339_east,,
U-Bhf. Friedrichsfelde,autobus,A43,1964340_east,,
Weitlingstr.,autobus,A43,1964341_east,,
S-Bhf. Nöldnerplatz,autobus,A43,1964342_east,,
"Hönow, Dorfstr.",autobus,A44,1964343_east,,
Greifswalderstr.,autobus,A44,1964344_east,,
Am Rosenhag,autobus,A44,1964345_east,,
S-Bhf. Mahlsdorf,autobus,A44,1964346_east,,
Greifswalderstr.,autobus,A44E,1964347_east,,
Am Rosenhag,autobus,A44E,1964348_east,,
S-Bhf. Mahlsdorf,autobus,A44E,1964349_east,,
"Wilhelmsruh, Fontanestr.",autobus,A45,1964350_east,,
Hauptstr. Ecke Edelweißstr.,autobus,A45,1964351_east,,
Ehrenmal,autobus,A45,1964352_east,,
Heinrich-Mann-Platz,autobus,A45,1964353_east,,
"Pankow, Rathaus",autobus,A45,1964354_east,,
"Pankow, Kirche",autobus,A45,1964355_east,,
Prenzlauer Promenade Ecke Kissingenstr.,autobus,A45,1964356_east,,
Am Steinberg,autobus,A45,1964357_east,,
Hamburgerplatz,autobus,A45,1964358_east,,
Pistoriusstr. Ecke Klement-Gottwald-Allee,autobus,A45,1964359_east,,
Lichtenbergerstr. Ecke Klement-Gottwald-Allee,autobus,A45,1964360_east,,
Klement-Gottwald-Allee Ecke Rennbahnstr.,autobus,A45,1964361_east,,
"Weißensee, Schwarzelfenweg",autobus,A45,1964362_east,,
"Ahrensfeld, Kirche",autobus,A46,1964363_east,,
Lpg Falkenberg,autobus,A46,1964364_east,,
Strasse nach Wartenberg,autobus,A46,1964365_east,,
Malchowerweg,autobus,A46,1964366_east,,
Buschallee Ecke Klement-Gottwald-Alle,autobus,A46,1964367_east,,
Klement-Gottwald-Allee Ecke Rennbahnstr.,autobus,A46,1964368_east,,
Feldtmannstr.,autobus,A46,1964369_east,,
"Malchow, Dorfstr.",autobus,A46,1964370_east,,
Bhf. Schöneweide,autobus,A47,1964371_east,,
Sterndamm,autobus,A47,1964372_east,,
Johannisthalerchaussee,autobus,A47,1964373_east,,
Baumschulenstr. Ecke Südostallee,autobus,A47,1964374_east,,
S-Bhf. Baumschulenweg,autobus,A47,1964375_east,,
Eichbuschallee,autobus,A47,1964376_east,,
"Treptow, Rathaus",autobus,A47,1964377_east,,
S-Bhf. Treptower Park,autobus,A47,1964378_east,,
Bhf. Schöneweide,autobus,A48,1964379_east,,
Königsheideweg,autobus,A48,1964380_east,,
Lindhorstweg,autobus,A48,1964381_east,,
Stubenrauchstr.,autobus,A48,1964382_east,,
"Kaulsdorf, Bausdorfstr.",autobus,A49,1964383_east,,
Ridbacherstr.,autobus,A49,1964384_east,,
Grottkauerstr.,autobus,A49,1964385_east,,
Uckermarkstr.,autobus,A49,1964386_east,,
Storkowerstr. Ecke Greifswalderstr.,autobus,A54,1964387_east,,
S-Bhf. Lenninallee,autobus,A54,1964388_east,,
Dimitroffstr. Ecke Leninallee,autobus,A54,1964389_east,,
"Wilhelmsruh, Fontanestr.",autobus,A55,1964390_east,,
Hauptstr. Ecke Edelweißstr.,autobus,A55,1964391_east,,
Ehrenmal,autobus,A55,1964392_east,,
Heinrich-Mann-Platz,autobus,A55,1964393_east,,
"Pankow, Rathaus",autobus,A55,1964394_east,,
"Pankow, Kirche",autobus,A55,1964395_east,,
S-Bhf. Pankow,autobus,A55,1964396_east,,
Prenzlauer Promenade Ecke Granitzstr.,autobus,A55,1964397_east,,
"Heinersdorf, Kirche",autobus,A55,1964398_east,,
Am Steinberg,autobus,A55,1964399_east,,
Hamburgerplatz,autobus,A55,1964400_east,,
Gustav-Adolf-Str. Ecke Rennbahnstr.,autobus,A55,1964401_east,,
Große Seestr. Ecke Klement-Gottwald-Allee,autobus,A55,1964402_east,,
"Weißensee, Liebermannstr. Ecke Piesporterstr.",autobus,A55,1964403_east,,
"Weißensee, Nüßlerstr.",autobus,A56,1964404_east,,
Rennbahnstr. Ecke Gustav-Adolf-Str.,autobus,A56,1964405_east,,
Hamburgerplatz,autobus,A56,1964406_east,,
Prenzlauer Promenade,autobus,A56,1964407_east,,
Wicherstr. Ecke Prenzlauerallee,autobus,A56,1964408_east,,
Kniprodestr. Ecke Ermländischestr.,autobus,A57,1964409_east,,
Dimitroffstr.,autobus,A57,1964410_east,,
Königstor,autobus,A57,1964411_east,,
S-Bhf. Alexanderplatz,autobus,A57,1964412_east,,
Marx-Engels-Platz,autobus,A57,1964413_east,,
Friedrichstr.,autobus,A57,1964414_east,,
Bhf. Friedrichstr.,autobus,A57,1964415_east,,
Schumannstr.,autobus,A57,1964416_east,,
Robert-Koch-Platz,autobus,A57,1964417_east,,
Fontanestr.,autobus,A58,1964418_east,,
"Wilhelmsruh, Hauptstrasee",autobus,A58,1964419_east,,
Ehrenmal,autobus,A58,1964420_east,,
Heinrich-Mann-Platz,autobus,A58,1964421_east,,
"Pankow, Rathaus",autobus,A58,1964422_east,,
"Pankow, Kirche",autobus,A58,1964423_east,,
S-Bhf. Pankow,autobus,A58,1964424_east,,
U-Bhf. Pankow,autobus,A58,1964425_east,,
Walther-Ulbricht-Stadion,autobus,A59,1964426_east,,
Invalidenstr.,autobus,A59,1964427_east,,
Oranienburger Tor,autobus,A59,1964428_east,,
Bhf. Friedrichstr.,autobus,A59,1964429_east,,
Französischestr.,autobus,A59,1964430_east,,
U-Bhf. Stadtmitte,autobus,A59,1964431_east,,
U-Bhf. Thälmannplatz,autobus,A59,1964432_east,,
"Glienicke, Kirche",autobus,A7,1964433_east,,
Elsässerstr.,autobus,A7,1964434_east,,
"Schildow, Kirche",autobus,A7,1964435_east,,
"Blankenfelde, Hauptstr.",autobus,A7,1964436_east,,
Nordend,autobus,A7,1964437_east,,
Kurt-Fischer-Platz,autobus,A7,1964438_east,,
"Pankow, Rathaus",autobus,A7,1964439_east,,
U-Bhf. Vinetastr.,autobus,A7,1964440_east,,
"Schildow, Kirche",autobus,A7E,1964441_east,,
"Blankenfelde, Hauptstr.",autobus,A7E,1964442_east,,
Nordend,autobus,A7E,1964443_east,,
Kurt-Fischer-Platz,autobus,A7E,1964444_east,,
"Pankow, Rathaus",autobus,A7E,1964445_east,,
U-Bhf. Vinetastr.,autobus,A7E,1964446_east,,
"Waldesruh, Malhlsdorferallee",autobus,A8,1964447_east,,
Fichtestr. Ecke Schopenhauerstr.,autobus,A8,1964448_east,,
Hultschinerdamm,autobus,A8,1964449_east,,
Sadowastr.,autobus,A8,1964450_east,,
Chemnitzer Ecke Ulmenstr.,autobus,A8,1964451_east,,
"Alt-Biesdorf, Oberfeldstr.",autobus,A8,1964452_east,,
"Alt-Friedrichsfelde, Am Tierpark",autobus,A8,1964453_east,,
U-Bhf. Friedrichsfelde,autobus,A8,1964454_east,,
Sadowastr.,autobus,A8E,1964455_east,,
Chemnitzer Ecke Ulmenstr.,autobus,A8E,1964456_east,,
"Alt-Biesdorf, Oberfeldstr.",autobus,A8E,1964457_east,,
"Alt-Friedrichsfelde, Am Tierpark",autobus,A8E,1964458_east,,
U-Bhf. Friedrichsfelde,autobus,A8E,1964459_east,,
Kurischestr.,autobus,A9,1964460_east,,
Dimitroffstr.,autobus,A9,1964461_east,,
Königstor,autobus,A9,1964462_east,,
S-Bhf. Alexanderplatz,autobus,A9,1964463_east,,
Marx-Engels-Platz,autobus,A9,1964464_east,,
Friedrichstr.,autobus,A9,1964465_east,,
Bhf. Friedrichstr.,autobus,A9,1964466_east,,
Oranienburger Tor,autobus,A9,1964467_east,,
Platz Vor Dem Neuen Tor,autobus,A9,1964468_east,,
Scharnhorststr. Ecke Kielerstr.,autobus,A9,1964469_east,,
Diepensee,autobus,AD,1964470_east,,
Kienberg,autobus,AD,1964471_east,,
Waltersdorf,autobus,AD,1964472_east,,
"Bohnsdorf, Waldstr.",autobus,AD,1964473_east,,
S-Bhf. Grünau,autobus,AD,1964474_east,,
Zühlsdorf,autobus,AS,1964475_east,,
"Summt, Seegarten",autobus,AS,1964476_east,,
"Triftweg, Lpg",autobus,AS,1964477_east,,
"Mühlenbeck, Schule",autobus,AS,1964478_east,,
Mönchmühle,autobus,AS,1964479_east,,
"Schildow, Kirche",autobus,AS,1964480_east,,
"Bohnsdorf, Waldstr.",autobus,A38,1964481_east,,
Eichbuschplatz,autobus,A38,1964482_east,,
Joachimstr.,autobus,A38,1964483_east,,
S-Bhf. Grünau,autobus,A38,1964484_east,,
Neu-Lindenberg,autobus,AL,1964485_east,,
Lindenberg,autobus,AL,1964486_east,,
"Malchow, Dorfstr.",autobus,AL,1964487_east,,
Groß Ziethen,autobus,AZ,1964488_east,,
Klein Ziethen,autobus,AZ,1964489_east,,
"Waßmannsdorf, Warteh.",autobus,AZ,1964490_east,,
"Schönefeld, Kirche",autobus,AZ,1964491_east,,
Bhf. Schönefeld,autobus,AZ,1964492_east,,
Friedrichstr.,s-bahn,KBS 101,1964493_east,,
Marx-Engels-Platz,s-bahn,KBS 101,1964494_east,,
Alexanderplatz,s-bahn,KBS 101,1964495_east,,
Jannowitzbrücke,s-bahn,KBS 101,1964496_east,,
Ostbahnhof,s-bahn,KBS 101,1964497_east,,
Warschauer Str.,s-bahn,KBS 101,1964498_east,,
Ostkreuz,s-bahn,KBS 101,1964499_east,,
Nöldnerplatz,s-bahn,KBS 101,1964500_east,,
Lichtenberg,s-bahn,KBS 101,1964501_east,,
Friedrichsfelde Ost,s-bahn,KBS 101,1964502_east,,
Biesdorf,s-bahn,KBS 101,1964503_east,,
Kaulsdorf,s-bahn,KBS 101,1964504_east,,
Mahlsdorf,s-bahn,KBS 101,1964505_east,,
Hoppegarten (Mark),s-bahn,KBS 101,1964506_east,,
Neuenhagen (b Bln),s-bahn,KBS 101,1964507_east,,
Fredersdorf (b Bln),s-bahn,KBS 101,1964508_east,,
Giebelsee,s-bahn,KBS 101,1964509_east,,
Strausberg,s-bahn,KBS 101,1964510_east,,
Strausberg,s-bahn,KBS 101c,1964511_east,,
Strausberg Stadt,s-bahn,KBS 101c,1964512_east,,
Strausberg Nord,s-bahn,KBS 101c,1964513_east,,
Friedrichstr.,s-bahn,KBS 102,1964514_east,,
Marx-Engels-Platz,s-bahn,KBS 102,1964515_east,,
Alexanderplatz,s-bahn,KBS 102,1964516_east,,
Jannowitzbrücke,s-bahn,KBS 102,1964517_east,,
Ostbahnhof,s-bahn,KBS 102,1964518_east,,
Warschauer Str.,s-bahn,KBS 102,1964519_east,,
Ostkreuz,s-bahn,KBS 102,1964520_east,,
Rummelsburg,s-bahn,KBS 102,1964521_east,,
Betriebsbahnhof Rummelsburg,s-bahn,KBS 102,1964522_east,,
Karlshorst,s-bahn,KBS 102,1964523_east,,
Wuhlheide,s-bahn,KBS 102,1964524_east,,
Köpenick,s-bahn,KBS 102,1964525_east,,
Hirschgarten,s-bahn,KBS 102,1964526_east,,
Friedrichshagen,s-bahn,KBS 102,1964527_east,,
Rahnsdorf,s-bahn,KBS 102,1964528_east,,
Wilhelmshagen,s-bahn,KBS 102,1964529_east,,
Erkner,s-bahn,KBS 102,1964530_east,,
Falkensee,s-bahn,KBS 103,1964531_east,,
Albrechtshof,s-bahn,KBS 103,1964532_east,,
Friedrichstr.,s-bahn,KBS 103,1964533_east,,
Marx-Engels-Platz,s-bahn,KBS 103,1964534_east,,
Alexanderplatz,s-bahn,KBS 103,1964535_east,,
Jannowitzbrücke,s-bahn,KBS 103,1964536_east,,
Ostbahnhof,s-bahn,KBS 103,1964537_east,,
Warschauer Str.,s-bahn,KBS 103,1964538_east,,
Ostkreuz,s-bahn,KBS 103,1964539_east,,
Treptower Park,s-bahn,KBS 103,1964540_east,,
Plänterwald,s-bahn,KBS 103,1964541_east,,
Baumschulenweg,s-bahn,KBS 103,1964542_east,,
Schöneweide,s-bahn,KBS 103,1964543_east,,
Betriebsbahnhof Schöneweide,s-bahn,KBS 103,1964544_east,,
Adlershof,s-bahn,KBS 103,1964545_east,,
Grünau,s-bahn,KBS 103,1964546_east,,
Eichwalde,s-bahn,KBS 103,1964547_east,,
Zeuthen,s-bahn,KBS 103,1964548_east,,
Wildau,s-bahn,KBS 103,1964549_east,,
Königs Wusterhausen,s-bahn,KBS 103,1964550_east,,
Friedrichstr.,s-bahn,KBS 103a,1964551_east,,
Marx-Engels-Platz,s-bahn,KBS 103a,1964552_east,,
Alexanderplatz,s-bahn,KBS 103a,1964553_east,,
Jannowitzbrücke,s-bahn,KBS 103a,1964554_east,,
Ostbahnhof,s-bahn,KBS 103a,1964555_east,,
Warschauer Str.,s-bahn,KBS 103a,1964556_east,,
Ostkreuz,s-bahn,KBS 103a,1964557_east,,
Treptower Park,s-bahn,KBS 103a,1964558_east,,
Plänterwald,s-bahn,KBS 103a,1964559_east,,
Baumschulenweg,s-bahn,KBS 103a,1964560_east,,
Schöneweide,s-bahn,KBS 103a,1964561_east,,
Betriebsbahnhof Schöneweide,s-bahn,KBS 103a,1964562_east,,
Adlershof,s-bahn,KBS 103a,1964563_east,,
Oranienburg,s-bahn,KBS 104,1964564_east,,
Lehnitz,s-bahn,KBS 104,1964565_east,,
Borgsdorf,s-bahn,KBS 104,1964566_east,,
Birkenwerder,s-bahn,KBS 104,1964567_east,,
Hohen Neuendorf (b Bln),s-bahn,KBS 104,1964568_east,,
Bergfelde (b Bln),s-bahn,KBS 104,1964569_east,,
Schönfließ,s-bahn,KBS 104,1964570_east,,
Blankenburg,s-bahn,KBS 104,1964571_east,,
Pankow-Heinersdorf,s-bahn,KBS 104,1964572_east,,
Pankow,s-bahn,KBS 104,1964573_east,,
Schönhauserallee,s-bahn,KBS 104,1964574_east,,
Prenzlauerallee,s-bahn,KBS 104,1964575_east,,
Greifswalder Str.,s-bahn,KBS 104,1964576_east,,
Leninallee,s-bahn,KBS 104,1964577_east,,
Zentralviehhof,s-bahn,KBS 104,1964578_east,,
Frankfurterallee,s-bahn,KBS 104,1964579_east,,
Ostkreuz,s-bahn,KBS 104,1964580_east,,
Warschauer Str.,s-bahn,KBS 104,1964581_east,,
Ostbahnhof,s-bahn,KBS 104,1964582_east,,
Jannowitzbrücke,s-bahn,KBS 104,1964583_east,,
Alexanderplatz,s-bahn,KBS 104,1964584_east,,
Hennigsdorf (b Bln),s-bahn,KBS 104d,1964585_east,,
Hennigsdorf Nord,s-bahn,KBS 104d,1964586_east,,
Hohenschöpping,s-bahn,KBS 104d,1964587_east,,
Velten (Mark),s-bahn,KBS 104d,1964588_east,,
Bernau (b Bln),s-bahn,KBS 106,1964589_east,,
Zepernick (b Bernau),s-bahn,KBS 106,1964590_east,,
Röntgental,s-bahn,KBS 106,1964591_east,,
Buch,s-bahn,KBS 106,1964592_east,,
Karow,s-bahn,KBS 106,1964593_east,,
Blankenburg,s-bahn,KBS 106,1964594_east,,
Pankow-Heinersdorf,s-bahn,KBS 106,1964595_east,,
Pankow,s-bahn,KBS 106,1964596_east,,
Schönhauserallee,s-bahn,KBS 106,1964597_east,,
Prenzlauerallee,s-bahn,KBS 106,1964598_east,,
Greifswalder Str.,s-bahn,KBS 106,1964599_east,,
Leninallee,s-bahn,KBS 106,1964600_east,,
Zentralviehhof,s-bahn,KBS 106,1964601_east,,
Frankfurterallee,s-bahn,KBS 106,1964602_east,,
Ostkreuz,s-bahn,KBS 106,1964603_east,,
Treptower Park,s-bahn,KBS 106,1964604_east,,
Plänterwald,s-bahn,KBS 106,1964605_east,,
Baumschulenweg,s-bahn,KBS 106,1964606_east,,
Schöneweide,s-bahn,KBS 106,1964607_east,,
Oberspree,s-bahn,KBS 106,1964608_east,,
Spindlersfeld,s-bahn,KBS 106,1964609_east,,
Schönhauserallee,s-bahn,KBS 106a,1964610_east,,
Prenzlauerallee,s-bahn,KBS 106a,1964611_east,,
Greifswalder Str.,s-bahn,KBS 106a,1964612_east,,
Leninallee,s-bahn,KBS 106a,1964613_east,,
Zentralviehhof,s-bahn,KBS 106a,1964614_east,,
Frankfurterallee,s-bahn,KBS 106a,1964615_east,,
Ostkreuz,s-bahn,KBS 106a,1964616_east,,
Treptower Park,s-bahn,KBS 106a,1964617_east,,
Plänterwald,s-bahn,KBS 106a,1964618_east,,
Baumschulenweg,s-bahn,KBS 106a,1964619_east,,
Schöneweide,s-bahn,KBS 106a,1964620_east,,
Betriebsbahnhof Schöneweide,s-bahn,KBS 106a,1964621_east,,
Adlershof,s-bahn,KBS 106a,1964622_east,,
Kosterstr.,omnibus,O30,1964623_east,,
Andreasstr.,omnibus,O30,1964624_east,,
Küstrinerplatz,omnibus,O30,1964625_east,,
Warschauerstr.,omnibus,O30,1964626_east,,
Boxhagenerstr. Ecke Holteistr.,omnibus,O30,1964627_east,,
S-Bhf. Rummelsburg,omnibus,O30,1964628_east,,
Weitlingstr.,omnibus,O30,1964629_east,,
Bhf. Lichtenberg,omnibus,O30,1964630_east,,
Obus-Bf. Siegfriedstr.,omnibus,O30,1964631_east,,
Roederplatz,omnibus,O30,1964632_east,,
Proskauer Ecke Dolzigerstr.,omnibus,O30,1964633_east,,
Ebertystr. Ecke Leninallee,omnibus,O30,1964634_east,,
Greifswalderstr. Ecke Dimitroffstr.,omnibus,O30,1964635_east,,
Königstor,omnibus,O30,1964636_east,,
"Alexanderplatz, Neue Königstr.",omnibus,O30,1964637_east,,
Klosterstr.,omnibus,O30,1964638_east,,
Marzahnerchaussee,omnibus,O37,1964639_east,,
"Alt-Marzahn, Kirche",omnibus,O37,1964640_east,,
Elisabethstr.,omnibus,O37,1964641_east,,
S-Bhf. Biesdorf,omnibus,O37,1964642_east,,
"Alt-Biesdorf, Oberfeldstr.",omnibus,O37,1964643_east,,
"Alt-Friedrichsfelde, Am Tierpark",omnibus,O37,1964644_east,,
Bhf. Lichtenberg,omnibus,O37,1964645_east,,
Ostbahnhof,omnibus,O40,1964646_east,,
Küstrinerplatz,omnibus,O40,1964647_east,,
Stalinallee,omnibus,O40,1964648_east,,
Leninplatz,omnibus,O40,1964649_east,,
Königstor,omnibus,O40,1964650_east,,
Prenzlauer Tor,omnibus,O40,1964651_east,,
Rosenthalerplatz,omnibus,O40,1964652_east,,
Oranienburger Tor,omnibus,O40,1964653_east,,
Robert-Koch-Platz,omnibus,O40,1964654_east,,
S-Bhf. Friedrichshagen (Grenze),tram,"S-Bhf. Friedrichshagen <> Rüdersdorf, Karl-Marx-Platz (VEB Schöneiche-Rüdersdorf)",1964655_east,,
"Schöneiche, Waldstr.",tram,"S-Bhf. Friedrichshagen <> Rüdersdorf, Karl-Marx-Platz (VEB Schöneiche-Rüdersdorf)",1964656_east,,
"Schöneiche, Goethepark",tram,"S-Bhf. Friedrichshagen <> Rüdersdorf, Karl-Marx-Platz (VEB Schöneiche-Rüdersdorf)",1964657_east,,
"Schöneiche, Dorfstr.",tram,"S-Bhf. Friedrichshagen <> Rüdersdorf, Karl-Marx-Platz (VEB Schöneiche-Rüdersdorf)",1964658_east,,
"Schöneiche, Dorfaue",tram,"S-Bhf. Friedrichshagen <> Rüdersdorf, Karl-Marx-Platz (VEB Schöneiche-Rüdersdorf)",1964659_east,,
"Schöneiche, Schillerstr.",tram,"S-Bhf. Friedrichshagen <> Rüdersdorf, Karl-Marx-Platz (VEB Schöneiche-Rüdersdorf)",1964660_east,,
"Schöneiche, Grätzwalde",tram,"S-Bhf. Friedrichshagen <> Rüdersdorf, Karl-Marx-Platz (VEB Schöneiche-Rüdersdorf)",1964661_east,,
"Schöneiche, Jägerstr.",tram,"S-Bhf. Friedrichshagen <> Rüdersdorf, Karl-Marx-Platz (VEB Schöneiche-Rüdersdorf)",1964662_east,,
"Rüdersdorf, Berghof",tram,"S-Bhf. Friedrichshagen <> Rüdersdorf, Karl-Marx-Platz (VEB Schöneiche-Rüdersdorf)",1964663_east,,
"Rüdersdorf, Thälmannstr.",tram,"S-Bhf. Friedrichshagen <> Rüdersdorf, Karl-Marx-Platz (VEB Schöneiche-Rüdersdorf)",1964664_east,,
"Rüdersdorf, Heinitzstr.",tram,"S-Bhf. Friedrichshagen <> Rüdersdorf, Karl-Marx-Platz (VEB Schöneiche-Rüdersdorf)",1964665_east,,
"Rüdersdorf, Post",tram,"S-Bhf. Friedrichshagen <> Rüdersdorf, Karl-Marx-Platz (VEB Schöneiche-Rüdersdorf)",1964666_east,,
"Rüdersdorf, Schulstr.",tram,"S-Bhf. Friedrichshagen <> Rüdersdorf, Karl-Marx-Platz (VEB Schöneiche-Rüdersdorf)",1964667_east,,
"Rüdersdorf, Karl-Marx-Platz",tram,"S-Bhf. Friedrichshagen <> Rüdersdorf, Karl-Marx-Platz (VEB Schöneiche-Rüdersdorf)",1964668_east,,
S-Bhf. Rahnsdorf,tram,S-Bhf. Rahnsdorf <> Woltersdorfer Schleuse (VEB Woltersdorf),1964669_east,,
Goethestr.,tram,S-Bhf. Rahnsdorf <> Woltersdorfer Schleuse (VEB Woltersdorf),1964670_east,,
Eichendamm,tram,S-Bhf. Rahnsdorf <> Woltersdorfer Schleuse (VEB Woltersdorf),1964671_east,,
Lerchenstr.,tram,S-Bhf. Rahnsdorf <> Woltersdorfer Schleuse (VEB Woltersdorf),1964672_east,,
Fasanenstr.,tram,S-Bhf. Rahnsdorf <> Woltersdorfer Schleuse (VEB Woltersdorf),1964673_east,,
Thälmannplatz,tram,S-Bhf. Rahnsdorf <> Woltersdorfer Schleuse (VEB Woltersdorf),1964674_east,,
Blumenstr.,tram,S-Bhf. Rahnsdorf <> Woltersdorfer Schleuse (VEB Woltersdorf),1964675_east,,
"Woltersdorf, Krankenhaus",tram,S-Bhf. Rahnsdorf <> Woltersdorfer Schleuse (VEB Woltersdorf),1964676_east,,
Woltersdorfer Schleuse,tram,S-Bhf. Rahnsdorf <> Woltersdorfer Schleuse (VEB Woltersdorf),1964677_east,,
Pankow (Vinetastr.),u-bahn,A,1964678_east,,
Schönhauserallee,u-bahn,A,1964679_east,,
Dimitroffstr.,u-bahn,A,1964680_east,,
Senefelderplatz,u-bahn,A,1964681_east,,
Luxemburgplatz,u-bahn,A,1964682_east,,
Alexanderplatz,u-bahn,A,1964683_east,,
Klosterstr.,u-bahn,A,1964684_east,,
Märkisches Museum,u-bahn,A,1964685_east,,
Spittelmarkt,u-bahn,A,1964686_east,,
Hausvogteiplatz,u-bahn,A,1964687_east,,
Stadtmitte,u-bahn,A,1964688_east,,
Thälmannplatz,u-bahn,A,1964689_east,,
Alexanderplatz,u-bahn,E,1964690_east,,
Schillingstr.,u-bahn,E,1964691_east,,
Strausbergerplatz,u-bahn,E,1964692_east,,
Marchlewskistr.,u-bahn,E,1964693_east,,
Frankfurter Tor,u-bahn,E,1964694_east,,
Samariterstr.,u-bahn,E,1964695_east,,
Stalinallee (Ringbahn),u-bahn,E,1964696_east,,
Magdalenenstr.,u-bahn,E,1964697_east,,
Bahnhof Lichtenberg (Zentralfriedhof),u-bahn,E,1964698_east,,
Friedrichsfelde (Tierpark),u-bahn,E,1964699_east,,
