stop_name,type,line_name,stop_id,location,identifier
U-Bhf. Friedrichsfelde,omnibus,D,19460_unified,,
Treskowallee,omnibus,D,19461_unified,,
Warmbaderstr.,omnibus,D,19462_unified,,
Biesdorf-Süd,omnibus,D,19463_unified,,
"Kaulsdorf-Süd, Zimmermannstr.",omnibus,D,19464_unified,,
Ulmenstr.,omnibus,D,19465_unified,,
"Mahlsdorf-Süd, Kohlisstr.",omnibus,D,19466_unified,,
Akazienallee,omnibus,D,19467_unified,,
"Dahlwitz, Kol. Waldesruh",omnibus,D,19468_unified,,
"Pichelsberg, Stössenseebrücke",ferry,Wannsee-Pichelsberg,19469_unified,,
Kladow,ferry,Wannsee-Pichelsberg,194610_unified,,
Wannsee,ferry,Wannsee-Pichelsberg,194611_unified,,
Flughafen,omnibus,1,194612_unified,,
Franz-Mehringstr.,omnibus,1,194613_unified,,
Hallesches Tor,omnibus,1,194614_unified,,
Lindenstr.,omnibus,1,194615_unified,,
Jerusalemerstr.,omnibus,1,194616_unified,,
Dönhoffplatz,omnibus,1,194617_unified,,
Werderscher markt,omnibus,1,194618_unified,,
Schloßplatz,omnibus,1,194619_unified,,
Alexanderplatz,omnibus,1,194620_unified,,
Alexanderstr.,omnibus,1,194621_unified,,
Holzmarkstr.,omnibus,1,194622_unified,,
Schlesischer Bahnhof,omnibus,1,194623_unified,,
Am Schlesischen Bahnhof,omnibus,1,194624_unified,,
Fruchtstr.,omnibus,1,194625_unified,,
Kürstrinerplatz,omnibus,1,194626_unified,,
Frankfurterallee,omnibus,1,194627_unified,,
Frankfurterallee Ecke Warschauerstr.,omnibus,1,194628_unified,,
Frankfurterallee Ecke Gürtelstr.,omnibus,1,194629_unified,,
Alt-Friedrichsfelde,omnibus,1,194630_unified,,
Waldstr. Ecke Thälmannstr.,omnibus,8,194631_unified,,
"Seestr., Friedhöfe",omnibus,8,194632_unified,,
"Zehlendorf, Rathaus",omnibus,17,194633_unified,,
Potsdamerchaussee,omnibus,17,194634_unified,,
Bhf. Nikolassee,omnibus,17,194635_unified,,
Bhf. Wannsee,omnibus,17,194636_unified,,
Stölpchensee,omnibus,17,194637_unified,,
"Steglitz, Rathaus",omnibus,5,194638_unified,,
Schloßstr.,omnibus,5,194639_unified,,
Unter den Eichen,omnibus,5,194640_unified,,
Berlinerstr. Ecke Thielallee,omnibus,5,194641_unified,,
"Zehlendorf, Rathaus",omnibus,5,194642_unified,,
Alexanderplatz,omnibus,9,194643_unified,,
Schloßplatz,omnibus,9,194644_unified,,
Unter den Linden Ecke Friedrichstr.,omnibus,9,194645_unified,,
Brandenburger Tor,omnibus,9,194646_unified,,
Charlottenburgerchaussee,omnibus,9,194647_unified,,
"Charlottenburg, Knie",omnibus,9,194648_unified,,
U-Bhf. Lichtenberg,omnibus,H,194649_unified,,
Alt-Friedrichsfelde,omnibus,H,194650_unified,,
Alt-Biesdorf,omnibus,H,194651_unified,,
Alt-Kaulsdorf,omnibus,H,194652_unified,,
Bhf. Kaulsdorf,omnibus,H,194653_unified,,
Giesestr.,omnibus,H,194654_unified,,
"Mahlsdorf, Zeppelinstr.",omnibus,H,194655_unified,,
Bahnhof Mahlsdorf,omnibus,H,194656_unified,,
Hönowerstr.,omnibus,H,194657_unified,,
Hönow,omnibus,H,194658_unified,,
Müggelheim,omnibus,27,194659_unified,,
Müggelheimerdamm,omnibus,27,194660_unified,,
"Köpenick, Krankenhaus",omnibus,27,194661_unified,,
Gesundbrunnen,s-bahn,KBS 100,194662_unified,,
Schönhauserallee,s-bahn,KBS 100,194663_unified,,
Prenzlauerallee,s-bahn,KBS 100,194664_unified,,
Greifswalderstr.,s-bahn,KBS 100,194665_unified,,
Frankfurterallee,s-bahn,KBS 100,194666_unified,,
Ostkreuz,s-bahn,KBS 100,194667_unified,,
Treptower Park,s-bahn,KBS 100,194668_unified,,
Sonnenallee,s-bahn,KBS 100,194669_unified,,
Neukölln,s-bahn,KBS 100,194670_unified,,
Hermannstr.,s-bahn,KBS 100,194671_unified,,
Tempelhof,s-bahn,KBS 100,194672_unified,,
Papestr.,s-bahn,KBS 100,194673_unified,,
Schöneberg,s-bahn,KBS 100,194674_unified,,
Innsbruckerplatz,s-bahn,KBS 100,194675_unified,,
Wilmersdorf,s-bahn,KBS 100,194676_unified,,
Schmargendorf,s-bahn,KBS 100,194677_unified,,
Hohenzollerndamm,s-bahn,KBS 100,194678_unified,,
Halensee,s-bahn,KBS 100,194679_unified,,
Westkreuz,s-bahn,KBS 100,194680_unified,,
Witzleben,s-bahn,KBS 100,194681_unified,,
Westend,s-bahn,KBS 100,194682_unified,,
Jungfernheide,s-bahn,KBS 100,194683_unified,,
Beusselstr.,s-bahn,KBS 100,194684_unified,,
Putlitzstr.,s-bahn,KBS 100,194685_unified,,
Wedding,s-bahn,KBS 100,194686_unified,,
Hermannstr.,s-bahn,KBS 100a,194687_unified,,
Neukölln,s-bahn,KBS 100a,194688_unified,,
Köllnische Heide,s-bahn,KBS 100a,194689_unified,,
Baumschulenweg,s-bahn,KBS 100a,194690_unified,,
Schöneweide,s-bahn,KBS 100a,194691_unified,,
Betriebsbahnhof Schöneweide,s-bahn,KBS 100a,194692_unified,,
Adlershof,s-bahn,KBS 100a,194693_unified,,
Grünau,s-bahn,KBS 100a,194694_unified,,
Jungfernheide,s-bahn,KBS 100b,194695_unified,,
Wernerwerk,s-bahn,KBS 100b,194696_unified,,
Siemensstadt,s-bahn,KBS 100b,194697_unified,,
Gartenfeld,s-bahn,KBS 100b,194698_unified,,
Spandau,s-bahn,KBS 100c,194699_unified,,
Pichelsberg,s-bahn,KBS 100c,1946100_unified,,
Reichssportfeld,s-bahn,KBS 100c,1946101_unified,,
Heerstr.,s-bahn,KBS 100c,1946102_unified,,
Eichkamp,s-bahn,KBS 100c,1946103_unified,,
Westkreuz,s-bahn,KBS 100c,1946104_unified,,
Charlottenburg,s-bahn,KBS 100c,1946105_unified,,
Savignyplatz,s-bahn,KBS 100c,1946106_unified,,
Zoologischer Garten,s-bahn,KBS 100c,1946107_unified,,
Tiergarten,s-bahn,KBS 100c,1946108_unified,,
Bellevue,s-bahn,KBS 100c,1946109_unified,,
Lehrter Stadtbahnhof,s-bahn,KBS 100c,1946110_unified,,
Friedrichstr.,s-bahn,KBS 100c,1946111_unified,,
Börse,s-bahn,KBS 100c,1946112_unified,,
Alexanderplatz,s-bahn,KBS 100c,1946113_unified,,
Jannowitzbrücke,s-bahn,KBS 100c,1946114_unified,,
Schlesischer Bahnhof,s-bahn,KBS 100c,1946115_unified,,
Warschauerstr.,s-bahn,KBS 100c,1946116_unified,,
Ostkreuz,s-bahn,KBS 100c,1946117_unified,,
Treptower Park,s-bahn,KBS 100c,1946118_unified,,
Baumschulenweg,s-bahn,KBS 100c,1946119_unified,,
Schöneweide,s-bahn,KBS 100c,1946120_unified,,
Betriebsbahnhof Schöneweide,s-bahn,KBS 100c,1946121_unified,,
Adlershof,s-bahn,KBS 100c,1946122_unified,,
Grünau,s-bahn,KBS 100c,1946123_unified,,
Schöneweide,s-bahn,KBS 100d,1946124_unified,,
Oberspree,s-bahn,KBS 100d,1946125_unified,,
Spindlersfeld,s-bahn,KBS 100d,1946126_unified,,
Bernau,s-bahn,KBS 103,1946127_unified,,
Zepernick,s-bahn,KBS 103,1946128_unified,,
Röntgental,s-bahn,KBS 103,1946129_unified,,
Buch,s-bahn,KBS 103,1946130_unified,,
Karow,s-bahn,KBS 103,1946131_unified,,
Blankenburg,s-bahn,KBS 103,1946132_unified,,
Pankow-Heinersdorf,s-bahn,KBS 103,1946133_unified,,
Pankow-Schönhausen,s-bahn,KBS 103,1946134_unified,,
Bornholmerstr.,s-bahn,KBS 103,1946135_unified,,
Gesundbrunnen,s-bahn,KBS 103,1946136_unified,,
Humboldthain,s-bahn,KBS 103,1946137_unified,,
Stettiner Bahnhof,s-bahn,KBS 103,1946138_unified,,
Potsdamerplatz,s-bahn,KBS 103,1946139_unified,,
Anhalter Bahnhof,s-bahn,KBS 103,1946140_unified,,
Yorckstr.,s-bahn,KBS 103,1946141_unified,,
Papestr.,s-bahn,KBS 103,1946142_unified,,
Priesterweg,s-bahn,KBS 103,1946143_unified,,
Südende,s-bahn,KBS 103,1946144_unified,,
Lankwitz,s-bahn,KBS 103,1946145_unified,,
Lichterfelde Ost,s-bahn,KBS 103,1946146_unified,,
Lichterfelde Süd,s-bahn,KBS 103,1946147_unified,,
Oranienburg,s-bahn,KBS 104,1946148_unified,,
Lehnitz,s-bahn,KBS 104,1946149_unified,,
Borgsdorf,s-bahn,KBS 104,1946150_unified,,
Birkenwerder,s-bahn,KBS 104,1946151_unified,,
Hohen-Neuendorf,s-bahn,KBS 104,1946152_unified,,
Frohnau,s-bahn,KBS 104,1946153_unified,,
Hermsdorf,s-bahn,KBS 104,1946154_unified,,
Waidmannslust,s-bahn,KBS 104,1946155_unified,,
Wittenau,s-bahn,KBS 104,1946156_unified,,
Wilhelmsruh,s-bahn,KBS 104,1946157_unified,,
Schönholz,s-bahn,KBS 104,1946158_unified,,
Wollankstr.,s-bahn,KBS 104,1946159_unified,,
Bornholmerstr.,s-bahn,KBS 104,1946160_unified,,
Gesundbrunnen,s-bahn,KBS 104,1946161_unified,,
Humboldthain,s-bahn,KBS 104,1946162_unified,,
Stettiner Bahnhof,s-bahn,KBS 104,1946163_unified,,
Friedrichstr.,s-bahn,KBS 104a,1946164_unified,,
Unter den Linden,s-bahn,KBS 104a,1946165_unified,,
Potsdamerplatz,s-bahn,KBS 104a,1946166_unified,,
Anhalter Bahnhof,s-bahn,KBS 104a,1946167_unified,,
Großgörschenstr.,s-bahn,KBS 104a,1946168_unified,,
Schöneberg,s-bahn,KBS 104a,1946169_unified,,
Friedenau,s-bahn,KBS 104a,1946170_unified,,
Feuerbachstr.,s-bahn,KBS 104a,1946171_unified,,
Steglitz,s-bahn,KBS 104a,1946172_unified,,
Botanischer Garten,s-bahn,KBS 104a,1946173_unified,,
Lichterfelde West,s-bahn,KBS 104a,1946174_unified,,
Sundgauerstr.,s-bahn,KBS 104a,1946175_unified,,
Zehlendorf,s-bahn,KBS 104a,1946176_unified,,
Zehlendorf West,s-bahn,KBS 104a,1946177_unified,,
Schlachtensee,s-bahn,KBS 104a,1946178_unified,,
Nikolassee,s-bahn,KBS 104a,1946179_unified,,
Wannsee,s-bahn,KBS 104a,1946180_unified,,
Dreilinden,s-bahn,KBS 104a,1946181_unified,,
Velten,s-bahn,KBS 105,1946182_unified,,
Hohenschöpping,s-bahn,KBS 105,1946183_unified,,
Hennigsdorf,s-bahn,KBS 105,1946184_unified,,
Heiligensee,s-bahn,KBS 105,1946185_unified,,
Schulzendorf,s-bahn,KBS 105,1946186_unified,,
Tegel,s-bahn,KBS 105,1946187_unified,,
Eichbornstr.,s-bahn,KBS 105,1946188_unified,,
Wittenau,s-bahn,KBS 105,1946189_unified,,
Reinickendorf,s-bahn,KBS 105,1946190_unified,,
Schönholz,s-bahn,KBS 105,1946191_unified,,
Wollankstr.,s-bahn,KBS 105,1946192_unified,,
Bornholmerstr.,s-bahn,KBS 105,1946193_unified,,
Gesundbrunnen,s-bahn,KBS 105,1946194_unified,,
Humboldthain,s-bahn,KBS 105,1946195_unified,,
Stettiner Bahnhof,s-bahn,KBS 105,1946196_unified,,
Potsdamerplatz,s-bahn,KBS 105a,1946197_unified,,
Anhalter Bahnhof,s-bahn,KBS 105a,1946198_unified,,
Yorckstr.,s-bahn,KBS 105a,1946199_unified,,
Papestr.,s-bahn,KBS 105a,1946200_unified,,
Priesterweg,s-bahn,KBS 105a,1946201_unified,,
Mariendorf,s-bahn,KBS 105a,1946202_unified,,
Marienfelde,s-bahn,KBS 105a,1946203_unified,,
Buckower Ch.,s-bahn,KBS 105a,1946204_unified,,
Lichtenrade,s-bahn,KBS 105a,1946205_unified,,
Mahlow,s-bahn,KBS 105a,1946206_unified,,
Dahlewitz,s-bahn,KBS 105a,1946207_unified,,
Rangsdorf,s-bahn,KBS 105a,1946208_unified,,
Potsdam,s-bahn,KBS 101,1946209_unified,,
Babelsberg,s-bahn,KBS 101,1946210_unified,,
Griebnitzsee,s-bahn,KBS 101,1946211_unified,,
Wannsee,s-bahn,KBS 101,1946212_unified,,
Nikolassee,s-bahn,KBS 101,1946213_unified,,
Grunewald,s-bahn,KBS 101,1946214_unified,,
Westkreuz,s-bahn,KBS 101,1946215_unified,,
Charlottenburg,s-bahn,KBS 101,1946216_unified,,
Savignyplatz,s-bahn,KBS 101,1946217_unified,,
Zoologischer Garten,s-bahn,KBS 101,1946218_unified,,
Tiergarten,s-bahn,KBS 101,1946219_unified,,
Bellevue,s-bahn,KBS 101,1946220_unified,,
Lehrter Stadtbahnhof,s-bahn,KBS 101,1946221_unified,,
Friedrichstr.,s-bahn,KBS 101,1946222_unified,,
Börse,s-bahn,KBS 101,1946223_unified,,
Alexanderplatz,s-bahn,KBS 101,1946224_unified,,
Jannowitzbrücke,s-bahn,KBS 101,1946225_unified,,
Schlesischer Bahnhof,s-bahn,KBS 101,1946226_unified,,
Warschauerstr.,s-bahn,KBS 101,1946227_unified,,
Ostkreuz,s-bahn,KBS 101,1946228_unified,,
Neu-Lichtenberg,s-bahn,KBS 101,1946229_unified,,
Lichtenberg,s-bahn,KBS 101,1946230_unified,,
Friedrichsfelde Ost,s-bahn,KBS 101,1946231_unified,,
Biesdorf,s-bahn,KBS 101,1946232_unified,,
Kaulsdorf,s-bahn,KBS 101,1946233_unified,,
Hackescher Markt,tram,1,1946234_unified,,
Rosenthalerstr.,tram,1,1946235_unified,,
Rosenthalerplatz,tram,1,1946236_unified,,
Invalidenstr.,tram,1,1946237_unified,,
Stettiner Bhf.,tram,1,1946238_unified,,
Friedrichstr.,tram,1,1946239_unified,,
Weidendammbrücke,tram,1,1946240_unified,,
Prinz-Louis-Ferdinandstr.,tram,1,1946241_unified,,
Dorotheenstr.,tram,1,1946242_unified,,
Hindenburgplatz,tram,1,1946243_unified,,
Potsdamerplatz,tram,1,1946244_unified,,
Anhalter Bahnhof,tram,1,1946245_unified,,
Wiebestr.,tram,21,1946246_unified,,
Thälmannstr. Ecke Waldstr.,tram,21,1946247_unified,,
Rathenowerstr.,tram,21,1946248_unified,,
Alt-Moabit,tram,21,1946249_unified,,
Moltkebrücke,tram,21,1946250_unified,,
Lehrter Bhf.,tram,21,1946251_unified,,
Moltkestr.,tram,21,1946252_unified,,
Fürst-Bismarckstr.,tram,21,1946253_unified,,
Königsplatz,tram,21,1946254_unified,,
Hindenburgplatz,tram,21,1946255_unified,,
Potsdamerplatz,tram,21,1946256_unified,,
Anhalter Bhf.,tram,21,1946257_unified,,
Rosenthal,tram,23,1946258_unified,,
Reichskanzlerdamm,tram,23,1946259_unified,,
Bismarckplatz,tram,23,1946260_unified,,
Grabbeallee,tram,23,1946261_unified,,
"Pankow, Schönholzerstr.",tram,23,1946262_unified,,
Wollankstr.,tram,23,1946263_unified,,
Wollankstr. Ecke Brehmestr.,tram,23,1946264_unified,,
Prinzenallee Ecke Brehmestr.,tram,23,1946265_unified,,
Pankstr.,tram,23,1946266_unified,,
Nettelbeckplatz,tram,23,1946267_unified,,
Reinickendorferstr.,tram,23,1946268_unified,,
Weddingplatz,tram,23,1946269_unified,,
Fennstr.,tram,23,1946270_unified,,
Warschauerbrücke,tram,4,1946271_unified,,
Warschauerstr.,tram,4,1946272_unified,,
Baltenplatz,tram,4,1946273_unified,,
Elbingerstr. Ecke Lansbergerallee,tram,4,1946274_unified,,
Elbingerstr. Ecke Prenzelauerallee,tram,4,1946275_unified,,
Danzigerstr. Ecke Schönhauserallee,tram,4,1946276_unified,,
Bernauerstr. Ecke Brunnenstr.,tram,4,1946277_unified,,
Strelitzerstr.,tram,4,1946278_unified,,
"Schönberg, Wartburgplatz",tram,6,1946279_unified,,
Mühlenstr. Ecke Hauptstr.,tram,6,1946280_unified,,
Bhf. Schöneberg,tram,6,1946281_unified,,
Sachsendamm,tram,6,1946282_unified,,
Bhf. Papestr.,tram,6,1946283_unified,,
"Tempelhof, Schönebergerstr.",tram,6,1946284_unified,,
Dorfstr.,tram,6,1946285_unified,,
Dorfstr. Ecke Berlinerstr.,tram,6,1946286_unified,,
Germaniastr.,tram,6,1946287_unified,,
Gottlieb-Dunkelstr.,tram,6,1946288_unified,,
Mariendorferweg,tram,6,1946289_unified,,
Mariendorferweg Ecke Chausseestr.,tram,6,1946290_unified,,
Knesebeckstr.,tram,6,1946291_unified,,
Bhf. Neukölln,tram,6,1946292_unified,,
Bergstr.,tram,6,1946293_unified,,
Erkstr.,tram,6,1946294_unified,,
Wildenbruchstr.,tram,6,1946295_unified,,
"Treptow, Elsenstr.",tram,6,1946296_unified,,
"Seestr., Friedhöfe",tram,8,1946297_unified,,
Seestr. Ecke Müllerstr.,tram,8,1946298_unified,,
Seestr. Ecke Markstr.,tram,8,1946299_unified,,
Osloerstr.,tram,8,1946300_unified,,
Osloerstr. Ecke Prinzenallee,tram,8,1946301_unified,,
Bornholmerstr.,tram,8,1946302_unified,,
Bhf. Bornholmerstr.,tram,8,1946303_unified,,
Bornholmerstr. Ecke Schönhauserallee,tram,8,1946304_unified,,
Wisbyerstr. Ecke Bornholmerstr.,tram,8,1946305_unified,,
Wisbyerstr. Ecke Prenzlauerallee,tram,8,1946306_unified,,
Gustav-Adolfstr. Ecke Langhansstr.,tram,8,1946307_unified,,
"Berlinerallee, Antonplatz",tram,8,1946308_unified,,
Berlinerallee Ecke Lichtenbergerstr.,tram,8,1946309_unified,,
Weißenseerweg Ecke Hohenschönhauserstr.,tram,8,1946310_unified,,
"Lichtenberg, Röderplatz",tram,8,1946311_unified,,
Möllendorffstr. Ecke Scheffelstr.,tram,8,1946312_unified,,
Gürtelstr. Ecke Frankfurterallee,tram,8,1946313_unified,,
Türschmidtstr. Ecke Karlshorsterstr.,tram,13,1946314_unified,,
Köpenickerchaussee,tram,13,1946315_unified,,
Kraftwerk Klingenberg,tram,13,1946316_unified,,
Gotzkowskystr.,tram,3,1946317_unified,,
Thälmannstr. Ecke Beusselstr.,tram,3,1946318_unified,,
Kaiserin-Augusta-Allee Ecke Tauroggenerstr.,tram,3,1946319_unified,,
Berlinerstr. Ecke Wilmersdorferstr.,tram,3,1946320_unified,,
Wilmerdorferstr.,tram,3,1946321_unified,,
Wilmersdorferstr. Ecke Kantstr.,tram,3,1946322_unified,,
Wilmersdorferstr. Ecke Kurfürstendamm,tram,3,1946323_unified,,
Brandenburgischestr.,tram,3,1946324_unified,,
Fehrbellinerplatz,tram,3,1946325_unified,,
Berlinerstr. Ecke Kaiserallee,tram,3,1946326_unified,,
Bayerischerplatz,tram,3,1946327_unified,,
Grunewaldstr.,tram,3,1946328_unified,,
Goltzstr.,tram,3,1946329_unified,,
Winterfeldtplatz,tram,3,1946330_unified,,
Pallasstr.,tram,3,1946331_unified,,
Pallasstr. Ecke Potsdamerstr.,tram,3,1946332_unified,,
Goebenstr.,tram,3,1946333_unified,,
Yorckstr.,tram,3,1946334_unified,,
Yorckstr. Ecke Franz-Mehringstr.,tram,3,1946335_unified,,
Gneisenausstr.,tram,3,1946336_unified,,
Gardepionierplatz,tram,3,1946337_unified,,
Buchholz,tram,24,1946338_unified,,
Pasewalkerstr.,tram,24,1946339_unified,,
Bhf. Pankow-Heinersdorf,tram,24,1946340_unified,,
"Pankow, Damerowstr.",tram,24,1946341_unified,,
Breitestr. Ecke Berlinerstr.,tram,24,1946342_unified,,
Wollankstr. Ecke Schönholzerstr.,tram,24,1946343_unified,,
Wollankstr. Ecke Brehmestr.,tram,24,1946344_unified,,
Prinzenallee Ecke Osloerstr.,tram,24,1946345_unified,,
Badstr. Ecke Pankstr.,tram,24,1946346_unified,,
"Brunnenstr., Gesundbrunnen",tram,24,1946347_unified,,
Ramlerstr.,tram,24,1946348_unified,,
"Tegel, Alt-Tegel",tram,25,1946349_unified,,
Berlinerstr. Ecke Seidelstr.,tram,25,1946350_unified,,
"Reinickendorf, Scharnweberstr.",tram,25,1946351_unified,,
Scharnweberstr. Ecke Berlinerstr.,tram,25,1946352_unified,,
Müllerstr.,tram,25,1946353_unified,,
Müllerstr. Ecke Seestr.,tram,25,1946354_unified,,
Togostr.,tram,25,1946355_unified,,
Buckow,tram,27,1946356_unified,,
Buckowerchaussee,tram,27,1946357_unified,,
Chauseestr. Ecke Blaschkoallee,tram,27,1946358_unified,,
Hermannstr.,tram,27,1946359_unified,,
Bhf. Hermannstr.,tram,27,1946360_unified,,
Hermannstr. Ecke Leinestr.,tram,27,1946361_unified,,
"Neukölln, Steinmetzstr.",tram,27,1946362_unified,,
Tegelort,tram,28,1946363_unified,,
Conradshöherchaussee,tram,28,1946364_unified,,
Tegeler Forst,tram,28,1946365_unified,,
Conradshöherchaussee Ecke Carolinenstr.,tram,28,1946366_unified,,
"Tegel, Schloßstr.",tram,28,1946367_unified,,
Berlinerstr. Ecke Seidelstr.,tram,28,1946368_unified,,
"Reinickendorf, Scharnweberstr.",tram,28,1946369_unified,,
Scharnweberstr. Ecke Berlinerstr.,tram,28,1946370_unified,,
Müllerstr.,tram,28,1946371_unified,,
Müllerstr. Ecke Seestr.,tram,28,1946372_unified,,
Iranischestr. Ecke Reinickendorferstr.,tram,28,1946373_unified,,
Exerzierstr.,tram,28,1946374_unified,,
Badstrassse,tram,28,1946375_unified,,
Badstr. Ecke Pankstrassse,tram,28,1946376_unified,,
"Brunnenstr., Gesundbrunnen",tram,28,1946377_unified,,
Brunnenstr.,tram,28,1946378_unified,,
Ramlerstr.,tram,28,1946379_unified,,
Heiligensee,tram,128,1946380_unified,,
Kirschallee,tram,128,1946381_unified,,
Tegeler Forst,tram,128,1946382_unified,,
Carolinenstr. Ecke Conradshöherchaussee,tram,128,1946383_unified,,
"Tegel, Schloßstr.",tram,128,1946384_unified,,
Berlinerstr. Ecke Seidelstr.,tram,128,1946385_unified,,
"Reinickendorf, Scharnweberstr.",tram,128,1946386_unified,,
Scharnweberstr. Ecke Berlinerstr.,tram,128,1946387_unified,,
Müllerstr.,tram,128,1946388_unified,,
Müllerstr. Ecke Seestr.,tram,128,1946389_unified,,
Iranischestr. Ecke Reinickendorferstr.,tram,128,1946390_unified,,
Exerzierstr.,tram,128,1946391_unified,,
Badstrassse,tram,128,1946392_unified,,
Badstr. Ecke Pankstrassse,tram,128,1946393_unified,,
"Brunnenstr., Gesundbrunnen",tram,128,1946394_unified,,
Brunnenstr.,tram,128,1946395_unified,,
Ramlerstr.,tram,128,1946396_unified,,
"Tegel, Alt-Tegel",tram,41,1946397_unified,,
Berlinerstr. Ecke Seidelstr.,tram,41,1946398_unified,,
"Reinickendorf, Scharnweberstr.",tram,41,1946399_unified,,
"Reinickendorf-West, Berlinerstr.",tram,41,1946400_unified,,
Humboldtstr.,tram,41,1946401_unified,,
Humboldtstr. Ecke Berlinerstr.,tram,41,1946402_unified,,
"Reinickendorf-Ost, Hauptstr.",tram,41,1946403_unified,,
Hauptstr. Ecke Residenzstr.,tram,41,1946404_unified,,
Markstr.,tram,41,1946405_unified,,
Oskarplatz,tram,41,1946406_unified,,
Reinickendorferstr.,tram,41,1946407_unified,,
Reinickendorferstr. Ecke Iranischestr.,tram,41,1946408_unified,,
Exerzierstr.,tram,41,1946409_unified,,
Badstrassse,tram,41,1946410_unified,,
Badstr. Ecke Pankstrassse,tram,41,1946411_unified,,
"Brunnenstr., Gesundbrunnen",tram,41,1946412_unified,,
Ramlerstr.,tram,41,1946413_unified,,
"Wilhelmsruh, Hauptstr.",tram,141,1946414_unified,,
Kopenhagenerstr.,tram,141,1946415_unified,,
"Reinickendorf, Residenzstr.",tram,141,1946416_unified,,
Residenzstr. Ecke Hauptstr.,tram,141,1946417_unified,,
Marktstr.,tram,141,1946418_unified,,
Oskarplatz,tram,141,1946419_unified,,
Reinickendorferstr.,tram,141,1946420_unified,,
Reinickendorferstr. Ecke Iranischestr.,tram,141,1946421_unified,,
Exerzierstr.,tram,141,1946422_unified,,
Badstrassse,tram,141,1946423_unified,,
Badstr. Ecke Pankstrassse,tram,141,1946424_unified,,
"Brunnenstr., Gesundbrunnen",tram,141,1946425_unified,,
Ramlerstr.,tram,141,1946426_unified,,
Nordend,tram,47,1946427_unified,,
"Niederschönhausen, Friedensplatz",tram,47,1946428_unified,,
Bismarckstr.,tram,47,1946429_unified,,
Bismarckplatz,tram,47,1946430_unified,,
Grabbeallee,tram,47,1946431_unified,,
"Pankow, Breitestr.",tram,47,1946432_unified,,
Breitestr. Ecke Berlinerstr.,tram,47,1946433_unified,,
Berlinerstr. Ecke Vinetastr.,tram,47,1946434_unified,,
Schönhauserallee,tram,47,1946435_unified,,
Schönhauserallee Ecke Dänenstr.,tram,47,1946436_unified,,
Schönhauserallee Ecke Danzigerstr.,tram,47,1946437_unified,,
U-Bahnhof Danzigerstr.,tram,47,1946438_unified,,
"Britz, Rudowerstr.",tram,147,1946439_unified,,
Buschkrug,tram,147,1946440_unified,,
"Buckow-Ost, Rudowerstr.",tram,147,1946441_unified,,
"Rudow, Neuköllnerstr.",tram,147,1946442_unified,,
Walterdorferchaussee,tram,147,1946443_unified,,
Schönefeld,tram,147,1946444_unified,,
Buchholz,tram,49,1946445_unified,,
Pasewalkerstr.,tram,49,1946446_unified,,
"Pankow, Damerowstr.",tram,49,1946447_unified,,
Breitestr. Ecke Berlinerstr.,tram,49,1946448_unified,,
Berlinerstr. Ecke Vinetastr.,tram,49,1946449_unified,,
Schönhauserallee,tram,49,1946450_unified,,
Schönhauserallee Ecke Wisbyerstr.,tram,49,1946451_unified,,
Schönhauserallee Ecke Dänenstr.,tram,49,1946452_unified,,
Schönhauserallee Ecke Danzigerstr.,tram,49,1946453_unified,,
U-Bahnhof Danzigerstr.,tram,49,1946454_unified,,
"Spandau, Johannesstrift",tram,54,1946455_unified,,
Schönwalderallee,tram,54,1946456_unified,,
Schönwalderstr.,tram,54,1946457_unified,,
Hafenplatz,tram,54,1946458_unified,,
Carl-Schurzstr.,tram,54,1946459_unified,,
Spandau Markt,tram,54,1946460_unified,,
Grenadierstr.,tram,54,1946461_unified,,
Grunewaldstr.,tram,54,1946462_unified,,
Ruhlebenerstr.,tram,54,1946463_unified,,
"Charlottenburgerchaussee, U-Bhf. Ruhleben",tram,54,1946464_unified,,
Spandauerchaussee,tram,54,1946465_unified,,
Spandauer Berg,tram,54,1946466_unified,,
Spandauerstr. Ecke Schloßstr.,tram,54,1946467_unified,,
Richard-Wagner-Platz,tram,54,1946468_unified,,
Spandau markt,tram,55,1946469_unified,,
"Haselhorst, Gartenfelderstr.",tram,55,1946470_unified,,
Paulsternstr.,tram,55,1946471_unified,,
Nonnendammallee,tram,55,1946472_unified,,
Siemensstadt,tram,55,1946473_unified,,
Bhf. Jungfernheide,tram,55,1946474_unified,,
Tegelerweg,tram,55,1946475_unified,,
Osnabrückerstr.,tram,55,1946476_unified,,
Kaiserin-Augusta-Allee Ecke Wiebestr.,tram,55,1946477_unified,,
Gotzkowskystr.,tram,55,1946478_unified,,
"Weißensee, Rennbahnstr.",tram,60,1946479_unified,,
"Berlinerallee, Antonplatz",tram,60,1946480_unified,,
Greifswalderstr.,tram,60,1946481_unified,,
Bhf. Weißensee,tram,60,1946482_unified,,
Greifswalderstr. Ecke Danzigerstr.,tram,60,1946483_unified,,
Neue Königstr.,tram,60,1946484_unified,,
Jostystr.,tram,60,1946485_unified,,
Prenzlauerstr. Ecke Prenzlauerallee,tram,60,1946486_unified,,
Alexanderplatz,tram,60,1946487_unified,,
Molkenmarkt,tram,60,1946488_unified,,
Rathaus,tram,60,1946489_unified,,
"Charlottenburg, Königin-Elisabehtstr.",tram,62,1946490_unified,,
Spandauerstr. Ecke Schloßtrasse,tram,62,1946491_unified,,
Suarezstr. Ecke Kaiserdamm,tram,62,1946492_unified,,
Suarezstr.,tram,62,1946493_unified,,
Kantstr.,tram,62,1946494_unified,,
Bhf. Charlottenburg,tram,62,1946495_unified,,
Stuttgarterplatz,tram,62,1946496_unified,,
Wilmersdorferstr.,tram,62,1946497_unified,,
Wilmersdorferstr. Ecke Kurfürstendamm,tram,62,1946498_unified,,
Brandenburgischestr.,tram,62,1946499_unified,,
Fehrbellinerplatz,tram,62,1946500_unified,,
Hohenzollerndamm,tram,62,1946501_unified,,
"Wilmersdorf, Emserplatz",tram,62,1946502_unified,,
"Hohenschönhausen, Degenerstr.",tram,64,1946503_unified,,
Weißenseerweg Ecke Hohenschönhauserstr.,tram,64,1946504_unified,,
Hohenschönhauserstr.,tram,64,1946505_unified,,
"Landsbergerallee, Steuerhaus",tram,64,1946506_unified,,
Bhf. Lansbergerallee,tram,64,1946507_unified,,
Landsbergerallee Ecke Elbingerstr.,tram,64,1946508_unified,,
Alexanderplatz,tram,64,1946509_unified,,
Molkenmarkt,tram,64,1946510_unified,,
Rathaus,tram,64,1946511_unified,,
"Lichtenberg, Scheffelstr.",tram,65,1946512_unified,,
Eldenaerstr.,tram,65,1946513_unified,,
Forkenbeckplatz,tram,65,1946514_unified,,
Baltenplatz,tram,65,1946515_unified,,
Petersburgerstr. Ecke Landsbergerallee,tram,65,1946516_unified,,
Alexanderplatz,tram,65,1946517_unified,,
Molkenmarkt,tram,65,1946518_unified,,
Rathaus,tram,65,1946519_unified,,
"Wittenau, Nordbahnhof",tram,68,1946520_unified,,
Oranienburgerstr. Ecke Wilhelmsruherdamm,tram,68,1946521_unified,,
"Reinickendorf, Berlinerstr. Ecke Waldstr.",tram,68,1946522_unified,,
Berlinerstr. Ecke Humboldtstr.,tram,68,1946523_unified,,
Berlinerstr. Ecke Scharnweberstr.,tram,68,1946524_unified,,
Müllerstr.,tram,68,1946525_unified,,
Müllerstr. Ecke Seestr.,tram,68,1946526_unified,,
Togostr.,tram,68,1946527_unified,,
Landsbergerallee Ecke Elbingerstr.,tram,69,1946528_unified,,
Bhf. Landsbergerallee,tram,69,1946529_unified,,
"Landsbergerallee, Steuerhaus",tram,69,1946530_unified,,
"Lichtenberg, Röderplatz",tram,69,1946531_unified,,
Herzbergstr.,tram,69,1946532_unified,,
Siegfriedstr.,tram,69,1946533_unified,,
Bhf. Lichtenberg,tram,69,1946534_unified,,
Alt-Friedrichsfelde,tram,69,1946535_unified,,
"Karlshorst, Treskowallee",tram,69,1946536_unified,,
Treskowallee Ecke Warmbaderstr.,tram,69,1946537_unified,,
Karlshorsterchaussee,tram,69,1946538_unified,,
"Oberschöneweide, Edisonstrass Ecke Wilhelminenhofstr.",tram,69,1946539_unified,,
"Weißensee, Rennbahnstr.",tram,72,1946540_unified,,
"Berlinerallee, Antonplatz",tram,72,1946541_unified,,
Langhansstr.,tram,72,1946542_unified,,
Gustav-Adolfstr. Ecke Prenzlauerallee,tram,72,1946543_unified,,
Prenzlauerallee,tram,72,1946544_unified,,
Bhf. Prenzlauerallee,tram,72,1946545_unified,,
Prenzlauerallee Ecke Danzigerstr.,tram,72,1946546_unified,,
Prenzlauerstr. Ecke Prenzlauerallee,tram,72,1946547_unified,,
Alexanderplatz,tram,72,1946548_unified,,
Molkenmarkt,tram,72,1946549_unified,,
Rathaus,tram,72,1946550_unified,,
Heinersdorf,tram,73,1946551_unified,,
Prenzlauer Promenade,tram,73,1946552_unified,,
Prenzlauer Promenade Ecke Gustav-Adolfstr.,tram,73,1946553_unified,,
Prenzlauerallee,tram,73,1946554_unified,,
Bhf. Prenzlauerallee,tram,73,1946555_unified,,
Prenzlauerallee Ecke Danzigerstr.,tram,73,1946556_unified,,
Prenzlauerstr. Ecke Prenzlauerallee,tram,73,1946557_unified,,
Alexanderplatz,tram,73,1946558_unified,,
Molkenmarkt,tram,73,1946559_unified,,
Rathaus,tram,73,1946560_unified,,
"Lichterfelde, Händelplatz",tram,74,1946561_unified,,
Hindenburgdamm,tram,74,1946562_unified,,
"Steglitz, Rathaus",tram,74,1946563_unified,,
"Friedenau, Rheinstr.",tram,74,1946564_unified,,
Innsbruckerplatz,tram,74,1946565_unified,,
Hauptstr. Ecke Mühlenstr.,tram,74,1946566_unified,,
Postdamerstr. Ecke Hauptstr.,tram,74,1946567_unified,,
Potsdamerstr. Ecke Pallasstr.,tram,74,1946568_unified,,
Potsdamerstr. Ecke Kurfürstenstr.,tram,74,1946569_unified,,
Potsdamerplatz,tram,74,1946570_unified,,
Leipzigerstr. Ecke Friedrichstr.,tram,74,1946571_unified,,
Dönhoffplatz,tram,74,1946572_unified,,
Spittelmarkt,tram,74,1946573_unified,,
Hakenfelde,tram,75,1946574_unified,,
Niederneuendorferallee,tram,75,1946575_unified,,
Streitstr.,tram,75,1946576_unified,,
Neuendorferstr.,tram,75,1946577_unified,,
Hafenplatz,tram,75,1946578_unified,,
Oranienburger Tor,tram,75,1946579_unified,,
"Spandau, Markt",tram,75,1946580_unified,,
Carl-Schurzstr.,tram,75,1946581_unified,,
Klosterstr. Ecke Seeburgerstr.,tram,75,1946582_unified,,
Pichelsdorferstr.,tram,75,1946583_unified,,
Alt-Pichelsdorf,tram,75,1946584_unified,,
Freybrücke,tram,75,1946585_unified,,
Bhf. Heerstr.,tram,75,1946586_unified,,
Reichskanzlerplatz,tram,75,1946587_unified,,
Kaiserdamm,tram,75,1946588_unified,,
Masurenallee,tram,75,1946589_unified,,
Kantstr.,tram,75,1946590_unified,,
Bhf. Charlottenburg,tram,75,1946591_unified,,
Wilmersdorferstr.,tram,75,1946592_unified,,
Wilmersdorferstr. Ecke Kurfürstendamm,tram,75,1946593_unified,,
Halensee,tram,75,1946594_unified,,
"Grunewald, Hubertusallee",tram,75,1946595_unified,,
Joachimstalerstr.,tram,76,1946596_unified,,
Kurfürstendamm,tram,76,1946597_unified,,
Kurfürstendamm Ecke Wilmersdorferstr.,tram,76,1946598_unified,,
Bhf. Halensee,tram,76,1946599_unified,,
Hubertusallee,tram,76,1946600_unified,,
Hagenplatz,tram,76,1946601_unified,,
Roseneck,tram,76,1946602_unified,,
"Lichterfelde-Süde, Goerzallee Ecke Appenzellerstr.",tram,77,1946603_unified,,
Ringstr. Ecke Finckensteinallee,tram,77,1946604_unified,,
"Lichterfelde-West, Drakestr.",tram,77,1946605_unified,,
Händelplatz,tram,77,1946606_unified,,
Hindenburgdamm,tram,77,1946607_unified,,
"Steglitz, Rathaus",tram,77,1946608_unified,,
"Friedenau, Rheinstr.",tram,77,1946609_unified,,
"Friedenau, Friedrich-Wilhelm-Platz",tram,77,1946610_unified,,
Kaiserallee Ecke Berlinerstr.,tram,77,1946611_unified,,
Kaiserallee Ecke Spichernstr.,tram,77,1946612_unified,,
Joachimstalerstr. Ecke Kurfürstendamm,tram,77,1946613_unified,,
Kantstr.,tram,77,1946614_unified,,
Molkenmarkt,tram,82,1946615_unified,,
Schicklerstr. Ecke Alexanderstr.,tram,82,1946616_unified,,
Jannowitzbrücke,tram,82,1946617_unified,,
Am Schlesischen Bahnhof,tram,82,1946618_unified,,
Mühlenstr.,tram,82,1946619_unified,,
Stralauerallee Ecke Warschauerstr.,tram,82,1946620_unified,,
Markgrafendamm,tram,82,1946621_unified,,
"Köpenick, Marienhain über Wendenschloßstr.",tram,83,1946622_unified,,
Wendenschloßstr. Ecke Müggelheimerstr.,tram,83,1946623_unified,,
Müggelheimerstr.,tram,83,1946624_unified,,
Dammbrücke,tram,83,1946625_unified,,
Bahnhofstr.,tram,83,1946626_unified,,
Bahnhofstr. Ecke Lindenstr.,tram,83,1946627_unified,,
Bhf. Köpenick,tram,83,1946628_unified,,
Mahlsdorferstr.,tram,83,1946629_unified,,
Mahlsdorferstr. Ecke Kohlisstr.,tram,83,1946630_unified,,
Hultschinerdamm,tram,83,1946631_unified,,
Hönowerstr.,tram,83,1946632_unified,,
Treskowstr.,tram,83,1946633_unified,,
Bhf. Mahlsdorf,tram,83,1946634_unified,,
Bhf. Grünau,tram,86,1946635_unified,,
Sportpromenade,tram,86,1946636_unified,,
Vetschauerallee,tram,86,1946637_unified,,
Schmöckwitz,tram,86,1946638_unified,,
"Oberschöneweide, Nalepastr. Ecke Karlshorsterstr.",tram,87_b,1946639_unified,,
Wilhelminenhofstr.,tram,87_b,1946640_unified,,
Ostendstr.,tram,87_b,1946641_unified,,
Weißkopfstr.,tram,87_b,1946642_unified,,
An der Wuhlheide,tram,87_b,1946643_unified,,
Lindenstr. Ecke Bahnhofstr.,tram,87_b,1946644_unified,,
"Köpenick, Bellevuestr.",tram,87_b,1946645_unified,,
Müggelseedamm,tram,87_b,1946646_unified,,
Bhf. Friedrichshagen,tram,87_b,1946647_unified,,
Fürstenwalderdamm,tram,87_b,1946648_unified,,
Rahnsdorf,tram,87_b,1946649_unified,,
Dönhoffplatz,tram,87_a,1946650_unified,,
Spittelmarkt,tram,87_a,1946651_unified,,
Märkisches Museum,tram,87_a,1946652_unified,,
Neanderstr. Ecke Köpenickerstr.,tram,87_a,1946653_unified,,
Köpenickerstr.,tram,87_a,1946654_unified,,
Schlesisches Tor,tram,87_a,1946655_unified,,
"Treptow, Elsenstr.",tram,87_a,1946656_unified,,
Am Treptower Park,tram,87_a,1946657_unified,,
Köpenicker Landstr.,tram,87_a,1946658_unified,,
Bhf. Baumschulenweg,tram,87_a,1946659_unified,,
"Treptow, Rathaus",tram,91,1946660_unified,,
Bulgarischestr.,tram,91,1946661_unified,,
Köpenicker Landstr. Ecke Baumschulenstr.,tram,91,1946662_unified,,
Bahnhof Schöneweide,tram,91,1946663_unified,,
Sternendamm,tram,91,1946664_unified,,
Johannisthal,tram,91,1946665_unified,,
"Oberschöneweide, Nalepastr. Ecke Karlshorsterstr.",tram,95_b,1946666_unified,,
Wilhelminenhofstr.,tram,95_b,1946667_unified,,
Ostendstr.,tram,95_b,1946668_unified,,
Weißkopfstr.,tram,95_b,1946669_unified,,
An der Wuhlheide,tram,95_b,1946670_unified,,
Lindenstr. Ecke Bahnhofstr.,tram,95_b,1946671_unified,,
Dammbrücke,tram,95_b,1946672_unified,,
Wendenschloßstr. Ecke Müggelheimerstr.,tram,95_b,1946673_unified,,
"Köpenick, Krankenhaus",tram,95_b,1946674_unified,,
Hermannplatz,tram,95_a,1946675_unified,,
Sonnenallee,tram,95_a,1946676_unified,,
Sonnenallee Ecke Erkstr.,tram,95_a,1946677_unified,,
"Sonnenallee, S-Bahn",tram,95_a,1946678_unified,,
Baumschulenstr.,tram,95_a,1946679_unified,,
Bhf. Baumschulenweg,tram,95_a,1946680_unified,,
Köpenicker Landstr.,tram,95_a,1946681_unified,,
Bhf. Schöneweide,tram,95_a,1946682_unified,,
Machnower Schleuse,tram,96,1946683_unified,,
Stahnsdorf,tram,96,1946684_unified,,
Potsdamerstr.,tram,96,1946685_unified,,
"Teltow, Hindenburgplatz",tram,96,1946686_unified,,
Schützenplatz,tram,96,1946687_unified,,
Kranoldplatz,tram,96,1946688_unified,,
"Lankwitz, Kaiser-Wilhelmstr.",tram,96,1946689_unified,,
Attilastr.,tram,96,1946690_unified,,
Bhf. Mariendorf,tram,96,1946691_unified,,
Attilaplatz,tram,96,1946692_unified,,
Baerwaldstr. Ecke Gneisenaustr.,tram,99,1946693_unified,,
Franz-Mehringstr. Ecke Gneisenaustr.,tram,99,1946694_unified,,
Bhf. Tempelhof,tram,99,1946695_unified,,
Berlinerstr. Ecke Dorfstr.,tram,99,1946696_unified,,
Friedrich-Karl-str.,tram,99,1946697_unified,,
Attilaplatz,tram,99,1946698_unified,,
"Mariendorf, Zastrowstr.",tram,99,1946699_unified,,
Lichtenraderchaussee,tram,99,1946700_unified,,
Bahnhofstr.,tram,99,1946701_unified,,
Bhf. Lichtenrade,tram,99,1946702_unified,,
Nordend,tram,199,1946703_unified,,
Bismarckplatz,tram,199,1946704_unified,,
Grabbeallee,tram,199,1946705_unified,,
"Pankow, Wollankstr.",tram,199,1946706_unified,,
Wollankstr. Ecke Brehmestr.,tram,199,1946707_unified,,
Badstr. Ecke Pankstr.,tram,199,1946708_unified,,
"Brunnenstr., Gesundbrunnen",tram,199,1946709_unified,,
Ramlerstr.,tram,199,1946710_unified,,
"Pankow, Vinetastr.",u-bahn,A,1946711_unified,,
Schönhauser Alle,u-bahn,A,1946712_unified,,
Danzigerstr.,u-bahn,A,1946713_unified,,
Senefelderplatz,u-bahn,A,1946714_unified,,
Schönhauser Tor,u-bahn,A,1946715_unified,,
Alexanderplatz,u-bahn,A,1946716_unified,,
Klosterstr.,u-bahn,A,1946717_unified,,
Märkisches Museum,u-bahn,A,1946718_unified,,
Spittelmarkt,u-bahn,A,1946719_unified,,
Stadtmitte,u-bahn,A,1946720_unified,,
Potsdamerplatz,u-bahn,A,1946721_unified,,
Gleisdreieck,u-bahn,A,1946722_unified,,
Kurfürstenstr.,u-bahn,A,1946723_unified,,
Nollendorfplatz,u-bahn,A,1946724_unified,,
Wittenbergplatz,u-bahn,A,1946725_unified,,
Hallesches Tor,u-bahn,B,1946726_unified,,
Prinzenstr.,u-bahn,B,1946727_unified,,
Kottbusser Tor,u-bahn,B,1946728_unified,,
Görlitzer Bahnhof,u-bahn,B,1946729_unified,,
Schlesisches Tor,u-bahn,B,1946730_unified,,
Warschauerbrücke,u-bahn,B,1946731_unified,,
Innsbruckerplatz,u-bahn,B1,1946732_unified,,
Bayerischerplatz,u-bahn,B1,1946733_unified,,
Viktoria-Luise-Platz,u-bahn,B1,1946734_unified,,
Nollendorfplatz,u-bahn,B1,1946735_unified,,
Wittenbergplatz,u-bahn,B2,1946736_unified,,
Uhlandstr.,u-bahn,B2,1946737_unified,,
Seestr.,u-bahn,C,1946738_unified,,
Leopoldplatz,u-bahn,C,1946739_unified,,
Bhf. Wedding,u-bahn,C,1946740_unified,,
Reinickendorferstr.,u-bahn,C,1946741_unified,,
Schwartzkopffstr.,u-bahn,C,1946742_unified,,
Stettiner Bhf.,u-bahn,C,1946743_unified,,
Oranienburger Tor,u-bahn,C,1946744_unified,,
Bhf. Friedrichstr.,u-bahn,C,1946745_unified,,
Französischestr.,u-bahn,C,1946746_unified,,
Stadtmitte,u-bahn,C,1946747_unified,,
Kochstr.,u-bahn,C,1946748_unified,,
Hallesches Tor,u-bahn,C,1946749_unified,,
Franz-Mehringstr.,u-bahn,C,1946750_unified,,
Gneisenaustr.,u-bahn,C,1946751_unified,,
Gardepionierplatz,u-bahn,C,1946752_unified,,
Hermannplatz,u-bahn,C,1946753_unified,,
Rathaus Neukölln,u-bahn,C,1946754_unified,,
Bergstr.,u-bahn,C,1946755_unified,,
"Neukölln, Südring",u-bahn,C,1946756_unified,,
Grenzallee,u-bahn,C,1946757_unified,,
Gesundbrunnen,u-bahn,D,1946758_unified,,
Voltastr.,u-bahn,D,1946759_unified,,
Bernauerstr.,u-bahn,D,1946760_unified,,
Rosenthalerplatz,u-bahn,D,1946761_unified,,
Weinmeisterstr.,u-bahn,D,1946762_unified,,
Alexanderplatz,u-bahn,D,1946763_unified,,
Jannowitzbrücke,u-bahn,D,1946764_unified,,
Neanderstr.,u-bahn,D,1946765_unified,,
Moritzplatz,u-bahn,D,1946766_unified,,
Kottbusser Tor,u-bahn,D,1946767_unified,,
Schönleinstr.,u-bahn,D,1946768_unified,,
Hermannplatz,u-bahn,D,1946769_unified,,
Boddinstr.,u-bahn,D,1946770_unified,,
Leinestr.,u-bahn,D,1946771_unified,,
Alexanderplatz,u-bahn,E,1946772_unified,,
Schillingstr.,u-bahn,E,1946773_unified,,
Strausbergerplatz,u-bahn,E,1946774_unified,,
Memelerstr.,u-bahn,E,1946775_unified,,
Petersburgerstr.,u-bahn,E,1946776_unified,,
Samariterstr.,u-bahn,E,1946777_unified,,
Frankfurterallee,u-bahn,E,1946778_unified,,
Magdalenenstr.,u-bahn,E,1946779_unified,,
Bhf. Lichtenberg,u-bahn,E,1946780_unified,,
Friedrichsfelde,u-bahn,E,1946781_unified,,
