stop_name,type,line_name,stop_id,location,identifier
Revalerstr.,tram,3,19670_east,,
Warschauerstr.,tram,3,19671_east,,
Holteistr. Ecke Boxhagenerstr.,tram,3,19672_east,,
Bhf. Frankfurterallee,tram,3,19673_east,,
Roederplatz,tram,3,19674_east,,
Hohenschönhauserstr.,tram,3,19675_east,,
Lichtenbergerstr.,tram,3,19676_east,,
Antonplatz,tram,3,19677_east,,
Prenzlauer Promenade,tram,3,19678_east,,
Schönhauserallee,tram,3,19679_east,,
Björnsonstr.,tram,3,196710_east,,
Markusstr.,tram,4,196711_east,,
Ostbahnhof,tram,4,196712_east,,
Mühlenstr.,tram,4,196713_east,,
Revalerstr.,tram,4,196714_east,,
Grünbergerstr.,tram,4,196715_east,,
Frankfurter Tor,tram,4,196716_east,,
Bersarinplatz,tram,4,196717_east,,
Leninallee,tram,4,196718_east,,
Kniprodestr.,tram,4,196719_east,,
Greifswalderstr.,tram,4,196720_east,,
Prenzlauerallee,tram,4,196721_east,,
U-Bhf. Dimitroffstr.,tram,4,196722_east,,
Eberswalderstr. Ecke Oderbergerstr.,tram,4,196723_east,,
Hönower Wiesenweg Ecke Blockdammweg,tram,13,196724_east,,
Kraftwerk Klingenberg,tram,13,196725_east,,
S-Bhf. Rummelsburg,tram,13,196726_east,,
Holteistr. Ecke Boxhagenerstr.,tram,13,196727_east,,
Frankfurter Tor,tram,13,196728_east,,
Bersarinplatz,tram,13,196729_east,,
Leninallee,tram,13,196730_east,,
Kniprodestr.,tram,13,196731_east,,
Greifswalderstr.,tram,13,196732_east,,
Prenzlauerallee,tram,13,196733_east,,
U-Bhf. Dimitroffstr.,tram,13,196734_east,,
Oderbergerstr. Ecke Eberswalderstr.,tram,13,196735_east,,
"Rosenthal, Hauptstr.",tram,22,196736_east,,
Nordendstr.,tram,22,196737_east,,
Kurt-Fischer-Platz,tram,22,196738_east,,
"Pankow, Rathaus",tram,22,196739_east,,
"Pankow, Kirche",tram,22,196740_east,,
U-Bhf. Vinetastr.,tram,22,196741_east,,
Bornholmerstr. Ecke Schönhauserallee,tram,22,196742_east,,
S-Bhf. Schönhauserallee,tram,22,196743_east,,
U-Bhf. Dimitroffstr.,tram,22,196744_east,,
Nordend,tram,46,196745_east,,
Ossietzkyplatz,tram,46,196746_east,,
Kurt-Fischer-Platz,tram,46,196747_east,,
"Pankow, Kirche",tram,46,196748_east,,
U-Bhf. Vinetastr.,tram,46,196749_east,,
Bornholmerstr. Ecke Schönhauserallee,tram,46,196750_east,,
S-Bhf. Schönhauserallee,tram,46,196751_east,,
U-Bhf. Dimitroffstr.,tram,46,196752_east,,
Brunnenstr.,tram,46,196753_east,,
Oranienburger Tor,tram,46,196754_east,,
Bhf. Friedrichstr.,tram,46,196755_east,,
Am Kupfergraben,tram,46,196756_east,,
"Buchholz, Hauptstr.",tram,49,196757_east,,
Industriebahn,tram,49,196758_east,,
Galenusstr.,tram,49,196759_east,,
S-Bhf. Pankow-Heinersdorf,tram,49,196760_east,,
Klaustalerstr. Ecke Damerowstr.,tram,49,196761_east,,
"Pankow, Kirche",tram,49,196762_east,,
S-Bhf. Vinetastr.,tram,49,196763_east,,
Bornholmerstr.,tram,49,196764_east,,
S-Bhf. Schönhauserallee,tram,49,196765_east,,
U-Bhf. Dimitroffstr.,tram,49,196766_east,,
Rosenthalerplatz,tram,49,196767_east,,
Hackescher Markt,tram,49,196768_east,,
"Hohenschönhausen, Gartenstadt",tram,63,196769_east,,
Falkenbergerstr. Ecke Wartenbergerstr.,tram,63,196770_east,,
Degnerstr.,tram,63,196771_east,,
Weißenseerweg,tram,63,196772_east,,
Steuerhaus,tram,63,196773_east,,
S-Bhf. Leninallee,tram,63,196774_east,,
Dimitroffstr. Ecke Landsbergerallee,tram,63,196775_east,,
Leninplatz,tram,63,196776_east,,
Hans-Beimler-Str.,tram,63,196777_east,,
U-Bhf. Luxemburgplatz,tram,63,196778_east,,
Hackescher Markt,tram,63,196779_east,,
Friedrichstr. Ecke Oranienburgerstr.,tram,63,196780_east,,
Invalidenstr. Ecke Chausseestr.,tram,63,196781_east,,
"Walter-Ulbricht-Stadion, Pflugstr.",tram,63,196782_east,,
"Hohenschönhausen, Falkenbergerstr.",tram,64,196783_east,,
Degnerstr.,tram,64,196784_east,,
Weißenseerweg,tram,64,196785_east,,
Steuerhaus,tram,64,196786_east,,
S-Bhf. Leninallee,tram,64,196787_east,,
Dimitroffstr. Ecke Landsbergerallee,tram,64,196788_east,,
Leninplatz,tram,64,196789_east,,
U-Bhf. Strausbergerplatz,tram,64,196790_east,,
Am Ostbahnhof,tram,64,196791_east,,
S-Bhf. Jannowitzbrücke,tram,64,196792_east,,
U-Bhf. Märkisches Museum,tram,64,196793_east,,
Spittelmarkt,tram,64,196794_east,,
Dönhoffplatz,tram,64,196795_east,,
"Hohenschönhausen, Falkenbergerstr.",tram,70,196796_east,,
Berlinerstr. Ecke Suermondtstr.,tram,70,196797_east,,
Stadion Buschallee,tram,70,196798_east,,
Kniprodeallee,tram,70,196799_east,,
Buschallee Ecke Klement-Gottwald-Allee,tram,70,1967100_east,,
Lichtenbergerstr.,tram,70,1967101_east,,
Antonplatz,tram,70,1967102_east,,
Prenzlauer Promenade,tram,70,1967103_east,,
Humannplatz,tram,70,1967104_east,,
U-Bhf. Dimitroffstr.,tram,70,1967105_east,,
Brunnenstr.,tram,70,1967106_east,,
Chausseestr.,tram,70,1967107_east,,
Oranienburger Tor,tram,70,1967108_east,,
Bhf. Friedrichstr.,tram,70,1967109_east,,
Am Kupfergraben,tram,70,1967110_east,,
Romain-Rolland-Str.,tram,71,1967111_east,,
"Heinersdorf, Kirche",tram,71,1967112_east,,
Prenzlauer Promenade,tram,71,1967113_east,,
S-Bhf. Prenzlauerallee,tram,71,1967114_east,,
Prenzlauerallee,tram,71,1967115_east,,
Prenzlauer Tor,tram,71,1967116_east,,
U-Bhf. Luxemburgplatz,tram,71,1967117_east,,
Hackescher Markt,tram,71,1967118_east,,
Oranienburger Tor,tram,71,1967119_east,,
Bhf. Friedrichstr.,tram,71,1967120_east,,
Am Kupfergraben,tram,71,1967121_east,,
"Weißensee, Pasedagplatz",tram,72,1967122_east,,
Buschallee,tram,72,1967123_east,,
Lichtenbergerstr.,tram,72,1967124_east,,
Antonplatz,tram,72,1967125_east,,
Prenzlauer Promenade,tram,72,1967126_east,,
S-Bhf. Prenzlauerallee,tram,72,1967127_east,,
Prenzlauerallee,tram,72,1967128_east,,
Prenzlauer Tor,tram,72,1967129_east,,
U-Bhf. Luxemburgplatz,tram,72,1967130_east,,
Hackescher Markt,tram,72,1967131_east,,
"Weißensee, Bernkastelerstr.",tram,73,1967132_east,,
Buschallee,tram,73,1967133_east,,
Antonplatz,tram,73,1967134_east,,
S-Bhf. Greifswalderstr.,tram,73,1967135_east,,
Greifswalderstr. Ecke Dimitroffstr.,tram,73,1967136_east,,
Königstor,tram,73,1967137_east,,
Prenzlauer Tor,tram,73,1967138_east,,
U-Bhf. Luxemburgplatz,tram,73,1967139_east,,
Hackescher Markt,tram,73,1967140_east,,
Friedrichstr.,tram,73,1967141_east,,
Invalidenstr. Ecke Chausseestr.,tram,73,1967142_east,,
Walter-Ulbricht-Stadion u ber Greifswalderstr.,tram,73,1967143_east,,
"Wießensee, Pasedagplatz",tram,74,1967144_east,,
Buschallee,tram,74,1967145_east,,
Antonplatz,tram,74,1967146_east,,
S-Bhf. Greifswalderstr.,tram,74,1967147_east,,
Greifswalderstr. Ecke Dimitroffstr.,tram,74,1967148_east,,
Königstor,tram,74,1967149_east,,
Mollstr. Ecke Hans-Beimler-Str.,tram,74,1967150_east,,
Leninplatz,tram,74,1967151_east,,
U-Bhf. Strausbergerplatz,tram,74,1967152_east,,
Am Ostbahnhof,tram,74,1967153_east,,
S-Bhf. Jannowitzbrücke,tram,74,1967154_east,,
U-Bhf. Märkisches Museum,tram,74,1967155_east,,
Spittelmarkt,tram,74,1967156_east,,
Dönhoffplatz,tram,74,1967157_east,,
Friedrichstr. Ecke Leipzigerstr.,tram,74,1967158_east,,
Leipzigerstr. Ecke Otto-Grotewohl-Str.,tram,74,1967159_east,,
"Mahlsdorf-Süd, Hubertus",tram,82,1967160_east,,
Uhlenhorst,tram,82,1967161_east,,
S-Bhf. Köpenick,tram,82,1967162_east,,
Hegelschule,tram,82,1967163_east,,
Pionierpark,tram,82,1967164_east,,
Rathenaustr.,tram,82,1967165_east,,
Wilhelminenhofstr. Ecke Edisonstr.,tram,82,1967166_east,,
Heinrich-Duncker-Str. Ecke Ehrlichstr.,tram,82,1967167_east,,
Hönower Wiesenweg,tram,82,1967168_east,,
Kraftwerk Klingenberg,tram,82,1967169_east,,
Karlshorsterstr.,tram,82,1967170_east,,
S-Bhf. Ostkreuz,tram,82,1967171_east,,
Stralauerallee Ecke Markgrafendamm,tram,82,1967172_east,,
Warschauerstr.,tram,82,1967173_east,,
Ostbahnhof,tram,82,1967174_east,,
U-Bhf. Strausburgerplatz,tram,82,1967175_east,,
Leninplatz,tram,82,1967176_east,,
Hans-Beimler-Str.,tram,82,1967177_east,,
U-Bhf. Luxemburgplatz,tram,82,1967178_east,,
Rosenthalerplatz,tram,82,1967179_east,,
Veteranenstr. Ecke Invalidenstr.,tram,82,1967180_east,,
Chausseestr.,tram,82,1967181_east,,
Walter-Ulbricht-Stadion,tram,82,1967182_east,,
Kinderheim,autobus,82P,1967183_east,,
Friedrich-Junge-Str.,autobus,82P,1967184_east,,
Markgrafendamm,autobus,82P,1967185_east,,
Wendenschloß Ecke Eckhofstr.,tram,83,1967186_east,,
VEB Schiffswerft,tram,83,1967187_east,,
RFT-Werk,tram,83,1967188_east,,
Strab. Bhf. Köpenick,tram,83,1967189_east,,
Lindenstr. Ecke Bahnhofstr.,tram,83,1967190_east,,
S-Bhf. Köpenick,tram,83,1967191_east,,
Uhlenhorst,tram,83,1967192_east,,
Mahlsdorf-Süd,tram,83,1967193_east,,
Bürgerwäldchen,tram,83,1967194_east,,
Rahnsdorferstr.,tram,83,1967195_east,,
S-Bhf. Mahlsdorf,tram,83,1967196_east,,
S-Bhf. Köpenick,tram,83E,1967197_east,,
Lindenstr. Ecke Bahnhofstr.,tram,83E,1967198_east,,
Strab. Bhf. Köpenick,tram,83E,1967199_east,,
RFT-Werk,tram,83E,1967200_east,,
VEB Schiffswerft,tram,83E,1967201_east,,
Wendenschloß,tram,83E,1967202_east,,
Am Falkenberg,tram,84,1967203_east,,
"Altglienicke, Kirche",tram,84,1967204_east,,
Benzolwerk,tram,84,1967205_east,,
S-Bhf. Adlershof,tram,84,1967206_east,,
S-Bhf. Spindlersfeld,tram,84,1967207_east,,
Schloßplatz Köpenick,tram,84,1967208_east,,
Bahnhofstr. Ecke Lindenstr.,tram,84,1967209_east,,
Seelenbinderstr. Ecke Bahnhofstr.,tram,84,1967210_east,,
Hirschgarten,tram,84,1967211_east,,
S-Bhf. Friedrichshagen,tram,84,1967212_east,,
"Bölschestr., Brauerei",tram,84,1967213_east,,
"Friedrichshagen, Wasserwerk",tram,84,1967214_east,,
Wendenschloß,tram,85,1967215_east,,
VEB Schiffswerft,tram,85,1967216_east,,
RFT-Werk,tram,85,1967217_east,,
Strab. Bhf. Köpenick,tram,85,1967218_east,,
Lindenstr. Ecke Hegelschule,tram,85,1967219_east,,
Pionierpark,tram,85,1967220_east,,
Edisonstr.,tram,85,1967221_east,,
Brückenstr.,tram,85,1967222_east,,
Bhf. Schöneweide,tram,85,1967223_east,,
"Johannisthal, Haeckelstr.",tram,85,1967224_east,,
Alt-Schmöckwitz,tram,86,1967225_east,,
Waldidyll,tram,86,1967226_east,,
Karolinenhof Mitte,tram,86,1967227_east,,
Richtershorn,tram,86,1967228_east,,
S-Bhf. Grünau,tram,86,1967229_east,,
Chemische Fabrik,tram,86,1967230_east,,
Jachtwerft,tram,86,1967231_east,,
Schloßplatz Köpenick,tram,86,1967232_east,,
Lindenstr. Ecke Bahnhofstr.,tram,86,1967233_east,,
S-Bhf. Köpenick,tram,86,1967234_east,,
Uhlenhorst,tram,86,1967235_east,,
"Mahlsdorf-Süd, Hubertus",tram,86,1967236_east,,
Rahnsdorf,tram,87,1967237_east,,
Wasserwerk,tram,87,1967238_east,,
S-Bhf. Friedrichshagen,tram,87,1967239_east,,
"Bölschestr., Brauerei",tram,87,1967240_east,,
Hirschgarten,tram,87,1967241_east,,
Seelenbinderstr. Ecke Bahnhofstr.,tram,87,1967242_east,,
Bahnhofstr. Ecke Lindenstr.,tram,87,1967243_east,,
Pionierpark,tram,87,1967244_east,,
Rathenaustr.,tram,87,1967245_east,,
Wilhelminenhofstr. Ecke Edisonstr.,tram,87,1967246_east,,
Bhf. Schöneweide,tram,87,1967247_east,,
Köpenicker Landstr. Ecke Baumschulenstr.,tram,87,1967248_east,,
S-Bhf. Plänterwald,tram,87,1967249_east,,
Am Treptower Park Ecke Elsenstr.,tram,87,1967250_east,,
Wiener Brücke,tram,87,1967251_east,,
"Oberspree, Bruno-Bürgel-Weg",tram,92,1967252_east,,
Britzerstr. Ecke Schnellerstr.,tram,92,1967253_east,,
Bhf. Schöneweide,tram,92,1967254_east,,
Baumschulenstr. Ecke Köpenicker Landstr.,tram,92,1967255_east,,
S-Bhf. Baumschulenweg,tram,92,1967256_east,,
Sonnenallee Ecke Baumschulenstr.,tram,92,1967257_east,,
Krankenhaus Köpenick,tram,95,1967258_east,,
Müggelheimerstr./Wendenschloßstr.,tram,95,1967259_east,,
Lindenstr. Ecke Hegelschule,tram,95,1967260_east,,
Pionierpark,tram,95,1967261_east,,
Rathenaustr.,tram,95,1967262_east,,
Edisonstr.,tram,95,1967263_east,,
Bhf. Schöneweide,tram,95,1967264_east,,
Baumschulenstr. Ecke Köpenicker Landstr.,tram,95,1967265_east,,
S-Bhf. Plänterwald,tram,95,1967266_east,,
Elsenstr. Ecke Am Treptower Park,tram,95,1967267_east,,
Wiener Brücke,tram,95,1967268_east,,
Arkonaplatz,autobus,A16,1967269_east,,
Veteranenstr. Ecke Brunnenstr.,autobus,A16,1967270_east,,
Rosenthalerplatz,autobus,A16,1967271_east,,
Liebknechstr. vor Littenstr.,autobus,A16,1967272_east,,
Adalbertstr.,autobus,A18,1967273_east,,
S-Bhf. Jannowitzbrücke,autobus,A18,1967274_east,,
Alexanderplatz,autobus,A18,1967275_east,,
Charlottenstr. Ecke Französischestr.,autobus,A18,1967276_east,,
Bhf. Friedrichstr.,autobus,A18,1967277_east,,
Schumannstr. Ecke Reinhardtstr.,autobus,A18,1967278_east,,
Robert-Koch-Platz,autobus,A18,1967279_east,,
"Hessenwinkel, Lutherstr.",autobus,A22,1967280_east,,
Fahlenbergstr. Ecke fürstenwalderallee,autobus,A22,1967281_east,,
S-Bhf. Wilhelmshagen,autobus,A22,1967282_east,,
Zentralschule,autobus,A22,1967283_east,,
Waldschänke,autobus,A22,1967284_east,,
S-Bhf. Rahnsdorf,autobus,A22,1967285_east,,
"Fichtenau, Post",autobus,A22,1967286_east,,
Falkenhöhe,autobus,A23,1967287_east,,
S-Bhf. Grünbergallee,autobus,A23,1967288_east,,
S-Bhf. Altglienicke,autobus,A23,1967289_east,,
Wolfmarsteig,autobus,A23,1967290_east,,
"Altglienicke, Schönefelderchaussee",autobus,A23,1967291_east,,
"Altglienicke, Kirche",autobus,A23,1967292_east,,
VEB Bautransporte,autobus,A26,1967293_east,,
Bhf. Schöneweide,autobus,A26,1967294_east,,
"S-Bhf. Kaulsdorf, Planitzstr.",autobus,A27,1967295_east,,
Chemnitzerstr. Ecke Alt-Kaulsdorf,autobus,A27,1967296_east,,
Jägerstr.,autobus,A27,1967297_east,,
Bachwitzerstr.,autobus,A27,1967298_east,,
S-Bhf. Köpenick,autobus,A27,1967299_east,,
Bahnhofstr. Ecke Lindenstr.,autobus,A27,1967300_east,,
Schloßplatz,autobus,A27,1967301_east,,
Wendenschloßstr. Ecke Müggelheimerstr.,autobus,A27,1967302_east,,
"Köpenick, Krankenhaus",autobus,A27,1967303_east,,
Chausseehaus,autobus,A27,1967304_east,,
Müggelseeperle,autobus,A27,1967305_east,,
Müggelheim,autobus,A27,1967306_east,,
Zentralflughafen,autobus,A36,1967307_east,,
"Schönefeld, Kirche",autobus,A36,1967308_east,,
Bhf. Schönefeld,autobus,A36,1967309_east,,
Gartenstr.,autobus,A36,1967310_east,,
S-Bhf. Grünbergallee,autobus,A36,1967311_east,,
"Bohnsdorf, Kirche",autobus,A36,1967312_east,,
Gartenstadtweg,autobus,A36,1967313_east,,
S-Bhf. Grünau,autobus,A36,1967314_east,,
Diepensee,autobus,AD/38,1967315_east,,
Kienberg,autobus,AD/38,1967316_east,,
Waltersdorf,autobus,AD/38,1967317_east,,
"Bohnsdorf, Waldstr.",autobus,AD/38,1967318_east,,
Joachimstr.,autobus,AD/38,1967319_east,,
S-Bhf. Grünau,autobus,AD/38,1967320_east,,
"Wartenberg, Siedlung",autobus,A39,1967321_east,,
"Wartenberg, Schule",autobus,A39,1967322_east,,
"Wartenberg, Lindenbergerstr.",autobus,A39,1967323_east,,
Falkenbergerchaussee Ecke Wartenbergerstr.,autobus,A39,1967324_east,,
Arnimstr. Ecke Wartenbergerstr.,autobus,A39,1967325_east,,
"Kolonie ""land In Sonne""",autobus,A39,1967326_east,,
"Hohenschönhausen, Falkenbergerstr.",autobus,A39,1967327_east,,
"Buch, Kiesgruben",autobus,A42,1967328_east,,
Ludwig-Hoffmann-Krankenhaus,autobus,A42,1967329_east,,
"Karowerstr., Alt-Buch",autobus,A42,1967330_east,,
Strasse 78,autobus,A42,1967331_east,,
Alt-Karow,autobus,A42,1967332_east,,
Güteraußenring,autobus,A42,1967333_east,,
Georgenstr.,autobus,A42,1967334_east,,
"Blankenburg, Bahnhofstr.",autobus,A42,1967335_east,,
"Heinersdorf, Kirche",autobus,A42,1967336_east,,
Am Steinberg,autobus,A42,1967337_east,,
Prenzlauer Promenade Ecke Ostseestr.,autobus,A42,1967338_east,,
Ostseestr.,autobus,A42,1967339_east,,
Bürknersfelde,autobus,A43,1967340_east,,
"Marzahn, Berlinerchaussee",autobus,A43,1967341_east,,
Kolonie Springpfuhl,autobus,A43,1967342_east,,
"Marzahnerchaussee, Schule",autobus,A43,1967343_east,,
S-Bhf. Friedrichsfelde-Ost,autobus,A43,1967344_east,,
"Alt-Friedrichsfelde, Am Tierpark",autobus,A43,1967345_east,,
U-Bhf. Friedrichsfelde,autobus,A43,1967346_east,,
"Hans-Loch-Str., Schule",autobus,A43,1967347_east,,
S-Bhf. Nöldnerplatz,autobus,A43,1967348_east,,
"Friedrichsfelde, Kirche",autobus,A43/R,1967349_east,,
U-Bhf. Friedrichsfelde,autobus,A43/R,1967350_east,,
Lincolnstr. Ecke Rummelsburgerstr.,autobus,A43/R,1967351_east,,
Weitlingstr. Ecke Rummelsburgerstr.,autobus,A43/R,1967352_east,,
S-Bhf. Nöldnerplatz,autobus,A43/R,1967353_east,,
"Hönow, Nord",autobus,A44,1967354_east,,
"Hönow, Dorfstr.",autobus,A44,1967355_east,,
Greifswalderstr.,autobus,A44,1967356_east,,
Am Rosenhag,autobus,A44,1967357_east,,
S-Bhf. Mahlsdorf,autobus,A44,1967358_east,,
S-Bhf. Mahlsdorf,autobus,A44E,1967359_east,,
Am Rosenhag,autobus,A44E,1967360_east,,
Hönowerstr. Ecke Greifswalderstr.,autobus,A44E,1967361_east,,
"Wilhelmsruh, Schillerstr.",autobus,A45,1967362_east,,
Hauptstr. Ecke Edelweißstr.,autobus,A45,1967363_east,,
Heinrich-Mann-Platz,autobus,A45,1967364_east,,
"Pankow, Kirche",autobus,A45,1967365_east,,
Prenzlauer Promenade Ecke Kissingenstr.,autobus,A45,1967366_east,,
Am Steinberg,autobus,A45,1967367_east,,
Hamburgerplatz,autobus,A45,1967368_east,,
Lichtenbergerstr. Ecke Klement-Gottwald-Allee,autobus,A45,1967369_east,,
Klement-Gottwald-Allee Ecke Rennbahnstr.,autobus,A45,1967370_east,,
"Weißensee, Schwarzelfenweg",autobus,A45,1967371_east,,
"Ahrensfeld, Kirche",autobus,A46,1967372_east,,
Lpg Falkenberg,autobus,A46,1967373_east,,
Malchowerweg,autobus,A46,1967374_east,,
Buschallee Ecke Klement-Gottwald-Allee,autobus,A46,1967375_east,,
Feldtmannstr.,autobus,A46,1967376_east,,
"Malchow, Dorfstr.",autobus,A46,1967377_east,,
Bhf. Schöneweide,autobus,A47,1967378_east,,
Sterndamm,autobus,A47,1967379_east,,
Johannisthalerchaussee,autobus,A47,1967380_east,,
Baumschulenstr. Ecke Südostallee,autobus,A47,1967381_east,,
S-Bhf. Baumschulenweg,autobus,A47,1967382_east,,
"Treptow, Rathaus",autobus,A47,1967383_east,,
Sowjetisches Ehrenmal,autobus,A47,1967384_east,,
S-Bhf. Treptower Park,autobus,A47,1967385_east,,
Bhf. Schöneweide,autobus,A48,1967386_east,,
Königsheideweg,autobus,A48,1967387_east,,
Lindhorstweg,autobus,A48,1967388_east,,
Stubenrauchstr.,autobus,A48,1967389_east,,
"Bhf. Kaulsdorf, Bausdorfstr.",autobus,A49,1967390_east,,
Ridbacherstr.,autobus,A49,1967391_east,,
Grottkauerstr.,autobus,A49,1967392_east,,
Uckermarkstr.,autobus,A49,1967393_east,,
"Niederschönhausen, Rolandstr.",autobus,A50,1967394_east,,
Ossietzkyplatz,autobus,A50,1967395_east,,
Kurt-Fischer-Platz,autobus,A50,1967396_east,,
"Pankow, Rathaus",autobus,A50,1967397_east,,
Mühlenstr. Ecke Florastr.,autobus,A50,1967398_east,,
U-Bhf. Pankow (Vinetastr.),autobus,A50,1967399_east,,
S-Bhf. Buch,autobus,51B,1967400_east,,
Karowerstr.,autobus,51B,1967401_east,,
Akademie der Wissenschaften,autobus,51B,1967402_east,,
Ostseestr. vor Prenzlauer Promenade,autobus,A54,1967403_east,,
Storkowerstr. Ecke Greifswalderstr.,autobus,A54,1967404_east,,
Stedingerweg,autobus,A54,1967405_east,,
Funk- Und Fernmeldeanlage,autobus,A54,1967406_east,,
S-Bhf. Lenninallee,autobus,A54,1967407_east,,
Dimitroffstr. vor Cotheniusstr.,autobus,A54,1967408_east,,
"Weißensee, Nüßlerstr.",autobus,A56,1967409_east,,
Gehringstr. Ecke Gustav-Adolf-Str.,autobus,A56,1967410_east,,
Rennbahnstr. Ecke Gustav-Adolf-Str.,autobus,A56,1967411_east,,
Wigandstalerstr. Ecke Gustav-Adolf-Str.,autobus,A56,1967412_east,,
Hamburgerplatz,autobus,A56,1967413_east,,
Gustav-Adolf-Str. (Spitze),autobus,A56,1967414_east,,
Kanzowstr.,autobus,A56,1967415_east,,
Kniprodestr. Ecke Ermländischestr.,autobus,A57,1967416_east,,
Königstor,autobus,A57,1967417_east,,
U-Bhf. Luxemburgplatz,autobus,A57,1967418_east,,
Deutsche Staatsoper,autobus,A57,1967419_east,,
Bhf. Friedrichstr.,autobus,A57,1967420_east,,
Oranienburger Tor,autobus,A57,1967421_east,,
Platz vor Dem Neuen Tor,autobus,A57,1967422_east,,
Scharnhorststr. Ecke Kielerstr.,autobus,A57,1967423_east,,
Fontanestr.,autobus,A58,1967424_east,,
Edelweißstr.,autobus,A58,1967425_east,,
Ehrenmal,autobus,A58,1967426_east,,
Heinrich-Mann-Platz,autobus,A58,1967427_east,,
"Pankow, Kirche",autobus,A58,1967428_east,,
S-Bhf. Pankow,autobus,A58,1967429_east,,
U-Bhf. Pankow (Vinetastr.),autobus,A58,1967430_east,,
Walther-Ulbricht-Stadion,autobus,A59,1967431_east,,
Invalidenstr.,autobus,A59,1967432_east,,
Bhf. Friedrichstr.,autobus,A59,1967433_east,,
Französischestr.,autobus,A59,1967434_east,,
U-Bhf. Stadtmitte,autobus,A59,1967435_east,,
U-Bhf. Thälmannplatz,autobus,A59,1967436_east,,
"Glienicke, Kirche",autobus,A7,1967437_east,,
Elsässerstr.,autobus,A7,1967438_east,,
"Schildow, Kirche",autobus,A7,1967439_east,,
"Blankenfelde, Hauptstr.",autobus,A7,1967440_east,,
Industriebahn,autobus,A7,1967441_east,,
Nordend,autobus,A7,1967442_east,,
Kurt-Fischer-Platz,autobus,A7,1967443_east,,
"Pankow, Rathaus",autobus,A7,1967444_east,,
Florastr. Ecke Mühlenstr.,autobus,A7,1967445_east,,
U-Bhf. Vinetastr.,autobus,A7,1967446_east,,
"Schildow, Kirche",autobus,A7E,1967447_east,,
"Blankenfelde, Hauptstr.",autobus,A7E,1967448_east,,
Nordend,autobus,A7E,1967449_east,,
Kurt-Fischer-Platz,autobus,A7E,1967450_east,,
"Pankow, Rathaus",autobus,A7E,1967451_east,,
Florastr. Ecke Mühlenstr.,autobus,A7E,1967452_east,,
U-Bhf. Vinetastr.,autobus,A7E,1967453_east,,
"Waldesruh, Malhlsdorferallee",autobus,A8,1967454_east,,
Fichtestr. Ecke Schopenhauerstr.,autobus,A8,1967455_east,,
Hultschinerdamm,autobus,A8,1967456_east,,
Sadowastr. Ecke Ulmenstr.,autobus,A8,1967457_east,,
Jägerstr.,autobus,A8,1967458_east,,
"Biesdorf, Köpenickerstr.",autobus,A8,1967459_east,,
Dohlengrund,autobus,A8,1967460_east,,
"Alt-Biesdorf, Oberfeldstr.",autobus,A8,1967461_east,,
"Alt-Friedrichsfelde, Am Tierpark",autobus,A8,1967462_east,,
U-Bhf. Friedrichsfelde,autobus,A8,1967463_east,,
Sadowastr.,autobus,A8E,1967464_east,,
Jägerstr.,autobus,A8E,1967465_east,,
"Biesdorf, Köpenickerstr.",autobus,A8E,1967466_east,,
Dohlengrund,autobus,A8E,1967467_east,,
"Alt-Biesdorf, Oberfeldstr.",autobus,A8E,1967468_east,,
"Alt-Friedrichsfelde, Am Tierpark",autobus,A8E,1967469_east,,
U-Bhf. Friedrichsfelde,autobus,A8E,1967470_east,,
Kurischestr.,autobus,A9,1967471_east,,
Königstor,autobus,A9,1967472_east,,
U-Bhf. Luxemburgplatz,autobus,A9,1967473_east,,
Deutsche Staatsoper,autobus,A9,1967474_east,,
Friedrichstr. Ecke Unter den Linden,autobus,A9,1967475_east,,
Otto-Grotewohl-Str.,autobus,A9,1967476_east,,
Neu-Lindenberg,autobus,AL,1967477_east,,
"Lindenberg, Schule",autobus,AL,1967478_east,,
"Lindenberg, Dorf",autobus,AL,1967479_east,,
"Lindenberg, Mühle",autobus,AL,1967480_east,,
"Malchow, Dorfstr.",autobus,AL,1967481_east,,
Friedrichstr.,s-bahn,KBS 101,1967482_east,,
Marx-Engels-Platz,s-bahn,KBS 101,1967483_east,,
Alexanderplatz,s-bahn,KBS 101,1967484_east,,
Jannowitzbrücke,s-bahn,KBS 101,1967485_east,,
Ostbahnhof,s-bahn,KBS 101,1967486_east,,
Warschauer Str.,s-bahn,KBS 101,1967487_east,,
Ostkreuz,s-bahn,KBS 101,1967488_east,,
Nöldnerplatz,s-bahn,KBS 101,1967489_east,,
Lichtenberg,s-bahn,KBS 101,1967490_east,,
Friedrichsfelde Ost,s-bahn,KBS 101,1967491_east,,
Biesdorf,s-bahn,KBS 101,1967492_east,,
Kaulsdorf,s-bahn,KBS 101,1967493_east,,
Mahlsdorf,s-bahn,KBS 101,1967494_east,,
Hoppegarten (Mark),s-bahn,KBS 101,1967495_east,,
Neuenhagen (b Bln),s-bahn,KBS 101,1967496_east,,
Fredersdorf (b Bln),s-bahn,KBS 101,1967497_east,,
Petershagen Nord,s-bahn,KBS 101,1967498_east,,
Strausberg,s-bahn,KBS 101,1967499_east,,
Strausberg,s-bahn,KBS 101c,1967500_east,,
Strausberg Stadt,s-bahn,KBS 101c,1967501_east,,
Strausberg Nord,s-bahn,KBS 101c,1967502_east,,
Friedrichstr.,s-bahn,KBS 102,1967503_east,,
Marx-Engels-Platz,s-bahn,KBS 102,1967504_east,,
Alexanderplatz,s-bahn,KBS 102,1967505_east,,
Jannowitzbrücke,s-bahn,KBS 102,1967506_east,,
Ostbahnhof,s-bahn,KBS 102,1967507_east,,
Warschauer Str.,s-bahn,KBS 102,1967508_east,,
Ostkreuz,s-bahn,KBS 102,1967509_east,,
Rummelsburg,s-bahn,KBS 102,1967510_east,,
Betriebsbahnhof Rummelsburg,s-bahn,KBS 102,1967511_east,,
Karlshorst,s-bahn,KBS 102,1967512_east,,
Wuhlheide,s-bahn,KBS 102,1967513_east,,
Köpenick,s-bahn,KBS 102,1967514_east,,
Hirschgarten,s-bahn,KBS 102,1967515_east,,
Friedrichshagen,s-bahn,KBS 102,1967516_east,,
Rahnsdorf,s-bahn,KBS 102,1967517_east,,
Wilhelmshagen,s-bahn,KBS 102,1967518_east,,
Erkner,s-bahn,KBS 102,1967519_east,,
Friedrichstr.,s-bahn,KBS 103,1967520_east,,
Marx-Engels-Platz,s-bahn,KBS 103,1967521_east,,
Alexanderplatz,s-bahn,KBS 103,1967522_east,,
Jannowitzbrücke,s-bahn,KBS 103,1967523_east,,
Ostbahnhof,s-bahn,KBS 103,1967524_east,,
Warschauer Str.,s-bahn,KBS 103,1967525_east,,
Treptower Park,s-bahn,KBS 103,1967526_east,,
Plänterwald,s-bahn,KBS 103,1967527_east,,
Baumschulenweg,s-bahn,KBS 103,1967528_east,,
Schöneweide,s-bahn,KBS 103,1967529_east,,
Betriebsbahnhof Schöneweide,s-bahn,KBS 103,1967530_east,,
Adlershof,s-bahn,KBS 103,1967531_east,,
Grünau,s-bahn,KBS 103,1967532_east,,
Eichwalde,s-bahn,KBS 103,1967533_east,,
Zeuthen,s-bahn,KBS 103,1967534_east,,
Wildau,s-bahn,KBS 103,1967535_east,,
Königs Wusterhausen,s-bahn,KBS 103,1967536_east,,
Friedrichstr.,s-bahn,KBS 103a,1967537_east,,
Marx-Engels-Platz,s-bahn,KBS 103a,1967538_east,,
Alexanderplatz,s-bahn,KBS 103a,1967539_east,,
Jannowitzbrücke,s-bahn,KBS 103a,1967540_east,,
Ostbahnhof,s-bahn,KBS 103a,1967541_east,,
Warschauer Str.,s-bahn,KBS 103a,1967542_east,,
Treptower Park,s-bahn,KBS 103a,1967543_east,,
Plänterwald,s-bahn,KBS 103a,1967544_east,,
Baumschulenweg,s-bahn,KBS 103a,1967545_east,,
Schöneweide,s-bahn,KBS 103a,1967546_east,,
Betriebsbahnhof Schöneweide,s-bahn,KBS 103a,1967547_east,,
Adlershof,s-bahn,KBS 103a,1967548_east,,
Altglienicke,s-bahn,KBS 103a,1967549_east,,
Grünbergallee,s-bahn,KBS 103a,1967550_east,,
Zentralflughafen Berlin-Schönefeld,s-bahn,KBS 103a,1967551_east,,
Oranienburg,s-bahn,KBS 104,1967552_east,,
Lehnitz,s-bahn,KBS 104,1967553_east,,
Borgsdorf,s-bahn,KBS 104,1967554_east,,
Birkenwerder,s-bahn,KBS 104,1967555_east,,
Hohen Neuendorf (b Bln),s-bahn,KBS 104,1967556_east,,
Bergfelde (b Bln),s-bahn,KBS 104,1967557_east,,
Schönfließ,s-bahn,KBS 104,1967558_east,,
Blankenburg,s-bahn,KBS 104,1967559_east,,
Pankow-Heinersdorf,s-bahn,KBS 104,1967560_east,,
Pankow,s-bahn,KBS 104,1967561_east,,
Schönhauserallee,s-bahn,KBS 104,1967562_east,,
Prenzlauerallee,s-bahn,KBS 104,1967563_east,,
Greifswalder Str.,s-bahn,KBS 104,1967564_east,,
Leninallee,s-bahn,KBS 104,1967565_east,,
Zentralviehhof,s-bahn,KBS 104,1967566_east,,
Frankfurterallee,s-bahn,KBS 104,1967567_east,,
Warschauer Str.,s-bahn,KBS 104,1967568_east,,
Ostbahnhof,s-bahn,KBS 104,1967569_east,,
Hennigsdorf (b Bln),s-bahn,KBS 104d,1967570_east,,
Hennigsdorf Nord,s-bahn,KBS 104d,1967571_east,,
Hohenschöpping,s-bahn,KBS 104d,1967572_east,,
Velten (Mark),s-bahn,KBS 104d,1967573_east,,
Blankenburg,s-bahn,KBS 105,1967574_east,,
Pankow-Heinersdorf,s-bahn,KBS 105,1967575_east,,
Pankow,s-bahn,KBS 105,1967576_east,,
Schönhauserallee,s-bahn,KBS 105,1967577_east,,
Prenzlauerallee,s-bahn,KBS 105,1967578_east,,
Greifswalder Str.,s-bahn,KBS 105,1967579_east,,
Leninallee,s-bahn,KBS 105,1967580_east,,
Zentralviehhof,s-bahn,KBS 105,1967581_east,,
Frankfurterallee,s-bahn,KBS 105,1967582_east,,
Ostkreuz,s-bahn,KBS 105,1967583_east,,
Treptower Park,s-bahn,KBS 105,1967584_east,,
Plänterwald,s-bahn,KBS 105,1967585_east,,
Baumschulenweg,s-bahn,KBS 105,1967586_east,,
Schöneweide,s-bahn,KBS 105,1967587_east,,
Betriebsbahnhof Schöneweide,s-bahn,KBS 105,1967588_east,,
Adlershof,s-bahn,KBS 105,1967589_east,,
Grünau,s-bahn,KBS 105,1967590_east,,
Eichwalde,s-bahn,KBS 105,1967591_east,,
Zeuthen,s-bahn,KBS 105,1967592_east,,
Bernau (b Bln),s-bahn,KBS 106,1967593_east,,
Zepernick (b Bernau),s-bahn,KBS 106,1967594_east,,
Röntgental,s-bahn,KBS 106,1967595_east,,
Buch,s-bahn,KBS 106,1967596_east,,
Karow,s-bahn,KBS 106,1967597_east,,
Blankenburg,s-bahn,KBS 106,1967598_east,,
Pankow-Heinersdorf,s-bahn,KBS 106,1967599_east,,
Pankow,s-bahn,KBS 106,1967600_east,,
Schönhauserallee,s-bahn,KBS 106,1967601_east,,
Prenzlauerallee,s-bahn,KBS 106,1967602_east,,
Greifswalder Str.,s-bahn,KBS 106,1967603_east,,
Leninallee,s-bahn,KBS 106,1967604_east,,
Zentralviehhof,s-bahn,KBS 106,1967605_east,,
Frankfurterallee,s-bahn,KBS 106,1967606_east,,
Ostkreuz,s-bahn,KBS 106,1967607_east,,
Treptower Park,s-bahn,KBS 106,1967608_east,,
Plänterwald,s-bahn,KBS 106,1967609_east,,
Baumschulenweg,s-bahn,KBS 106,1967610_east,,
Schöneweide,s-bahn,KBS 106,1967611_east,,
Oberspree,s-bahn,KBS 106,1967612_east,,
Spindlersfeld,s-bahn,KBS 106,1967613_east,,
Schönhauserallee,s-bahn,KBS 106a,1967614_east,,
Prenzlauerallee,s-bahn,KBS 106a,1967615_east,,
Greifswalder Str.,s-bahn,KBS 106a,1967616_east,,
Leninallee,s-bahn,KBS 106a,1967617_east,,
Zentralviehhof,s-bahn,KBS 106a,1967618_east,,
Frankfurterallee,s-bahn,KBS 106a,1967619_east,,
Ostkreuz,s-bahn,KBS 106a,1967620_east,,
Treptower Park,s-bahn,KBS 106a,1967621_east,,
Plänterwald,s-bahn,KBS 106a,1967622_east,,
Baumschulenweg,s-bahn,KBS 106a,1967623_east,,
Schöneweide,s-bahn,KBS 106a,1967624_east,,
Betriebsbahnhof Schöneweide,s-bahn,KBS 106a,1967625_east,,
Adlershof,s-bahn,KBS 106a,1967626_east,,
Altglienicke,s-bahn,KBS 106a,1967627_east,,
Grünbergallee,s-bahn,KBS 106a,1967628_east,,
Zentralflughafen Berlin-Schönefeld,s-bahn,KBS 106a,1967629_east,,
Ostbahnhof,omnibus,O30,1967630_east,,
Küstrinerplatz,omnibus,O30,1967631_east,,
Warschauerstr.,omnibus,O30,1967632_east,,
Boxhagenerstr. Ecke Holteistr.,omnibus,O30,1967633_east,,
S-Bhf. Rummelsburg,omnibus,O30,1967634_east,,
Weitlingstr.,omnibus,O30,1967635_east,,
Bhf. Lichtenberg,omnibus,O30,1967636_east,,
Obus-Bf. Siegfriedstr.,omnibus,O30,1967637_east,,
Herzbergstr.,omnibus,O30,1967638_east,,
Roederplatz,omnibus,O30,1967639_east,,
Proskauer Ecke Dolzigerstr.,omnibus,O30,1967640_east,,
Ebertystr. Ecke Leninallee,omnibus,O30,1967641_east,,
Greifswalderstr. Ecke Dimitroffstr.,omnibus,O30,1967642_east,,
Königstor,omnibus,O30,1967643_east,,
U-Bhf. Luxemburgplatz,omnibus,O30,1967644_east,,
Rosenthalerplatz,omnibus,O30,1967645_east,,
Robert-Koch-Platz,omnibus,O30,1967646_east,,
Dimitroffstr. vor Cotheniusstr.,omnibus,O37,1967647_east,,
S-Bhf. Leninallee,omnibus,O37,1967648_east,,
Weißenseerweg,omnibus,O37,1967649_east,,
Genslerstr. Ecke Landsbergerchaussee,omnibus,O37,1967650_east,,
Dingelstädterstr. Ecke Landsbergerchaussee,omnibus,O37,1967651_east,,
Bürknersfelde,omnibus,O37,1967652_east,,
Marzahnerchaussee Ecke Berlinerchaussee,omnibus,O37,1967653_east,,
"Alt-Marzahn, Kirche",omnibus,O37,1967654_east,,
Elisabethstr.,omnibus,O37,1967655_east,,
Boschpolerstr.,omnibus,O37,1967656_east,,
S-Bhf. Biesdorf,omnibus,O37,1967657_east,,
"Alt-Biesdorf, Oberfeldstr.",omnibus,O37,1967658_east,,
"Alt-Friedrichsfelde, Am Tierpark",omnibus,O37,1967659_east,,
Bhf. Lichtenberg,omnibus,O37,1967660_east,,
Ostbahnhof,omnibus,O40,1967661_east,,
Küstrinerplatz,omnibus,O40,1967662_east,,
Leninplatz,omnibus,O40,1967663_east,,
Königstor,omnibus,O40,1967664_east,,
Rosenthalerplatz,omnibus,O40,1967665_east,,
Oranienburger Tor,omnibus,O40,1967666_east,,
Robert-Koch-Platz,omnibus,O40,1967667_east,,
S-Bhf. Friedrichshagen (Grenze),tram,"S-Bhf. Friedrichshagen <> Rüdersdorf, Karl-Marx-Platz (VEB Schöneiche-Rüdersdorf)",1967668_east,,
"Schöneiche, Waldstr.",tram,"S-Bhf. Friedrichshagen <> Rüdersdorf, Karl-Marx-Platz (VEB Schöneiche-Rüdersdorf)",1967669_east,,
"Schöneiche, Goethepark",tram,"S-Bhf. Friedrichshagen <> Rüdersdorf, Karl-Marx-Platz (VEB Schöneiche-Rüdersdorf)",1967670_east,,
"Schöneiche, Dorfstr.",tram,"S-Bhf. Friedrichshagen <> Rüdersdorf, Karl-Marx-Platz (VEB Schöneiche-Rüdersdorf)",1967671_east,,
Dorfaue,tram,"S-Bhf. Friedrichshagen <> Rüdersdorf, Karl-Marx-Platz (VEB Schöneiche-Rüdersdorf)",1967672_east,,
"Schöneiche, Schillerstr.",tram,"S-Bhf. Friedrichshagen <> Rüdersdorf, Karl-Marx-Platz (VEB Schöneiche-Rüdersdorf)",1967673_east,,
"Schöneiche, Grätzwalde",tram,"S-Bhf. Friedrichshagen <> Rüdersdorf, Karl-Marx-Platz (VEB Schöneiche-Rüdersdorf)",1967674_east,,
"Schöneiche, Jägerstr.",tram,"S-Bhf. Friedrichshagen <> Rüdersdorf, Karl-Marx-Platz (VEB Schöneiche-Rüdersdorf)",1967675_east,,
"Rüdersdorf, Berghof",tram,"S-Bhf. Friedrichshagen <> Rüdersdorf, Karl-Marx-Platz (VEB Schöneiche-Rüdersdorf)",1967676_east,,
"Rüdersdorf, Torellplatz",tram,"S-Bhf. Friedrichshagen <> Rüdersdorf, Karl-Marx-Platz (VEB Schöneiche-Rüdersdorf)",1967677_east,,
"Rüdersdorf, Heinitzstr.",tram,"S-Bhf. Friedrichshagen <> Rüdersdorf, Karl-Marx-Platz (VEB Schöneiche-Rüdersdorf)",1967678_east,,
"Rüdersdorf, Post",tram,"S-Bhf. Friedrichshagen <> Rüdersdorf, Karl-Marx-Platz (VEB Schöneiche-Rüdersdorf)",1967679_east,,
"Rüdersdorf, Schulstr.",tram,"S-Bhf. Friedrichshagen <> Rüdersdorf, Karl-Marx-Platz (VEB Schöneiche-Rüdersdorf)",1967680_east,,
"Rüdersdorf, Karl-Marx-Platz",tram,"S-Bhf. Friedrichshagen <> Rüdersdorf, Karl-Marx-Platz (VEB Schöneiche-Rüdersdorf)",1967681_east,,
S-Bhf. Rahnsdorf,tram,S-Bhf. Rahnsdorf <> Woltersdorfer Schleuse (VEB Woltersdorf),1967682_east,,
Goethestr.,tram,S-Bhf. Rahnsdorf <> Woltersdorfer Schleuse (VEB Woltersdorf),1967683_east,,
Eichendamm,tram,S-Bhf. Rahnsdorf <> Woltersdorfer Schleuse (VEB Woltersdorf),1967684_east,,
Lerchenstr.,tram,S-Bhf. Rahnsdorf <> Woltersdorfer Schleuse (VEB Woltersdorf),1967685_east,,
Fasanenstr.,tram,S-Bhf. Rahnsdorf <> Woltersdorfer Schleuse (VEB Woltersdorf),1967686_east,,
Thälmannplatz,tram,S-Bhf. Rahnsdorf <> Woltersdorfer Schleuse (VEB Woltersdorf),1967687_east,,
Blumenstr.,tram,S-Bhf. Rahnsdorf <> Woltersdorfer Schleuse (VEB Woltersdorf),1967688_east,,
"Woltersdorf, Krankenhaus",tram,S-Bhf. Rahnsdorf <> Woltersdorfer Schleuse (VEB Woltersdorf),1967689_east,,
Woltersdorfer Schleuse,tram,S-Bhf. Rahnsdorf <> Woltersdorfer Schleuse (VEB Woltersdorf),1967690_east,,
Pankow (Vinetastr.),u-bahn,A,1967691_east,,
Schönhauserallee,u-bahn,A,1967692_east,,
Dimitroffstr.,u-bahn,A,1967693_east,,
Senefelderplatz,u-bahn,A,1967694_east,,
Luxemburgplatz,u-bahn,A,1967695_east,,
Alexanderplatz,u-bahn,A,1967696_east,,
Klosterstr.,u-bahn,A,1967697_east,,
Märkisches Museum,u-bahn,A,1967698_east,,
Spittelmarkt,u-bahn,A,1967699_east,,
Hausvogteiplatz,u-bahn,A,1967700_east,,
Stadtmitte,u-bahn,A,1967701_east,,
Thälmannplatz,u-bahn,A,1967702_east,,
Alexanderplatz,u-bahn,E,1967703_east,,
Schillingstr.,u-bahn,E,1967704_east,,
Strausbergerplatz,u-bahn,E,1967705_east,,
Marchlewskistr.,u-bahn,E,1967706_east,,
Frankfurter Tor,u-bahn,E,1967707_east,,
Samariterstr.,u-bahn,E,1967708_east,,
Frankfurterallee,u-bahn,E,1967709_east,,
Magdalenenstr.,u-bahn,E,1967710_east,,
Bahnhof Lichtenberg,u-bahn,E,1967711_east,,
Friedrichsfelde,u-bahn,E,1967712_east,,
"Johannisthal, Haeckelstr.",tram,69,1967713_east,,
Bhf. Schöneweide,tram,69,1967714_east,,
Wilhelminenhofstr.,tram,69,1967715_east,,
S-Bhf. Karlshorst,tram,69,1967716_east,,
Hochschule für Ökonomie,tram,69,1967717_east,,
Tierpark Berlin,tram,69,1967718_east,,
Alt-Friedrichsfelde Ecke Am Tierpark,tram,69,1967719_east,,
Bhf. Lichtenberg,tram,69,1967720_east,,
Strab. Bhf. Siegfriedstr.,tram,69,1967721_east,,
Herzbergstr.,tram,69,1967722_east,,
Roederplatz,tram,69,1967723_east,,
Steuerhaus,tram,69,1967724_east,,
Dimitroffstr. Ecke Landsbergerallee,tram,69,1967725_east,,
Leninplatz,tram,69,1967726_east,,
"Alexanderplatz, Memhardstr.",tram,69,1967727_east,,
Hackescher Markt,tram,69,1967728_east,,
Oranienburger Tor,tram,69,1967729_east,,
Walter-Ulbricht-Stadion,tram,69,1967730_east,,
"Johannisthal, Haeckelstr.",tram,69E,1967731_east,,
Bhf. Schöneweide,tram,69E,1967732_east,,
Wilhelminenhofstr.,tram,69E,1967733_east,,
S-Bhf. Karlshorst,tram,69E,1967734_east,,
Hochschule für Ökonomie,tram,69E,1967735_east,,
Tierpark Berlin,tram,69E,1967736_east,,
Alt-Friedrichsfelde Ecke Am Tierpark,tram,69E,1967737_east,,
Bhf. Lichtenberg,tram,69E,1967738_east,,
Strab. Bhf. Siegfriedstr.,tram,69E,1967739_east,,
Herzbergstr.,tram,69E,1967740_east,,
Roederplatz,tram,69E,1967741_east,,
Steuerhaus,tram,69E,1967742_east,,
Dimitroffstr. Ecke Landsbergerallee,tram,69E,1967743_east,,
Kniprodestr.,tram,69E,1967744_east,,
