stop_name,type,line_name,stop_id,location,identifier
Daimlerstr.,tram,15,19640_west,,
Großbeerenstr. Ecke Lankwitzerstr.,tram,15,19641_west,,
Körtingstr.,tram,15,19642_west,,
Mariendorferdamm,tram,15,19643_west,,
Imbrosweg,tram,15,19644_west,,
Mariendorfer Friedhof,tram,15,19645_west,,
Industriestr.,tram,15,19646_west,,
Germaniastr.,tram,15,19647_west,,
Frauenklinik,tram,15,19648_west,,
Hermannstr.,tram,15,19649_west,,
U-Bhf. Neukölln,tram,15,196410_west,,
Richardstr.,tram,15,196411_west,,
Saalestr. Ecke Sonnenallee,tram,15,196412_west,,
Dammweg,tram,15,196413_west,,
Schulenburgpark,tram,15,196414_west,,
Gradestr. Ecke Tempelhoferweg,tram,47,196415_west,,
U-Bhf. Blaschko-Allee,tram,47,196416_west,,
Buschkrug,tram,47,196417_west,,
Onkel-Herse-Str.,tram,47,196418_west,,
Parachimerallee Ecke Buschkrugallee,tram,47,196419_west,,
Grünerweg Ecke Buschkrugallee,tram,47,196420_west,,
Krankenhaus Neukölln,tram,47,196421_west,,
Johannisthalerchaussee Ecke Rudowerstr.,tram,47,196422_west,,
Wildmeisterdamm Ecke Neuköllnerstr.,tram,47,196423_west,,
Stubenrauchstr.,tram,47,196424_west,,
Köpenickerstr. Ecke Neuköllnerstr.,tram,47,196425_west,,
Große-Ziethenchaussee Ecke Waltersdorferchaussee,tram,47,196426_west,,
Richard-Wagner-Platz,tram,53,196427_west,,
Luisenplatz,tram,53,196428_west,,
Klausenerplatz,tram,53,196429_west,,
Königin-Elisabeth-Str.,tram,53,196430_west,,
Kirschenallee,tram,53,196431_west,,
Schloss Ruhwald,tram,53,196432_west,,
U-Bhf. Ruhleben,tram,53,196433_west,,
Teltowerstr.,tram,53,196434_west,,
Freiheit,tram,53,196435_west,,
"Spandau, Markt",tram,53,196436_west,,
Hafenplatz,tram,53,196437_west,,
Lynastr. Ecke Neuendorferstr.,tram,53,196438_west,,
Hohenzollernring,tram,53,196439_west,,
Hakenfelde,tram,53,196440_west,,
Richard-Wagner-Platz,tram,54,196441_west,,
Luisenplatz,tram,54,196442_west,,
Klausenerplatz,tram,54,196443_west,,
Königin-Elisabeth-Str.,tram,54,196444_west,,
Kirschenallee,tram,54,196445_west,,
Schloss Ruhwald,tram,54,196446_west,,
U-Bhf. Ruhleben,tram,54,196447_west,,
Teltowerstr.,tram,54,196448_west,,
Freiheit,tram,54,196449_west,,
"Spandau, Markt",tram,54,196450_west,,
Hafenplatz,tram,54,196451_west,,
Lynastr. Ecke Neuendorferstr.,tram,54,196452_west,,
Hohenzollernring,tram,54,196453_west,,
Johannesstift,tram,54,196454_west,,
Bhf. Zoo,tram,55,196455_west,,
U-Bhf. Ernst-Reuter-Platz,tram,55,196456_west,,
Richard-Wagner-Platz,tram,55,196457_west,,
Luisenplatz,tram,55,196458_west,,
Osnabrückerstr.,tram,55,196459_west,,
Jakob-Kaiser-Platz,tram,55,196460_west,,
Quellweg,tram,55,196461_west,,
Paulsternstr.,tram,55,196462_west,,
Zitadellenweg,tram,55,196463_west,,
Carl-Schurz-Str. Ecke Am Juliusturm,tram,55,196464_west,,
Hafenplatz,tram,55,196465_west,,
Hohenzollernring,tram,55,196466_west,,
Hakenfelde,tram,55,196467_west,,
"Bhf. Zoo, Kantstr.",tram,75,196468_west,,
Wilmersdorferstr.,tram,75,196469_west,,
Amtsgericht,tram,75,196470_west,,
Messedamm,tram,75,196471_west,,
Theodor-Heuss-Platz,tram,75,196472_west,,
Preußenallee Ecke Heerstr.,tram,75,196473_west,,
Reichssportfeldstr.,tram,75,196474_west,,
Stößenseebrücke,tram,75,196475_west,,
Pichelsdorferstr.,tram,75,196476_west,,
"Weverstr., Strassenbahnhof",tram,75,196477_west,,
Seeburgerstr.,tram,75,196478_west,,
Rathaus Spandau,tram,75,196479_west,,
"Spandau, Markt",tram,75,196480_west,,
Hafenplatz,tram,75,196481_west,,
Hohenzollernring,tram,75,196482_west,,
Hakenfelde,tram,75,196483_west,,
"Bhf. Zoo, Kantstr.",tram,76,196484_west,,
Wilmersdorferstr.,tram,76,196485_west,,
Amtsgericht,tram,76,196486_west,,
Messedamm,tram,76,196487_west,,
Theodor-Heuss-Platz,tram,76,196488_west,,
Preußenallee Ecke Heerstr.,tram,76,196489_west,,
Reichssportfeldstr.,tram,76,196490_west,,
Stößenseebrücke,tram,76,196491_west,,
Pichelsdorferstr.,tram,76,196492_west,,
"Weverstr., Strassenbahnhof",tram,76,196493_west,,
Seeburgerstr.,tram,76,196494_west,,
Rathaus Spandau,tram,76,196495_west,,
"Spandau, Markt",tram,76,196496_west,,
Hafenplatz,tram,76,196497_west,,
Hohenzollernring Ecke Schönwalderallee,tram,76,196498_west,,
Johannesstift,tram,76,196499_west,,
Mehringplatz,tram,95,1964100_west,,
Zossenerstr. Ecke Blücherstr.,tram,95,1964101_west,,
Baerwaldstr. Ecke Urbanstr.,tram,95,1964102_west,,
Urban-Krankenhaus,tram,95,1964103_west,,
Hermannplatz,tram,95,1964104_west,,
Erkstr. Ecke Sonnenallee,tram,95,1964105_west,,
Hertzbergplatz,tram,95,1964106_west,,
Saalestr. Ecke Sonnenallee,tram,95,1964107_west,,
Dammweg Ecke Sonnenallee,tram,95,1964108_west,,
Schulenburgpark,tram,95,1964109_west,,
Schwarzerweg Ecke Sonnenallee,tram,95,1964110_west,,
Lindenstr.,tram,96,1964111_west,,
Mehringplatz,tram,96,1964112_west,,
Yorckstr.,tram,96,1964113_west,,
U-Bhf. Flughafen,tram,96,1964114_west,,
Adolf-Scheidt-Platz,tram,96,1964115_west,,
Berlinickeplatz,tram,96,1964116_west,,
Attilaplatz,tram,96,1964117_west,,
Ringstr. Ecke Attilastr.,tram,96,1964118_west,,
"Lankwitz, Kirche",tram,96,1964119_west,,
Seydlitzstr. Ecke Kaiser-Wilhelm-Str.,tram,96,1964120_west,,
Kranoldplatz,tram,96,1964121_west,,
Ostpreußendamm Ecke Morgensternstr.,tram,96,1964122_west,,
Giesendorferstr. Ecke Ostpreußendamm,tram,96,1964123_west,,
Wismarerstr. Ecke Ostpreußendamm,tram,96,1964124_west,,
Goerzallee,tram,96,1964125_west,,
"Moabit, Waldstr. Ecke Turmstr.",autobus,A1,1964126_west,,
Otto-Suhr-Allee Ecke Cauerstr.,autobus,A1,1964127_west,,
Kurfürstendamm Ecke Konstanzerstr.,autobus,A1,1964128_west,,
U-Bhf. Fehrbellinerplatz,autobus,A1,1964129_west,,
Detmolderstr. Ecke Blissestr.,autobus,A1,1964130_west,,
Breitenbachplatz,autobus,A1,1964131_west,,
Botanischer Garten,autobus,A1,1964132_west,,
Pacelli/Theilallee,autobus,A1,1964133_west,,
Clayallee Ecke Königin-Luise-Str.,autobus,A1,1964134_west,,
U-Bhf. Oskar-Helene-Heim,autobus,A1,1964135_west,,
Potsdamerstr. Ecke Clayallee,autobus,A1,1964136_west,,
Rathaus Zehlendorf,autobus,A1,1964137_west,,
Beeskowdamm Ecke Goerzallee,autobus,A1,1964138_west,,
Wismarerstr. Ecke Lindenstr.,autobus,A1,1964139_west,,
Lindenstr. Ecke Müllerstr.,autobus,A1,1964140_west,,
Bhf. Zoo,autobus,A2,1964141_west,,
Spichernstr. Ecke Joachimstalerstr.,autobus,A2,1964142_west,,
Berlinerstr. Ecke Bundesallee,autobus,A2,1964143_west,,
Bundesplatz,autobus,A2,1964144_west,,
Friedrich-Wilhelm-Platz,autobus,A2,1964145_west,,
Schloßstr. Ecke Feuerbachstr.,autobus,A2,1964146_west,,
Bergstr. Ecke Bismarckstr.,autobus,A2,1964147_west,,
Feuerbachstr. Ecke Bismarckstr.,autobus,A2,1964148_west,,
Steglitzerdamm Ecke Halskestr.,autobus,A2,1964149_west,,
Leonorenstr. Ecke Albrechstr.,autobus,A2,1964150_west,,
"Lankwitz, Kirche",autobus,A2,1964151_west,,
Havensteinstr. Ecke Gallwitzstr.,autobus,A2,1964152_west,,
Lerbacherweg Ecke Tautenbergstr.,autobus,A2,1964153_west,,
Trippsteinstr.,autobus,A2,1964154_west,,
Rathaus Zehlendorf,autobus,A3,1964155_west,,
Winifriedstr. Ecke Clayallee,autobus,A3,1964156_west,,
U-Bhf. Oskar-Helene-Heim,autobus,A3,1964157_west,,
U-Bhf. Onkel-Toms-Hütte,autobus,A3,1964158_west,,
U-Bhf. Krumme Lanke,autobus,A3,1964159_west,,
Bhf. Lindenthalerallee,autobus,A3,1964160_west,,
Benschallee Ecke Potsdamerchaussee,autobus,A3,1964161_west,,
Schopenhauer-Strasse Ecke Spanischeallee,autobus,A3,1964162_west,,
Borussenstr. Ecke Kronprizessinnenweg,autobus,A3,1964163_west,,
Am Beelitzhof,autobus,A3,1964164_west,,
Bhf. Wannsee,autobus,A3,1964165_west,,
Am Großen Wannsee Ecke Königstr.,autobus,A3,1964166_west,,
Pfaueninsel-Chaussee Ecke Königstr.,autobus,A3,1964167_west,,
Rathaus Wannsee,autobus,A3,1964168_west,,
"Stölpchensee, Wilhelmplatz",autobus,A3,1964169_west,,
"Haselhorst, Kirche",autobus,A10,1964170_west,,
Paulsternstr.,autobus,A10,1964171_west,,
Verwaltungs-Gebäude,autobus,A10,1964172_west,,
Spandauerdamm,autobus,A10,1964173_west,,
U-Bhf. Kaiserdamm,autobus,A10,1964174_west,,
Amtsgericht,autobus,A10,1964175_west,,
Kurfürstendamm Ecke Joachimsthalerstr.,autobus,A10,1964176_west,,
Henriettenplatz,autobus,A10,1964177_west,,
Elsterplatz,autobus,A10,1964178_west,,
Hundekehlestr.,autobus,A10,1964179_west,,
Königin-Luise-Str.,autobus,A10,1964180_west,,
U-Bhf. Thielplatz,autobus,A10,1964181_west,,
Dahlemerweg,autobus,A10,1964182_west,,
Teltowerdamm,autobus,A10,1964183_west,,
Behring-Krankenhaus,autobus,A10,1964184_west,,
Lupsteinerweg,autobus,A10,1964185_west,,
Saargemünderstr.,autobus,A11,1964186_west,,
U-Bhf. Oskar-Helene-Heim,autobus,A11,1964187_west,,
Ihnestr.,autobus,A11,1964188_west,,
Corrensplatz,autobus,A11,1964189_west,,
Unter Den Eichen Ecke Habelschwerdter-Allee,autobus,A11,1964190_west,,
Bhf. Lichterfelde-West,autobus,A11,1964191_west,,
Ringstr.,autobus,A11,1964192_west,,
Wiesenbaude,autobus,A11,1964193_west,,
Ostpreußendamm Ecke Wilhelmstr.,autobus,A11,1964194_west,,
Marienstr.,autobus,A11,1964195_west,,
Morgensternstr. Ecke Wilhelmstr.,autobus,A11,1964196_west,,
Kranoldplatz,autobus,A11,1964197_west,,
Langestr.,autobus,A11,1964198_west,,
Hildburghauserstr.,autobus,A11,1964199_west,,
Stadtilmerweg,autobus,A11,1964200_west,,
"Marienfelde, Alt-Marienfelde",autobus,A11,1964201_west,,
Gartenstr. Ecke Bernauerstr.,autobus,A12,1964202_west,,
Grenzstr.,autobus,A12,1964203_west,,
U-Bhf. Leopold-Platz,autobus,A12,1964204_west,,
U-Bhf. Seestr.,autobus,A12,1964205_west,,
Bristolstr.,autobus,A12,1964206_west,,
Emmentalerstr.,autobus,A12,1964207_west,,
Lindauerstr.,autobus,A12,1964208_west,,
Tessenowstr. Ecke Oranienburgerstr.,autobus,A12,1964209_west,,
Eichborndamm Ecke Alt-Wittenau,autobus,A12,1964210_west,,
Cyclopstr.,autobus,A12,1964211_west,,
Zabel-Krüger-Damm,autobus,A12,1964212_west,,
Almutstr. Ecke Berlinerstr.,autobus,A12,1964213_west,,
Hermsdorferdamm Ecke Berlinerstr.,autobus,A12,1964214_west,,
Zeltingerplatz,autobus,A12,1964215_west,,
Donnersmarckplatz,autobus,A12,1964216_west,,
Hainbuchenstr. Ecke Kastanienallee,autobus,A12,1964217_west,,
Leopoldplatz,autobus,A12S,1964218_west,,
U-Bhf. Seestr.,autobus,A12S,1964219_west,,
Barfusstr.,autobus,A12S,1964220_west,,
Emmentalerstr.,autobus,A12S,1964221_west,,
Lindauerstr.,autobus,A12S,1964222_west,,
Oranienburgerstr.,autobus,A12S,1964223_west,,
Rathaus Reinickendorf,autobus,A12S,1964224_west,,
Cyclopstr.,autobus,A12S,1964225_west,,
Zabel-Krüger-Damm,autobus,A12S,1964226_west,,
Schildowerstr.,autobus,A12S,1964227_west,,
Hermsdorferdamm Ecke Berlinerstr.,autobus,A12S,1964228_west,,
Oswinsteig,autobus,A12S,1964229_west,,
Hohefeldstr.,autobus,A12S,1964230_west,,
Im Fischgrund,autobus,A12S,1964231_west,,
Zeltingerplatz,autobus,A12S,1964232_west,,
Alt-Heiligensee,autobus,A13,1964233_west,,
Am Dachsbau,autobus,A13,1964234_west,,
Gabelung,autobus,A13,1964235_west,,
Ruppinerchaussee,autobus,A13,1964236_west,,
U-Bhf. Tegel,autobus,A13,1964237_west,,
Bernauerstr.,autobus,A13,1964238_west,,
Krankenhaus Tegel-Süd,autobus,A13,1964239_west,,
Strasse Nach Saatwinkel,autobus,A13,1964240_west,,
Paulsternstr.,autobus,A13,1964241_west,,
Daumstr.,autobus,A13,1964242_west,,
Carl-Schurz-Str. Ecke Neuendorferstr.,autobus,A13,1964243_west,,
Rathaus Spandau,autobus,A13,1964244_west,,
Seebugerstr. Ecke Pichelsdorferstr.,autobus,A13,1964245_west,,
Päwesinerweg,autobus,A13,1964246_west,,
Heerstr. Ecke Wilhelmstr.,autobus,A13,1964247_west,,
Weinmeisterhornweg,autobus,A13,1964248_west,,
Alt-Heiligensee,autobus,A14,1964249_west,,
Mattenbuder Pfadchaussee Ecke Hennigsdorferstr.,autobus,A14,1964250_west,,
Ruppinerchaussee Ecke Hennigsdorferstr.,autobus,A14,1964251_west,,
Ruppinerchaussee & Schulzendorferstr.,autobus,A14,1964252_west,,
Heiligenseestr. Ecke Ruppinerchaussee,autobus,A14,1964253_west,,
U-Bhf. Tegel,autobus,A14,1964254_west,,
Ziekowstr. Ecke Gorkistr.,autobus,A14,1964255_west,,
Alt-Wittenau Ecke Eichborndamm,autobus,A14,1964256_west,,
Tessenowstr. Ecke Roedernallee,autobus,A14,1964257_west,,
Aroserallee,autobus,A14,1964258_west,,
Kopenhagenerstr.,autobus,A14,1964259_west,,
Pankowerallee,autobus,A14,1964260_west,,
Pankstr.,autobus,A14,1964261_west,,
U-Bhf. Gesundbrunnen,autobus,A14,1964262_west,,
Rügenerstr.,autobus,A14,1964263_west,,
Lübarserstr. Ecke Eichhorsterweg,autobus,A15,1964264_west,,
Cyclopstr. Ecke Oranienburgerstr.,autobus,A15,1964265_west,,
Alt-Wittenau Ecke Eichborndamm,autobus,A15,1964266_west,,
Breitenbachstr. Ecke Eichborndamm,autobus,A15,1964267_west,,
Holzhauserstr.,autobus,A15,1964268_west,,
Borsigwalderweg,autobus,A15,1964269_west,,
Gorkistr.,autobus,A15,1964270_west,,
U-Bhf. Tegel,autobus,A15,1964271_west,,
Hermsdorferdamm Ecke Karolinenstr.,autobus,A15,1964272_west,,
Schulzendorferstr.,autobus,A15,1964273_west,,
Bhf. Hermsdorf,autobus,A15,1964274_west,,
Dominikus-Krankenhaus,autobus,A15,1964275_west,,
Donnersmarckplatz,autobus,A15,1964276_west,,
Zeltingerplatz,autobus,A15,1964277_west,,
Am Pilz,autobus,A15,1964278_west,,
"Frohnau, Invalidensiedlung",autobus,A15,1964279_west,,
Osloerstr.,autobus,A16,1964280_west,,
Louise-Schroeder-Platz,autobus,A16,1964281_west,,
U-Bhf. Seestr.,autobus,A16,1964282_west,,
Virchow-Krankenhaus,autobus,A16,1964283_west,,
Fennstr. Ecke Tegelerstr.,autobus,A16,1964284_west,,
Wilsnackerstr. Ecke Turmstr.,autobus,A16,1964285_west,,
Hansaplatz,autobus,A16,1964286_west,,
Großer Stern,autobus,A16,1964287_west,,
Lützowplatz,autobus,A16,1964288_west,,
Nollendorfplatz,autobus,A16,1964289_west,,
Rathaus Schöneberg,autobus,A16,1964290_west,,
Innsbruckerplatz,autobus,A16,1964291_west,,
Bundesplatz,autobus,A16,1964292_west,,
Wiesbadenerstr.,autobus,A16,1964293_west,,
Breitenbachplatz,autobus,A16,1964294_west,,
Englerallee,autobus,A16,1964295_west,,
"Grunewald, Fontanestr.",autobus,A17,1964296_west,,
Hagenplatz,autobus,A17,1964297_west,,
Roseneck,autobus,A17,1964298_west,,
Warnemünderstr.,autobus,A17,1964299_west,,
U-Bhf. Rüdesheimerplatz,autobus,A17,1964300_west,,
Friedrich-Wilhelm-Platz,autobus,A17,1964301_west,,
Bundesallee Ecke Rheinstr.,autobus,A17,1964302_west,,
Rathaus Steglitz,autobus,A17,1964303_west,,
Stadtpark,autobus,A17,1964304_west,,
Leonorenstr.,autobus,A17,1964305_west,,
Stadion Lichterfelde,autobus,A17,1964306_west,,
Ostpreußendamm Ecke Wilhelmstr.,autobus,A17,1964307_west,,
Morgensternstr. Ecke Wilhelmstr.,autobus,A17,1964308_west,,
Oberhoferplatz,autobus,A17,1964309_west,,
Saaleckplatz,autobus,A17,1964310_west,,
Saargemünderstr.,autobus,A18,1964311_west,,
U-Bhf. Oskar-Helene-Heim,autobus,A18,1964312_west,,
Sophie-Charlotten-Str.,autobus,A18,1964313_west,,
Scharfestr.,autobus,A18,1964314_west,,
Potsdamerstr. Ecke Berlinerstr.,autobus,A18,1964315_west,,
Mittelstr.,autobus,A18,1964316_west,,
Wolzogenstr.,autobus,A18,1964317_west,,
Benschallee,autobus,A18,1964318_west,,
Waldfriedhof,autobus,A18,1964319_west,,
Quantzstr.,autobus,A18,1964320_west,,
Kronprinzessinenweg,autobus,A18,1964321_west,,
Am Grossen Wannsee,autobus,A18,1964322_west,,
Pfaueninsel-Chaussee,autobus,A18,1964323_west,,
Rathaus Wannsee,autobus,A18,1964324_west,,
Stölpchensee,autobus,A18,1964325_west,,
Kohlhasenbrück,autobus,A18,1964326_west,,
Roseneck,autobus,A19,1964327_west,,
Hagenplatz,autobus,A19,1964328_west,,
Erdenerstr.,autobus,A19,1964329_west,,
Henriettenplatz,autobus,A19,1964330_west,,
Wilmersdorferstr.,autobus,A19,1964331_west,,
Olivaerplatz,autobus,A19,1964332_west,,
Joachimstalerstr. Ecke Kurfürstendamm,autobus,A19,1964333_west,,
Breitscheidplatz,autobus,A19,1964334_west,,
Wittenbergplatz,autobus,A19,1964335_west,,
Nollendorfplatz,autobus,A19,1964336_west,,
Bülowstr. Ecke Potsdamerstr.,autobus,A19,1964337_west,,
Bautzenerstr. Ecke Yorckstr.,autobus,A19,1964338_west,,
Katzbachstr.,autobus,A19,1964339_west,,
Mehringdamm,autobus,A19,1964340_west,,
Flughafen,autobus,A19,1964341_west,,
Tegelort,autobus,A20,1964342_west,,
Gerlindeweg Ecke Friederikestr.,autobus,A20,1964343_west,,
Falkenplatz,autobus,A20,1964344_west,,
Mühlenstr.,autobus,A20,1964345_west,,
Heiligenseestr.,autobus,A20,1964346_west,,
Karolinenstr.,autobus,A20,1964347_west,,
U-Bhf. Tegel,autobus,A20,1964348_west,,
Hatzfeldtallee,autobus,A20,1964349_west,,
Martin-Luther-Friedhof,autobus,A20,1964350_west,,
Freie Scholle,autobus,A20,1964351_west,,
Waldhornstr.,autobus,A20,1964352_west,,
Cyclopstr. Ecke Waidmannslusterdamm,autobus,A20,1964353_west,,
Oraniendamm Ecke Zabel-Krüger-Damm,autobus,A20,1964354_west,,
Am Vierrutenberg Ecke Zabel-Krüger-Damm,autobus,A20,1964355_west,,
"Lübars, Dorfaue",autobus,A20,1964356_west,,
Wentowsteig,autobus,A21,1964357_west,,
Oranienburgerstr. Ecke Wilhelmsruherdamm,autobus,A21,1964358_west,,
Alt-Wittenau Ecke Eichborndamm,autobus,A21,1964359_west,,
Kienhorststr.,autobus,A21,1964360_west,,
Scharnweberstr.,autobus,A21,1964361_west,,
Kurt-Schumacher-Platz,autobus,A21,1964362_west,,
Kaserne Südtor,autobus,A21,1964363_west,,
Heckerdamm,autobus,A21,1964364_west,,
Olbersstr.,autobus,A21,1964365_west,,
Luisenplatz,autobus,A21,1964366_west,,
Kantstr.,autobus,A21,1964367_west,,
Stuttgarterplatz,autobus,A21,1964368_west,,
Amtsgericht Charlottenburg,autobus,A21,1964369_west,,
Kurfürstendamm Ecke Joachimsthalerstr.,autobus,A21,1964370_west,,
Bhf. Hohenzollerndamm,autobus,A21,1964371_west,,
U-Bhf. Fehrbellinerplatz,autobus,A21,1964372_west,,
Wiebestr.,autobus,A24,1964373_west,,
Gotzkowskystr.,autobus,A24,1964374_west,,
Stromstr.,autobus,A24,1964375_west,,
Rathenowerstr.,autobus,A24,1964376_west,,
Alt-Moabit,autobus,A24,1964377_west,,
John-Foster-Dulles-Allee,autobus,A24,1964378_west,,
Tiergartenstr.,autobus,A24,1964379_west,,
Lützowplatz,autobus,A24,1964380_west,,
Potsdamerstr. Ecke Schöneberger Ufer,autobus,A24,1964381_west,,
Hafenplatz,autobus,A24,1964382_west,,
Askanischerplatz,autobus,A24,1964383_west,,
U-Bhf. Hallesches Tor,autobus,A24,1964384_west,,
Alexandrinenstr. Ecke Neuenburgerstr.,autobus,A24,1964385_west,,
Gneisenaustr. Ecke Zossenerstr.,autobus,A24,1964386_west,,
Columbiadamm Ecke Friesenstr.,autobus,A24,1964387_west,,
Flughafen,autobus,A24,1964388_west,,
Unionplatz,autobus,A25,1964389_west,,
Gotzkowskybrücke,autobus,A25,1964390_west,,
Hansaplatz,autobus,A25,1964391_west,,
U-Bhf. Ernst-Reuter-Platz,autobus,A25,1964392_west,,
Bhf. Zoo,autobus,A25,1964393_west,,
Pariserstr. Ecke Joachimstalerstr.,autobus,A25,1964394_west,,
Berlinerstr. Ecke Bundesallee,autobus,A25,1964395_west,,
Bundesplatz,autobus,A25,1964396_west,,
Kaisereiche,autobus,A25,1964397_west,,
Grazerplatz,autobus,A25,1964398_west,,
Attilaplatz,autobus,A25,1964399_west,,
Tempelhoferdamm Ecke Ordensmeisterstr.,autobus,A25,1964400_west,,
Gottlieb-Dunkel-Str. Ecke Germaniastr.,autobus,A25,1964401_west,,
Britzerdamm Ecke Tempelhoferweg,autobus,A25,1964402_west,,
U-Bhf. Parchimerallee,autobus,A25,1964403_west,,
Grünerweg Ecke Buschkrugallee,autobus,A25,1964404_west,,
Loewenhardtdamm,autobus,A28,1964405_west,,
Dudenstr.,autobus,A28,1964406_west,,
Kreuzbergstr.,autobus,A28,1964407_west,,
Yorckstr.,autobus,A28,1964408_west,,
Mehringdamm,autobus,A28,1964409_west,,
Zossenerstr.,autobus,A28,1964410_west,,
Südstern,autobus,A28,1964411_west,,
Urban-Krankenhaus,autobus,A28,1964412_west,,
U-Bhf. Prinzenstr.,autobus,A28,1964413_west,,
U-Bhf Kottbusser Tor,autobus,A28,1964414_west,,
Oranienstr.,autobus,A28,1964415_west,,
Waldemarstr.,autobus,A28,1964416_west,,
Mariannenplatz,autobus,A28,1964417_west,,
Manteuffelstr. Ecke Köpenickerstr.,autobus,A28,1964418_west,,
U-Bhf. Schlesisches Tor,autobus,A28,1964419_west,,
Heckmannufer,autobus,A28,1964420_west,,
Roseneck,autobus,A29,1964421_west,,
Berkaerstr.,autobus,A29,1964422_west,,
Bismarckplatz,autobus,A29,1964423_west,,
Henriettenplatz,autobus,A29,1964424_west,,
Joachim-Friedrich-Str.,autobus,A29,1964425_west,,
Wilmersdorferstr.,autobus,A29,1964426_west,,
Olivaerplatz,autobus,A29,1964427_west,,
Uhlandstr.,autobus,A29,1964428_west,,
Joachimstalerstr.,autobus,A29,1964429_west,,
Breitscheidplatz,autobus,A29,1964430_west,,
Wittenbergplatz,autobus,A29,1964431_west,,
Lutherstr.,autobus,A29,1964432_west,,
Lützowstr.,autobus,A29,1964433_west,,
Lützowstr. Ecke Potsdamerstr.,autobus,A29,1964434_west,,
Askanischerplatz,autobus,A29,1964435_west,,
U-Bhf. Kochstr.,autobus,A29,1964436_west,,
Oranienplatz,autobus,A29,1964437_west,,
Machandelweg,autobus,A31,1964438_west,,
U-Bhf. Ruhleben,autobus,A31,1964439_west,,
Friedhof Ruhleben,autobus,A31,1964440_west,,
Kinderheim Ruhleben,autobus,A31,1964441_west,,
Teltowerstr.,autobus,A31,1964442_west,,
Grenadierstr.,autobus,A31,1964443_west,,
Stresowplatz,autobus,A31,1964444_west,,
Breitestr. Ecke Charlottenstr.,autobus,A31,1964445_west,,
Rathaus Spandau,autobus,A31,1964446_west,,
Nauenerstr.,autobus,A31,1964447_west,,
Egelpfuhlstr.,autobus,A31,1964448_west,,
Magistratsweg,autobus,A31,1964449_west,,
Spandauerstr.,autobus,A31,1964450_west,,
Hackbuschstr.,autobus,A31,1964451_west,,
Heidebergplan,autobus,A31,1964452_west,,
Breitenbachplatz,autobus,A32,1964453_west,,
Gritznerstr.,autobus,A32,1964454_west,,
Schlossstr. Ecke Albrechtstr.,autobus,A32,1964455_west,,
Rathaus Steglitz,autobus,A32,1964456_west,,
Kuhligkshofstr. Ecke Albrechtstr.,autobus,A32,1964457_west,,
Sedanstr.,autobus,A32,1964458_west,,
Stindestr.,autobus,A32,1964459_west,,
Leonorenstr.,autobus,A32,1964460_west,,
"Lankwitz, Kirche",autobus,A32,1964461_west,,
Malteserstr. Ecke Belßstr.,autobus,A32,1964462_west,,
Marchandstr.,autobus,A32,1964463_west,,
Marienfelderallee,autobus,A32,1964464_west,,
Stegerwaldstr.,autobus,A32,1964465_west,,
Bhf. Marienfelde,autobus,A32,1964466_west,,
Berlinickestr. Ecke Albrechtstr.,autobus,A33,1964467_west,,
Klingsorstr.,autobus,A33,1964468_west,,
Sedanstr.,autobus,A33,1964469_west,,
Bismarckstr. Ecke Steglitzerdamm,autobus,A33,1964470_west,,
Halskestr. Ecke Attilastr. Ecke Steglitzerdamm,autobus,A33,1964471_west,,
Kaiserstr./Ringstr.,autobus,A33,1964472_west,,
Rathaus Mariendorf,autobus,A33,1964473_west,,
"Mariendorf, Kaiserstr.",autobus,A33,1964474_west,,
"Spandau, Friedhof",autobus,A34,1964475_west,,
Askanierring Ecke Falkenhagenerstr.,autobus,A34,1964476_west,,
Hafenplatz,autobus,A34,1964477_west,,
Rathaus Spandau,autobus,A34,1964478_west,,
Wilhelmstr. Ecke Pichelsdorferstr.,autobus,A34,1964479_west,,
Adamstr.,autobus,A34,1964480_west,,
Heerstr. Ecke Gatowerstr.,autobus,A34,1964481_west,,
Gatowerstr.,autobus,A34,1964482_west,,
Weinmeisterhornweg,autobus,A34,1964483_west,,
Ortsgrenze Gatow,autobus,A34,1964484_west,,
"Gatow, Kirche",autobus,A34,1964485_west,,
Großglienickerweg,autobus,A34,1964486_west,,
Krankenhaus Hohengatow,autobus,A34,1964487_west,,
Krankenhaus Havelhöhe,autobus,A34,1964488_west,,
Alt-Kladow,autobus,A34,1964489_west,,
Schwiezerhaus,autobus,A34,1964490_west,,
Gutshof,autobus,A34,1964491_west,,
"Spandau, Friedhof",autobus,A35,1964492_west,,
Askanierring Ecke Falkenseerchaussee,autobus,A35,1964493_west,,
Rathaus Spandau,autobus,A35,1964494_west,,
Wilhelmstr. Ecke Pichelsdorferstr.,autobus,A35,1964495_west,,
Adamstr.,autobus,A35,1964496_west,,
Heerstr. Ecke Gatowerstr.,autobus,A35,1964497_west,,
Gatowerstr.,autobus,A35,1964498_west,,
Weinmeisterhornweg,autobus,A35,1964499_west,,
Ortsgrenze Gatow,autobus,A35,1964500_west,,
"Gatow, Kirche",autobus,A35,1964501_west,,
Großglienickerweg,autobus,A35,1964502_west,,
Krankenhaus Hohengatow,autobus,A35,1964503_west,,
Krankenhaus Havelhöhe,autobus,A35,1964504_west,,
Alt-Kladow,autobus,A35,1964505_west,,
Krampnitzerweg,autobus,A35,1964506_west,,
Hottengrund,autobus,A35,1964507_west,,
Altenheim Hottengrund,autobus,A35E,1964508_west,,
Pottensteinerweg Ecke Selbitzerstr.,autobus,A35E,1964509_west,,
Selbitzerstr. Ecke Krampnitzerweg,autobus,A35E,1964510_west,,
Sakrowerstr. Ecke Landstr.,autobus,A35E,1964511_west,,
Alt-Kladow Ecke Kladowerdamm,autobus,A35E,1964512_west,,
Brixplatz,autobus,A4,1964513_west,,
Theodor-Heuss-Platz,autobus,A4,1964514_west,,
Messedamm,autobus,A4,1964515_west,,
Henriettenplatz,autobus,A4,1964516_west,,
Hochmeisterplatz,autobus,A4,1964517_west,,
U-Bhf. Fehrbellinerplatz,autobus,A4,1964518_west,,
Bundesallee Ecke Badenischestr.,autobus,A4,1964519_west,,
Rathaus Schöneberg,autobus,A4,1964520_west,,
Innsbruckerplatz,autobus,A4,1964521_west,,
Kaiser-Wilhelm-Platz,autobus,A4,1964522_west,,
U-Bhf. Flughafen,autobus,A4,1964523_west,,
Columbiadamm,autobus,A4,1964524_west,,
Kienitzerstr.,autobus,A4,1964525_west,,
Sonnenallee Ecke Erkstr.,autobus,A4,1964526_west,,
Harzerstr.,autobus,A4,1964527_west,,
Potsdamerstr. Ecke Fischerhüttenstr.,autobus,A48,1964528_west,,
Teltowerdamm,autobus,A48,1964529_west,,
Sundgauerstr.,autobus,A48,1964530_west,,
Dahlemerweg,autobus,A48,1964531_west,,
Drakestr.,autobus,A48,1964532_west,,
Hindenburgdamm,autobus,A48,1964533_west,,
Rathaus Steglitz,autobus,A48,1964534_west,,
Bundesallee Ecke Rheinstr.,autobus,A48,1964535_west,,
Kaisereiche,autobus,A48,1964536_west,,
Innsbruckerplatz,autobus,A48,1964537_west,,
Kaiser-Wilhelm-Platz,autobus,A48,1964538_west,,
Goebenstr./Pallasstr.,autobus,A48,1964539_west,,
U-Bhf. Bülowstr.,autobus,A48,1964540_west,,
Lützowstr.,autobus,A48,1964541_west,,
"Philharmonie, Tiergartenstr.",autobus,A48,1964542_west,,
Machandelweg,autobus,A5,1964543_west,,
U-Bhf. Ruhleben,autobus,A5,1964544_west,,
Friedhof Ruhleben,autobus,A5,1964545_west,,
Teltowerstr. Ecke Charlottenburgerchaussee,autobus,A5,1964546_west,,
Stresowplatz,autobus,A5,1964547_west,,
Breitestr. Ecke Charlottenstr.,autobus,A5,1964548_west,,
Rathaus Spandau,autobus,A5,1964549_west,,
Falkenseerchaussee,autobus,A5,1964550_west,,
Viersenerstr.,autobus,A5,1964551_west,,
Wolburgsweg,autobus,A5,1964552_west,,
Stadtrandstr.,autobus,A5,1964553_west,,
Waldkrankenhaus,autobus,A5,1964554_west,,
Nervenklinik,autobus,A5,1964555_west,,
Roseneck,autobus,A50,1964556_west,,
Elsterplatz,autobus,A50,1964557_west,,
Forckenbeckstr.,autobus,A50,1964558_west,,
Flinsbergerplatz,autobus,A50,1964559_west,,
Seesenerstr. Ecke Hohenzollerndamm,autobus,A50,1964560_west,,
U-Bhf. Fehrbellinerplatz,autobus,A50,1964561_west,,
Emserplatz,autobus,A50,1964562_west,,
Uhlandstr. Ecke Güntzelstr.,autobus,A50,1964563_west,,
Bundesallee Ecke Tratenaustr.,autobus,A50,1964564_west,,
Pragerplatz,autobus,A50,1964565_west,,
Bhf. Wannsee,autobus,A51,1964566_west,,
Königstr./Kronprinzessinnenweg,autobus,A51,1964567_west,,
Am Grossen Wannsee,autobus,A51,1964568_west,,
Koblanckstr.,autobus,A51,1964569_west,,
Colomierstr.,autobus,A51,1964570_west,,
Krankenhaus Wannsee,autobus,A51,1964571_west,,
Zum Heckeshorn,autobus,A51,1964572_west,,
Krankenhaus Heckeshorn,autobus,A51,1964573_west,,
"Marienfelde, Stadtrandsiedlung",autobus,A52,1964574_west,,
Alt-Marienfelde,autobus,A52,1964575_west,,
Kettingerstr. Ecke Alt-Marienfelde,autobus,A52,1964576_west,,
Lichtenraderdamm Ecke Marienfelderchaussee,autobus,A52,1964577_west,,
Bühlerweg,autobus,A52,1964578_west,,
Buckower Friedhof,autobus,A52,1964579_west,,
Buckowerdamm,autobus,A52,1964580_west,,
Grünerweg,autobus,A52,1964581_west,,
Triftweg,autobus,A52,1964582_west,,
Rudowerstr.,autobus,A52,1964583_west,,
Efeuweg,autobus,A52,1964584_west,,
Wildmeisterdamm,autobus,A52,1964585_west,,
Köpenickerstr.,autobus,A52,1964586_west,,
Friedhof Rudow,autobus,A52,1964587_west,,
Kanalstr.,autobus,A52,1964588_west,,
Mimosenweg,autobus,A52,1964589_west,,
Stubenrauchstr. Ecke Kanalstr.,autobus,A52,1964590_west,,
Dreilindenstr.,autobus,A53,1964591_west,,
"Zehlendorf, Hohenzollernplatz",autobus,A53,1964592_west,,
Krottnaurerstr. Ecke Alemannenstr.,autobus,A53,1964593_west,,
Waldemarplatz,autobus,A53,1964594_west,,
Argentinischeallee Ecke Fischerhüttenstr.,autobus,A53,1964595_west,,
U-Bhf. Krumme Lanke,autobus,A53,1964596_west,,
Hartmannsweilerweg,autobus,A53,1964597_west,,
Potsdamerstr. Ecke Fischerhüttenstr.,autobus,A53,1964598_west,,
Teltowerdamm,autobus,A53,1964599_west,,
Rathaus Zehlendorf,autobus,A53,1964600_west,,
Knesebeckstr.,autobus,A53,1964601_west,,
Jänickestr.,autobus,A53,1964602_west,,
Dahlemerweg,autobus,A53,1964603_west,,
Osteweg,autobus,A53,1964604_west,,
4. Ring,autobus,A53,1964605_west,,
Luzernerstr.,autobus,A53,1964606_west,,
Thunerplatz,autobus,A53,1964607_west,,
Wiesenbaude,autobus,A53,1964608_west,,
Ostpreußendamm Ecke Wilhelmstr.,autobus,A53,1964609_west,,
Jungfernstieg,autobus,A53,1964610_west,,
Bhf. Wannsee,autobus,A6,1964611_west,,
Königstr.,autobus,A6,1964612_west,,
Pfaueninsel-Chaussee,autobus,A6,1964613_west,,
Rathaus Wannsee,autobus,A6,1964614_west,,
Friedenstr.,autobus,A6,1964615_west,,
Schäferberg,autobus,A6,1964616_west,,
Nikolskoerweg,autobus,A6,1964617_west,,
Glienicker Brücke,autobus,A6,1964618_west,,
"Roseneck, Hundekehl",autobus,A60,1964619_west,,
Warnemünder/Berkaerstr.,autobus,A60,1964620_west,,
Zappoter/Oeynhauserstr.,autobus,A60,1964621_west,,
"Hamburgerstr., Rudolf-Mosse-Platz",autobus,A60,1964622_west,,
U-Bhf. Heidelbergerplatz,autobus,A60,1964623_west,,
Brabanterplatz,autobus,A60,1964624_west,,
Am Volkspark,autobus,A60,1964625_west,,
Berlinerstr. Ecke Brandenburgischestr.,autobus,A60,1964626_west,,
Postamt,autobus,A60,1964627_west,,
Güntzelstr.,autobus,A60,1964628_west,,
Ludwigkirchstr./Pariserstr.,autobus,A60,1964629_west,,
Kurfürstendamm Ecke Uhlandstr.,autobus,A60,1964630_west,,
Kurfürstendamm Ecke Joachimstalerstr.,autobus,A60,1964631_west,,
Breitscheidplatz,autobus,A60,1964632_west,,
Wittenbergplatz,autobus,A60,1964633_west,,
Zobeltitzstr.,autobus,A61,1964634_west,,
"U-Bhf. Scharnweberstr., Sportplatz",autobus,A61,1964635_west,,
Schillingstr.,autobus,A61,1964636_west,,
U-Bhf. Kurt-Schumacher-Platz,autobus,A61,1964637_west,,
Humboldtstr.,autobus,A61,1964638_west,,
Sebastianfriedhof,autobus,A61,1964639_west,,
Teichstr.,autobus,A61,1964640_west,,
Aroserallee,autobus,A61,1964641_west,,
Pankowerallee Ecke Residenzstr.,autobus,A61,1964642_west,,
Osloerstr. Ecke Schwedenstr.,autobus,A61,1964643_west,,
Exerzierstr. Ecke Badstr.,autobus,A61,1964644_west,,
Pankstr. Ecke Badstr.,autobus,A61,1964645_west,,
Bhf. Gesundbrunnen,autobus,A61,1964646_west,,
Usedomerstr. Ecke Brunnenstr.,autobus,A61,1964647_west,,
Bernauerstr. Ecke Brunnenstr.,autobus,A61,1964648_west,,
"Gartenplatz, Feldstr.",autobus,A61,1964649_west,,
Wittenau,autobus,A62,1964650_west,,
Alt-Wittenau,autobus,A62,1964651_west,,
Bonhoeffer-Heim,autobus,A62,1964652_west,,
Auguste-Viktoria-Allee,autobus,A62,1964653_west,,
U-Bhf. Kurt-Schumacher-Platz,autobus,A62,1964654_west,,
Saatwinklerdamm,autobus,A62,1964655_west,,
Heckerdamm,autobus,A62,1964656_west,,
Bhf. Jungfernheide,autobus,A62,1964657_west,,
Luisenplatz,autobus,A62,1964658_west,,
Richard-Wagner-Platz,autobus,A62,1964659_west,,
Leibnizstr. Ecke Otto-Suhr-Allee,autobus,A62,1964660_west,,
U-Bhf. Ernst-Reuter-Platz,autobus,A62,1964661_west,,
Bhf. Zoo,autobus,A62,1964662_west,,
Marburgerstr.,autobus,A62,1964663_west,,
Wittenbergplatz,autobus,A62,1964664_west,,
Radelandstr. Ecke Niederheideweg,autobus,A63,1964665_west,,
Bötzowbahn,autobus,A63,1964666_west,,
Kisselnallee Ecke Pionierstr.,autobus,A63,1964667_west,,
Zweibrückerstr.,autobus,A63,1964668_west,,
Askanierring Ecke Falkenseerchaussee,autobus,A63,1964669_west,,
Bezirksamt,autobus,A63,1964670_west,,
Rathaus Spandau,autobus,A63,1964671_west,,
Bhf. Spandau-West,autobus,A63,1964672_west,,
Staakenerstr.,autobus,A63,1964673_west,,
Hochgerichtstr. Ecke Seegefelderstr.,autobus,A63,1964674_west,,
Viersenerstr.,autobus,A63,1964675_west,,
Dyotzerstr.,autobus,A63,1964676_west,,
Leuthingerweg,autobus,A63,1964677_west,,
Strasse 393,autobus,A63,1964678_west,,
Seegefelderweg,autobus,A63,1964679_west,,
Bernauerstr. Ecke Wollinerstr.,autobus,A64,1964680_west,,
Demminerstr. Ecke Brunnenstr.,autobus,A64,1964681_west,,
Ramlerstr. Ecke Brunnenstr.,autobus,A64,1964682_west,,
U-Bhf. Gesundbrunnen,autobus,A64,1964683_west,,
Prinzenallee Ecke Exerzierstr.,autobus,A64,1964684_west,,
Schwedenstr. Ecke Exerzierstr.,autobus,A64,1964685_west,,
Schulstr. Ecke Exerzierstr.,autobus,A64,1964686_west,,
Reinickendorferstr. Ecke Schulstr.,autobus,A64,1964687_west,,
Leopoldplatz,autobus,A64,1964688_west,,
Antwerpenerstr. Ecke Luxemburgerstr.,autobus,A64,1964689_west,,
Virchow Krankenhaus,autobus,A64,1964690_west,,
Seestr.,autobus,A64,1964691_west,,
Otawistr.,autobus,A64,1964692_west,,
Müllerstr. Ecke Londonerstr.,autobus,A64,1964693_west,,
Höllenderstr. Ecke Septimerstr.,autobus,A64,1964694_west,,
Goebelplatz,autobus,A65,1964695_west,,
Kurt-Schumacher-Damm,autobus,A65,1964696_west,,
Jakob-Kaiser-Platz,autobus,A65,1964697_west,,
Spandauerdamm Ecke Stadtautobahn,autobus,A65,1964698_west,,
Messedamm,autobus,A65,1964699_west,,
Rathenauplatz,autobus,A65,1964700_west,,
Hohenzollerndamm Ecke Stadtautobahn,autobus,A65,1964701_west,,
Bundesplatz,autobus,A65,1964702_west,,
Innsbruckerplatz,autobus,A65,1964703_west,,
Ebersstr. Ecke Dominicusstr.,autobus,A65,1964704_west,,
Tempelhoferdamm Ecke Alt-Tempelhof,autobus,A65,1964705_west,,
Oberlandstr. Ecke Germaniastr.,autobus,A65,1964706_west,,
Hermannstr. Ecke Silbersteinstr.,autobus,A65,1964707_west,,
Karl-Marx-Str. Ecke Saalestr.,autobus,A65,1964708_west,,
Schulenburgpark,autobus,A65,1964709_west,,
"Doppel-Süd, Berlepschstr.",autobus,A66,1964710_west,,
Elsheimerstr. Ecke Berlepschstr.,autobus,A66,1964711_west,,
Andreezeile,autobus,A66,1964712_west,,
Machnowerstr. Ecke Berlepschstr.,autobus,A66,1964713_west,,
Rathaus Zehlendorf,autobus,A66,1964714_west,,
Clayallee Ecke Berlinerstr.,autobus,A66,1964715_west,,
Schützallee Ecke Onkel-Tom-Str.,autobus,A66,1964716_west,,
U-Bhf. Onkel-Toms-Hütte,autobus,A66,1964717_west,,
"Jerusalems-Kirche, Lindenstr.",autobus,A67,1964718_west,,
Moritzplatz,autobus,A67,1964719_west,,
Oranienplatz,autobus,A67,1964720_west,,
U-Bhf. Kottbusser Tor,autobus,A67,1964721_west,,
Kottbusser Brücke,autobus,A67,1964722_west,,
Hohenstaufenplatz,autobus,A67,1964723_west,,
Hermannplatz,autobus,A67,1964724_west,,
Reuterstr.,autobus,A67,1964725_west,,
Fuldastr.,autobus,A67,1964726_west,,
Erkstr.,autobus,A67,1964727_west,,
Hertzbergplatz,autobus,A67,1964728_west,,
Bhf. Sonnenallee,autobus,A67,1964729_west,,
Dammweg,autobus,A67,1964730_west,,
Neuköllnischeallee,autobus,A67,1964731_west,,
Am Oberhafen,autobus,A67,1964732_west,,
U-Bhf. Grenzallee,autobus,A67,1964733_west,,
Onkel-Herse-Str. Ecke Buschkrugallee,autobus,A67,1964734_west,,
Parchimerallee Ecke Buschkrugallee,autobus,A67,1964735_west,,
Otto-Wels-Ring,autobus,A67,1964736_west,,
Clayallee Ecke Königin-Luise-Str.,autobus,A68,1964737_west,,
Thielallee/Pacelliallee,autobus,A68,1964738_west,,
U-Bhf. Dahlem-Dorf,autobus,A68,1964739_west,,
Arnimallee,autobus,A68,1964740_west,,
Botanischer Garten,autobus,A68,1964741_west,,
Lepsiusstr.,autobus,A68,1964742_west,,
Rathaus Steglitz,autobus,A68,1964743_west,,
Breitestr. Ecke Albrechtstr.,autobus,A68,1964744_west,,
Bismarckstr. Ecke Bergstr.,autobus,A68,1964745_west,,
Munsterdamm Ecke Bergstr.,autobus,A68,1964746_west,,
Alboinstr. Ecke Prellerweg,autobus,A68,1964747_west,,
Attilaplatz,autobus,A68,1964748_west,,
Tempehoferdamm Ecke Friedrich-Karl-Str.,autobus,A68,1964749_west,,
Kaiserin-Augusta-Str. Ecke Tempelhoferdamm,autobus,A68,1964750_west,,
Alt-Tempelhof Ecke Tempelhoferdamm,autobus,A68,1964751_west,,
Bhf. Tempelhof,autobus,A68,1964752_west,,
Eichkamp,autobus,A69,1964753_west,,
Trabenerstr.,autobus,A69,1964754_west,,
Henriettenplatz,autobus,A69,1964755_west,,
Joachim-Friedrich-Str. Ecke Kurfürstendamm,autobus,A69,1964756_west,,
Wilmersdorferstr. Ecke Kurfürstendamm,autobus,A69,1964757_west,,
Leibnizstr. Ecke Kurfürstendamm,autobus,A69,1964758_west,,
Bleibtreustr. Ecke Kurfürstendamm,autobus,A69,1964759_west,,
Uhlandstr. Ecke Kurfürstendamm,autobus,A69,1964760_west,,
Joachimstalerstr. Ecke Kurfürstendamm,autobus,A69,1964761_west,,
Nürnbergerstr. Ecke Kurfürstenstr.,autobus,A69,1964762_west,,
An Der Urania,autobus,A69,1964763_west,,
Lützowplatz,autobus,A69,1964764_west,,
Tiergartenstr.,autobus,A69,1964765_west,,
Großer Stern,autobus,A69,1964766_west,,
Kongreßhalle,autobus,A69,1964767_west,,
Moltkebrücke,autobus,A69,1964768_west,,
Bhf. Wollankstr.,autobus,A70,1964769_west,,
Osloerstr.,autobus,A70,1964770_west,,
Badstr.,autobus,A70,1964771_west,,
Wiesenstr.,autobus,A70,1964772_west,,
Ravenestr. Ecke Reinickdorferstr.,autobus,A70,1964773_west,,
Weddingplatz,autobus,A70,1964774_west,,
Am Nordhafen,autobus,A70,1964775_west,,
Rathenowerstr.,autobus,A70,1964776_west,,
Turmstr./Rathenowerstr.,autobus,A70,1964777_west,,
Krankenhaus Moabit,autobus,A70,1964778_west,,
Stromstr.,autobus,A70,1964779_west,,
Rathaus Tiergarten,autobus,A70,1964780_west,,
Waldstr./Gotzkowskystr.,autobus,A70,1964781_west,,
Reuchlinstr.,autobus,A70,1964782_west,,
"Wiebestr., Strassenbahnhof",autobus,A70,1964783_west,,
Bhf. Wilhelmsruh,autobus,A71,1964784_west,,
Lindauerstr.,autobus,A71,1964785_west,,
Emmentalerstr.,autobus,A71,1964786_west,,
"Schäfersee, Pankowerallee",autobus,A71,1964787_west,,
Provinzstr./Pankowerallee,autobus,A71,1964788_west,,
Ritterlandweg,autobus,A71,1964789_west,,
Prinzenallee/Soldinerstr.,autobus,A71,1964790_west,,
Osloerstr.,autobus,A71,1964791_west,,
Badstr./Prinzenallee,autobus,A71,1964792_west,,
Bhf. Gesundbrunnen,autobus,A71,1964793_west,,
Ramlerstr.,autobus,A71,1964794_west,,
Rügenerstr.,autobus,A71,1964795_west,,
Usedomerstr.,autobus,A71,1964796_west,,
Bernauerstr. Ecke Brunnenstr.,autobus,A71,1964797_west,,
Bernauerstr. Ecke Wollinerstr.,autobus,A71,1964798_west,,
Alt-Reinickendorf Ecke Rödernallee,autobus,A72,1964799_west,,
Lindauerstr. Ecke Residenzstr.,autobus,A72,1964800_west,,
Pankowerallee Ecke Residenzstr.,autobus,A72,1964801_west,,
Luise-Schröder-Platz,autobus,A72,1964802_west,,
Nauenerplatz,autobus,A72,1964803_west,,
Weddingplatz,autobus,A72,1964804_west,,
Rathenowerstr. Ecke Perlebergerstr.,autobus,A72,1964805_west,,
Turmstr. Ecke Stromstr.,autobus,A72,1964806_west,,
Waldstr. Ecke Turmstr.,autobus,A72,1964807_west,,
Wiebestr. Ecke Kaiserin-Augusta-Allee,autobus,A72,1964808_west,,
Tauroggenerstr. Ecke Osnabrückerstr.,autobus,A72,1964809_west,,
Landgericht,autobus,A72,1964810_west,,
Jakob-Kaiser-Platz,autobus,A72,1964811_west,,
Quellweg Ecke Nonnendammallee,autobus,A72,1964812_west,,
Paulsternstr. Ecke Gartenfelderstr.,autobus,A72,1964813_west,,
Gartenfeld,autobus,A72,1964814_west,,
Bhf. Zoo,autobus,A73,1964815_west,,
Wittenbergplatz,autobus,A73,1964816_west,,
Motzstr.,autobus,A73,1964817_west,,
Grunewaldstr.,autobus,A73,1964818_west,,
Rathaus Schöneberg,autobus,A73,1964819_west,,
Hauptstr. Ecke Dominicusstr.,autobus,A73,1964820_west,,
Ebersstr. Ecke Dominicusstr.,autobus,A73,1964821_west,,
Suadicanistr. Ecke Sachsendamm,autobus,A73,1964822_west,,
Tempelhoferdamm Ecke Alt-Tempelhof,autobus,A73,1964823_west,,
Rohdestr. Ecke Germaniastr.,autobus,A73,1964824_west,,
Gottlieb-Dunkel-Str. Ecke Tempelhoferweg,autobus,A73,1964825_west,,
Britzerdamm Ecke Gradestr.,autobus,A73,1964826_west,,
Buschkrug Alle Ecke Blaschko-Allee,autobus,A73,1964827_west,,
Königin-Elisabeth-Str.,autobus,A74,1964828_west,,
Spandauerdamm,autobus,A74,1964829_west,,
Klausenerplatz,autobus,A74,1964830_west,,
Schlossstr. Ecke Seelingstr.,autobus,A74,1964831_west,,
Sophie-Charlotten-Platz,autobus,A74,1964832_west,,
Kaiser-Friedrich-Str.,autobus,A74,1964833_west,,
Stuttgarterplatz,autobus,A74,1964834_west,,
Kurfürstendamm Ecke Wilmersdorferstr.,autobus,A74,1964835_west,,
Fehrbellinerplatz,autobus,A74,1964836_west,,
Bundesallee Ecke Berlinerstr.,autobus,A74,1964837_west,,
Martin-Luther-Str.,autobus,A74,1964838_west,,
Rathaus Schöneberg,autobus,A74,1964839_west,,
Hauptstr. (schöneberg),autobus,A74,1964840_west,,
Suadicanistr. Ecke Sachsendamm,autobus,A74,1964841_west,,
Egelingzeile,autobus,A74,1964842_west,,
Eythstr.,autobus,A74,1964843_west,,
Munsterdamm Ecke Steglitzerdamm,autobus,A75,1964844_west,,
Bismarckstr. Ecke Bergstr.,autobus,A75,1964845_west,,
Lauenburgerplatz,autobus,A75,1964846_west,,
Kaisereiche,autobus,A75,1964847_west,,
Innsbruckerplatz,autobus,A75,1964848_west,,
Dominicusstr. Ecke Hauptstr.,autobus,A75,1964849_west,,
Kaiser-Wilhelm-Platz,autobus,A75,1964850_west,,
U-Bhf. Bülowstr.,autobus,A75,1964851_west,,
Am Karlsbad,autobus,A75,1964852_west,,
Askanischerplatz,autobus,A75,1964853_west,,
U-Bhf. Kochstr.,autobus,A75,1964854_west,,
Oranienstr.,autobus,A75,1964855_west,,
U-Bhf. Moritzplatz,autobus,A75,1964856_west,,
Spreewaldplatz,autobus,A75,1964857_west,,
Sonnenallee Ecke Pannierstr.,autobus,A75,1964858_west,,
Hermannplatz,autobus,A75,1964859_west,,
Blohmstr. Ecke Wünsdorferstr.,autobus,A76,1964860_west,,
Bhf. Lichtenrade,autobus,A76,1964861_west,,
Marienfelderstr. Ecke Lichtenraderdamm,autobus,A76,1964862_west,,
Potsdamerstr. Ecke Lichtenraderdamm,autobus,A76,1964863_west,,
Buckowerchaussee Ecke Lichtenraderdamm,autobus,A76,1964864_west,,
Mariendorferdamm Ecke Tauernallee,autobus,A76,1964865_west,,
Rennbahn,autobus,A76,1964866_west,,
Alt-Mariendorf Ecke Mariendorferdamm,autobus,A76,1964867_west,,
Kaiserstr. Ecke Lichtenraderdamm,autobus,A76,1964868_west,,
Burgemeisterstr. Ecke Tempelhoferdamm,autobus,A76,1964869_west,,
Alt-Tempelhof Ecke Tempelhoferdamm,autobus,A76,1964870_west,,
U-Bhf. Tempelhof,autobus,A76,1964871_west,,
Thuyring Ecke Tempelhoferdamm,autobus,A76,1964872_west,,
Bayernring Ecke Tempelhoferdamm,autobus,A76,1964873_west,,
Platz Der Luftbrücke,autobus,A76,1964874_west,,
Daimlerstr.,autobus,A77,1964875_west,,
Bhf. Marienfelde,autobus,A77,1964876_west,,
Körtingstr.,autobus,A77,1964877_west,,
Mariendorferdamm,autobus,A77,1964878_west,,
Kaiserstr. Ecke Mariendorferdamm,autobus,A77,1964879_west,,
Markgrafenstr. Ecke Mariendorferdamm,autobus,A77,1964880_west,,
Burgemeisterstr. Ecke Tempelhoferdamm,autobus,A77,1964881_west,,
Rathaus Tempelhof,autobus,A77,1964882_west,,
Alt-Tempelhof Ecke Tempelhoferdamm,autobus,A77,1964883_west,,
U-Bhf. Tempelhof,autobus,A77,1964884_west,,
Thuyring Ecke Tempelhoferdamm,autobus,A77,1964885_west,,
Paradestr. Ecke Tempelhoferdamm,autobus,A77,1964886_west,,
Bayernring Ecke Tempelhoferdamm,autobus,A77,1964887_west,,
Platz Der Luftbrücke,autobus,A77,1964888_west,,
Tropfsteinweg Ecke Quarz-Weg,autobus,A78,1964889_west,,
Tauernallee Ecke Grünsteinweg,autobus,A78,1964890_west,,
Mariendorferdamm Ecke Tauernallee,autobus,A78,1964891_west,,
Rennbahn,autobus,A78,1964892_west,,
Alt-Mariendorf Ecke Mariendorferdamm,autobus,A78,1964893_west,,
Kaiserstr. Ecke Mariendorferdamm,autobus,A78,1964894_west,,
Burgemeisterstr. Ecke Tempelhoferdamm,autobus,A78,1964895_west,,
Alt-Tempelhof Ecke Tempelhoferdamm,autobus,A78,1964896_west,,
U-Bhf. Tempelhof,autobus,A78,1964897_west,,
Thuyring Ecke Tempelhofer,autobus,A78,1964898_west,,
Bayernring Ecke Tempelhofer,autobus,A78,1964899_west,,
Platz Der Luftbrücke,autobus,A78,1964900_west,,
Leopoldplatz,autobus,A79,1964901_west,,
Nazarethkirchstr. Ecke Turinerstr.,autobus,A79,1964902_west,,
Prinz-Eugen-Str.,autobus,A79,1964903_west,,
Reinickendorferstr. Ecke Schulstr.,autobus,A79,1964904_west,,
Exerzierstr. Ecke Schulstr.,autobus,A79,1964905_west,,
Osloerstr. Ecke Schwedenstr.,autobus,A79,1964906_west,,
Ritterlandweg,autobus,A79,1964907_west,,
Pankowerallee Ecke Markstr.,autobus,A79,1964908_west,,
Letteplatz,autobus,A79,1964909_west,,
Schwabstr. Ecke Reginhardstr.,autobus,A79,1964910_west,,
Hausotterstr. Ecke Reginhardstr.,autobus,A79,1964911_west,,
Raschdorffstr. Ecke Reginhardstr.,autobus,A79,1964912_west,,
Sommerstr. Ecke Klemkestr.,autobus,A79,1964913_west,,
"Spandau, Breitestr.",autobus,A80,1964914_west,,
Rathaus Spandau,autobus,A80,1964915_west,,
Seegefelderstr. Ecke Carl-Schurz-Str.,autobus,A80,1964916_west,,
Klosterstr. Ecke Carl-Schurz-Str.,autobus,A80,1964917_west,,
Nauenerstr. Ecke Brunsbüttelerdamm,autobus,A80,1964918_west,,
Egelpfuhlstr.,autobus,A80,1964919_west,,
Magistratsweg Ecke Brunsbüttelerdamm,autobus,A80,1964920_west,,
Nennhauserdamm Ecke Brunsbüttelerdamm,autobus,A80,1964921_west,,
"Bhf. Zoo, Hardenbergplatz",autobus,A81,1964922_west,,
U-Bhf. Spichernstr.,autobus,A81,1964923_west,,
Berlinerstr. Ecke Joachimstalerstr.,autobus,A81,1964924_west,,
Bundesplatz,autobus,A81,1964925_west,,
Schlossstr. Ecke Feuerbachstr.,autobus,A81,1964926_west,,
Feuerbachstr. Ecke Bismarckstr.,autobus,A81,1964927_west,,
Bergstr. Ecke Bismarckstr.,autobus,A81,1964928_west,,
Bismarckstr. Ecke Steglitzerdamm,autobus,A81,1964929_west,,
"Lankwitz, Kirche",autobus,A81,1964930_west,,
"Alt-Lankwitz, Dorfaue",autobus,A81,1964931_west,,
Alt-Mariendorf Ecke Mariendorferdamm,autobus,A81,1964932_west,,
Imbrosweg Ecke Goldenes Horn,autobus,A81,1964933_west,,
Imbrosweg Ecke Dardanellenweg,autobus,A81,1964934_west,,
Nettelbeckplatz,autobus,A83,1964935_west,,
Weddingplatz,autobus,A83,1964936_west,,
Heidestr. Ecke Fennstr.,autobus,A83,1964937_west,,
Washingtonplatz,autobus,A83,1964938_west,,
Potsdamerstr. Ecke Verbindungsstr.,autobus,A83,1964939_west,,
Reichpietsch-Ufer Ecke Potsdamerstr.,autobus,A83,1964940_west,,
Lützowstr. Ecke Potsdamerstr.,autobus,A83,1964941_west,,
Bülowstr. Ecke Potsdamerstr.,autobus,A83,1964942_west,,
Kaiser-Wilhelm-Platz,autobus,A83,1964943_west,,
Innsbruckerplatz,autobus,A83,1964944_west,,
Grazerplatz,autobus,A83,1964945_west,,
Bergstr. Ecke Thorwaldstr.,autobus,A83,1964946_west,,
Steglitzerdamm Ecke Munsterdamm,autobus,A83,1964947_west,,
"Lankwitz, Kirche",autobus,A83,1964948_west,,
Malteserstr. Ecke Paul-Schneider-Str.,autobus,A83,1964949_west,,
Preysingstr. Ecke Malteserstr.,autobus,A83,1964950_west,,
Belßstr.,autobus,A83,1964951_west,,
Ringstr. Ecke Pestalozziplatz,autobus,A84,1964952_west,,
Kadettenweg Ecke Finckensteinallee,autobus,A84,1964953_west,,
Wiesenbaude,autobus,A84,1964954_west,,
Krahmerstr. Ecke Hindenburgdamm,autobus,A84,1964955_west,,
Klingsorstr. Ecke Hindenburgdamm,autobus,A84,1964956_west,,
Händelplatz,autobus,A84,1964957_west,,
Schlossstr. Ecke Albrechtstr.,autobus,A84,1964958_west,,
Rathaus Steglitz,autobus,A84,1964959_west,,
Florastr.,autobus,A84,1964960_west,,
Bundesallee Ecke Rheinstr.,autobus,A84,1964961_west,,
Kaisereiche,autobus,A84,1964962_west,,
Innsbruckerplatz,autobus,A84,1964963_west,,
Martin-Luther-Str. Ecke Hauptstr.,autobus,A84,1964964_west,,
Dominicusstr. Ecke Hauptstr.,autobus,A84,1964965_west,,
Kaiser-Wilhelm-Platz,autobus,A84,1964966_west,,
Gotenstr. Ecke Torgauerstr.,autobus,A84,1964967_west,,
"Bhf. Zoo, Hardenbergplatz",autobus,A85,1964968_west,,
Wittenbergplatz,autobus,A85,1964969_west,,
Grunewaldstr. Ecke Martin-Luther-Str.,autobus,A85,1964970_west,,
Bundesallee Ecke Berlinerstr.,autobus,A85,1964971_west,,
Bundesplatz,autobus,A85,1964972_west,,
Friedrich-Wilhelm-Platz,autobus,A85,1964973_west,,
Schloßstr. Ecke Bundesallee,autobus,A85,1964974_west,,
Rathaus Steglitz,autobus,A85,1964975_west,,
Hindenburgdamm Ecke Gardeschützweg,autobus,A85,1964976_west,,
Händelplatz,autobus,A85,1964977_west,,
Moltkestr.,autobus,A85,1964978_west,,
Drakestr. Ecke Ringstr.,autobus,A85,1964979_west,,
Rittberg-Krankenhaus,autobus,A85,1964980_west,,
Thunerplatz,autobus,A85,1964981_west,,
Ostpreußendamm Ecke Dorstenerstr.,autobus,A85,1964982_west,,
Holtheimerweg,autobus,A85,1964983_west,,
Invalidenstr.,autobus,A86,1964984_west,,
Stromstr. Ecke Alt-Moabit,autobus,A86,1964985_west,,
Alt-Moabit Ecke Gotzkowskystr.,autobus,A86,1964986_west,,
Ernst-Reuter-Platz,autobus,A86,1964987_west,,
Cauerstr. Ecke Wilmersdorferstr.,autobus,A86,1964988_west,,
Richard-Wagner-Platz,autobus,A86,1964989_west,,
Kantstr. Ecke Wilmersdorferstr.,autobus,A86,1964990_west,,
Kurfürstendamm Ecke Wilmersdorferstr.,autobus,A86,1964991_west,,
Fehrbellinerplatz,autobus,A86,1964992_west,,
Hildegardstr.,autobus,A86,1964993_west,,
Bundesplatz,autobus,A86,1964994_west,,
Schloßstr. Ecke Bundesallee,autobus,A86,1964995_west,,
Rathaus Steglitz,autobus,A86,1964996_west,,
Hindenburgdamm,autobus,A86,1964997_west,,
Klingsorstr.,autobus,A86,1964998_west,,
Birkbuschstr. Ecke Siemensstr.,autobus,A86,1964999_west,,
"Richard-Wagner-Platz, Wintersteinstr.",autobus,A87,19641000_west,,
Richard-Wagner-Platz,autobus,A87,19641001_west,,
Wilmersdorferstr. Ecke Otto-Suhr-Allee,autobus,A87,19641002_west,,
Luisenplatz,autobus,A87,19641003_west,,
Schlossstr. Ecke Spandauerdamm,autobus,A87,19641004_west,,
Spandauerdamm Ecke Sophie-Charlotten-Str.,autobus,A87,19641005_west,,
Sophie-Charlotten-Str. Ecke Pulsstr.,autobus,A87,19641006_west,,
U-Bhf. Kaiserdamm,autobus,A88,19641007_west,,
Neue-Kant-Str. Ecke Messedamm,autobus,A88,19641008_west,,
Halenseestr. Ecke Messedamm,autobus,A88,19641009_west,,
Deutschland Halle,autobus,A88,19641010_west,,
Eichkampstr. Ecke Alteallee,autobus,A88,19641011_west,,
Grüntalerstr. Ecke Osloerstr.,autobus,A89,19641012_west,,
Drontheimerstr. Ecke Osloerstr.,autobus,A89,19641013_west,,
Osloerstr. Ecke Schwedenstr.,autobus,A89,19641014_west,,
Reinickendorferstr. Ecke Osloerstr.,autobus,A89,19641015_west,,
U-Bhf. Seestr.,autobus,A89,19641016_west,,
Saatwinklerdamm Ecke Seestr.,autobus,A89,19641017_west,,
Huttenstr. Ecke Beusselstr.,autobus,A89,19641018_west,,
Tauroggenerstr. Ecke Meriendorffstr.,autobus,A89,19641019_west,,
Luisenplatz,autobus,A89,19641020_west,,
Kantstr. Ecke Wilmersdorferstr.,autobus,A89,19641021_west,,
Kurfürstendamm Ecke Wilmersdorferstr.,autobus,A89,19641022_west,,
U-Bhf. Fehrbellinerplatz,autobus,A89,19641023_west,,
Brandenburgischestr. Ecke Blissestr.,autobus,A89,19641024_west,,
Bundesallee Ecke Berlinerstr.,autobus,A89,19641025_west,,
Martin-Luther-Str. Ecke Grunewaldstr.,autobus,A89,19641026_west,,
Potsdamerstr. Ecke Pallasstr.,autobus,A89,19641027_west,,
Mehringdamm,autobus,A89,19641028_west,,
U-Bhf. Gneisenaustr.,autobus,A89,19641029_west,,
Mehringplatz,autobus,A89,19641030_west,,
"Bhf. Zoo, Hardenbergplatz",autobus,A90,19641031_west,,
Ernst-Reuter-Platz,autobus,A90,19641032_west,,
Alt-Moabit Ecke Gotzkowskystr.,autobus,A90,19641033_west,,
U-Bhf. Turmstr.,autobus,A90,19641034_west,,
Rathenowerstr. Ecke Alt-Moabit,autobus,A90,19641035_west,,
Perlebergerstr. Ecke Rathenowerstr.,autobus,A90,19641036_west,,
Am Nordhafen Ecke Tegelerstr.,autobus,A90,19641037_west,,
Weddingplatz,autobus,A90,19641038_west,,
Gartenstr. Ecke Grenzstr.,autobus,A90,19641039_west,,
Wattstr. Ecke Usedomerstr.,autobus,A90,19641040_west,,
Vinetaplatz,autobus,A90,19641041_west,,
U-Bhf. Leinestr.,autobus,A91,19641042_west,,
Siegfriedstr. Ecke Hermannstr.,autobus,A91,19641043_west,,
Silbersteinstr. Ecke Hermannstr.,autobus,A91,19641044_west,,
Mariendorferweg Ecke Hermannstr.,autobus,A91,19641045_west,,
Germaniapromenade Ecke Hermannstr.,autobus,A91,19641046_west,,
Franz-Körner-Str. Ecke Britzerdamm,autobus,A91,19641047_west,,
Blaschkoallee Ecke Britzerdamm,autobus,A91,19641048_west,,
Britzerdamm Ecke Tempelhoferweg,autobus,A91,19641049_west,,
Mohriner Alle Ecke Buckowerdamm,autobus,A91,19641050_west,,
Gutschmidtstr. Ecke Buckowerdamm,autobus,A91,19641051_west,,
Schlosserweg Ecke Buckowerdamm,autobus,A91,19641052_west,,
Zimmererweg Ecke Buckowerdamm,autobus,A91,19641053_west,,
Dachdeckerweg Ecke Buckowerdamm,autobus,A91,19641054_west,,
Parkfriedhof Neukölln,autobus,A91,19641055_west,,
Alt-Buckow Ecke Buckowerdamm,autobus,A91,19641056_west,,
Machandelweg,autobus,A92,19641057_west,,
U-Bhf. Ruhleben,autobus,A92,19641058_west,,
Grunewaldstr. Ecke Ruhlebenerstr.,autobus,A92,19641059_west,,
Klosterstr. Ecke Carl-Schurz-Str.,autobus,A92,19641060_west,,
Seeburgerstr. Ecke Klosterstr.,autobus,A92,19641061_west,,
Pichelsdorferstr. Ecke Klosterstr.,autobus,A92,19641062_west,,
Wilhelmstr. Ecke Heerstr.,autobus,A92,19641063_west,,
Reimerweg Ecke Heerstr.,autobus,A92,19641064_west,,
Brunnenstr. Ecke Lortzingstr.,autobus,A99,19641065_west,,
U-Bhf. Gesundbrunnen,autobus,A99,19641066_west,,
Brunnenplatz,autobus,A99,19641067_west,,
Nettelbeckplatz,autobus,A99,19641068_west,,
Rathenowerstr.,autobus,A99,19641069_west,,
Unionplatz,autobus,A99,19641070_west,,
Saatwinklerdamm Ecke Seestr.,autobus,A99,19641071_west,,
Jakob-Kaiser-Platz,autobus,A99,19641072_west,,
Wernerwerk,autobus,A99,19641073_west,,
Quellweg Ecke Nonnendammallee,autobus,A99,19641074_west,,
Paulsternstr. Ecke Nonnendammallee,autobus,A99,19641075_west,,
Gartenfelderstr. Ecke Nonnendammallee,autobus,A99,19641076_west,,
Carl-Schurz-Str. Ecke Seegefelderstr.,autobus,A99,19641077_west,,
Rathaus Spandau,autobus,A99,19641078_west,,
Hochgerichtstr.,autobus,A99,19641079_west,,
Germersheimerplatz,autobus,A99,19641080_west,,
Bhf. Zoo,autobus,AS1,19641081_west,,
U-Bhf. Ernst-Reuter-Platz,autobus,AS1,19641082_west,,
Cauerstr.,autobus,AS1,19641083_west,,
Richard-Wagner-Platz,autobus,AS1,19641084_west,,
Luisenplatz,autobus,AS1,19641085_west,,
Fürstenbrunnerweg,autobus,AS1,19641086_west,,
Kirschenallee,autobus,AS1,19641087_west,,
Schloss Ruhwald,autobus,AS1,19641088_west,,
U-Bhf. Ruhleben,autobus,AS1,19641089_west,,
Teltowerstr.,autobus,AS1,19641090_west,,
Rathaus Spandau,autobus,AS1,19641091_west,,
Hafenplatz,autobus,AS1,19641092_west,,
Lynastr.,autobus,AS1,19641093_west,,
Klinkeplatz,autobus,AS1,19641094_west,,
Hohenzollernring Ecke Schönwalderstr.,autobus,AS1,19641095_west,,
Bhf. Zoo,autobus,AS2,19641096_west,,
Hardenbergstr. Ecke Joachimstalerstr.,autobus,AS2,19641097_west,,
Kurfürstendamm Ecke Joachimstalerstr.,autobus,AS2,19641098_west,,
"Rankeplatz, Bundeshaus",autobus,AS2,19641099_west,,
Berlinerstr. Ecke Bundesallee,autobus,AS2,19641100_west,,
Bundesplatz,autobus,AS2,19641101_west,,
"Schlossstr., Wilhelm-Schreiber-Platz",autobus,AS2,19641102_west,,
Canovastr.,autobus,AS2,19641103_west,,
Attilaplatz,autobus,AS2,19641104_west,,
Mariendorferdamm Ecke Kaiserstr.,autobus,AS2,19641105_west,,
Alt-Mariendorf Ecke Mariendorferdamm,autobus,AS2,19641106_west,,
"Tauernallee, Adlermühle",autobus,AS2,19641107_west,,
Buckowerchaussee Ecke Mariendorferdamm,autobus,AS2,19641108_west,,
"Lichtenrade, Goethestr.",autobus,AS2,19641109_west,,
Goltzstr.,autobus,AS2,19641110_west,,
Bhf. Lichtenrade,autobus,AS2,19641111_west,,
"Lichtenrade, Blohmstr. Ecke Wünsdorferstr.",autobus,AS2,19641112_west,,
Bhf. Zoo,autobus,AS3,19641113_west,,
Hardenbergstr.,autobus,AS3,19641114_west,,
Kurfürstendamm Ecke Joachimstalerstr.,autobus,AS3,19641115_west,,
Rankeplatz/Bundeshaus,autobus,AS3,19641116_west,,
U-Bhf. Spichernstr.,autobus,AS3,19641117_west,,
U-Bhf. Fehrbellinerplatz,autobus,AS3,19641118_west,,
Seesenerstr. Ecke Hohenzollerndamm,autobus,AS3,19641119_west,,
"Berkaerstr., Elsterplatz",autobus,AS3,19641120_west,,
Roseneck,autobus,AS3,19641121_west,,
Pücklerstr.,autobus,AS3,19641122_west,,
Königin-Luise-Str.,autobus,AS3,19641123_west,,
U-Bhf. Oskar-Helene-Heim,autobus,AS3,19641124_west,,
Sundgauerstr.,autobus,AS3,19641125_west,,
Winfriedstr.,autobus,AS3,19641126_west,,
Clayallee/Teltowerdamm,autobus,AS3,19641127_west,,
Rathaus Zehlendorf,autobus,AS3,19641128_west,,
Bhf. Zoo,autobus,AS4,19641129_west,,
Savignyplatz,autobus,AS4,19641130_west,,
Leibnizstr. Ecke Kantstr.,autobus,AS4,19641131_west,,
Wilmersdroferstr. Ecke Kantstr.,autobus,AS4,19641132_west,,
Amtsgericht,autobus,AS4,19641133_west,,
Wundtstr. Ecke Neue Kantstr.,autobus,AS4,19641134_west,,
Messedamm Ecke Halenseestr.,autobus,AS4,19641135_west,,
Spanischeallee Ecke Kronprizessinnenweg,autobus,AS4,19641136_west,,
Bhf. Wannsee,autobus,AS4,19641137_west,,
Am Großen Wannsee,autobus,AS4,19641138_west,,
Rathaus Wannsee,autobus,AS4,19641139_west,,
Stölpchensee,autobus,AS4,19641140_west,,
Schlesisches Tor,u-bahn,A I,19641141_west,,
Görlitzer Bahnhof (oranienstr.),u-bahn,A I,19641142_west,,
Kottbusser Tor,u-bahn,A I,19641143_west,,
Prinzenstr.,u-bahn,A I,19641144_west,,
Hallesches Tor,u-bahn,A I,19641145_west,,
Gleisdreieck,u-bahn,A I,19641146_west,,
Kurfürstenstr.,u-bahn,A I,19641147_west,,
Nollendorfplatz,u-bahn,A I,19641148_west,,
Wittenbergplatz,u-bahn,A I,19641149_west,,
Zoologischer Garten,u-bahn,A I,19641150_west,,
Ernst-Reuter-Platz,u-bahn,A I,19641151_west,,
Deutsche Oper (bismarckstr.),u-bahn,A I,19641152_west,,
Sophie-Charlotte-Platz,u-bahn,A I,19641153_west,,
Kaiserdamm (messedamm),u-bahn,A I,19641154_west,,
Theodor-Heuss-Platz,u-bahn,A I,19641155_west,,
Ruhleben,u-bahn,A I,19641156_west,,
Schlesisches Tor,u-bahn,A II,19641157_west,,
Görlitzer Bahnhof (oranienstr.),u-bahn,A II,19641158_west,,
Kottbusser Tor,u-bahn,A II,19641159_west,,
Prinzenstr.,u-bahn,A II,19641160_west,,
Hallesches Tor,u-bahn,A II,19641161_west,,
Möckernbrücke,u-bahn,A II,19641162_west,,
Gleisdreieck,u-bahn,A II,19641163_west,,
Kurfürstenstr.,u-bahn,A II,19641164_west,,
Nollendorfplatz,u-bahn,A II,19641165_west,,
Wittenbergplatz,u-bahn,A II,19641166_west,,
Augsburger Str.,u-bahn,A II,19641167_west,,
Spichernstr.,u-bahn,A II,19641168_west,,
Hohenzollernplatz,u-bahn,A II,19641169_west,,
Fehrbellinerplatz,u-bahn,A II,19641170_west,,
Heidelbergerplatz,u-bahn,A II,19641171_west,,
Rüdesheimerplatz,u-bahn,A II,19641172_west,,
Breitenbachplatz,u-bahn,A II,19641173_west,,
Podbielskiallee,u-bahn,A II,19641174_west,,
Dahlem-Dorf,u-bahn,A II,19641175_west,,
Thielplatz,u-bahn,A II,19641176_west,,
Oskar-Helene-Heim,u-bahn,A II,19641177_west,,
Onkel Toms Hütte,u-bahn,A II,19641178_west,,
Krumme Lanke,u-bahn,A II,19641179_west,,
Deutsche Oper (bismarckstr.),u-bahn,A III,19641180_west,,
Richard-Wagner-Platz,u-bahn,A III,19641181_west,,
Nollendorfplatz,u-bahn,B I,19641182_west,,
Bayerischerplatz,u-bahn,B I,19641183_west,,
Innsbruckerplatz,u-bahn,B I,19641184_west,,
Wittenbergplatz,u-bahn,B III,19641185_west,,
Kurfürstendamm,u-bahn,B III,19641186_west,,
Tegel,u-bahn,C I,19641187_west,,
Borsigwerke,u-bahn,C I,19641188_west,,
Holzhauser Str.,u-bahn,C I,19641189_west,,
Seidelstr. (flughafen Tegel),u-bahn,C I,19641190_west,,
Scharnweberstr. (eichborndamm),u-bahn,C I,19641191_west,,
Kurt-Schumacher-Platz,u-bahn,C I,19641192_west,,
Afrikanische Str.,u-bahn,C I,19641193_west,,
Rehberge,u-bahn,C I,19641194_west,,
Seestr.,u-bahn,C I,19641195_west,,
Leopoldplatz,u-bahn,C I,19641196_west,,
Bahnhof Wedding,u-bahn,C I,19641197_west,,
Reinickendorfer Str.,u-bahn,C I,19641198_west,,
Bahnhof Friedrichstr. (stadtbahn),u-bahn,C I,19641199_west,,
Kochstr.,u-bahn,C I,19641200_west,,
Hallesches Tor,u-bahn,C I,19641201_west,,
Mehringdamm,u-bahn,C I,19641202_west,,
Gneisenaustr.,u-bahn,C I,19641203_west,,
Südstern,u-bahn,C I,19641204_west,,
Hermannplatz,u-bahn,C I,19641205_west,,
Rathaus Neukölln,u-bahn,C I,19641206_west,,
Karl-Marx-Str.,u-bahn,C I,19641207_west,,
Neukölln (südring),u-bahn,C I,19641208_west,,
Grenzallee,u-bahn,C I,19641209_west,,
Blaschkoallee,u-bahn,C I,19641210_west,,
Parchimerallee,u-bahn,C I,19641211_west,,
Britz-Süd,u-bahn,C I,19641212_west,,
Mehringdamm,u-bahn,C II,19641213_west,,
Flughafen,u-bahn,C II,19641214_west,,
Paradestr.,u-bahn,C II,19641215_west,,
Tempelhof (südring),u-bahn,C II,19641216_west,,
Gesundbrunnen,u-bahn,D,19641217_west,,
Voltastr.,u-bahn,D,19641218_west,,
Moritzplatz,u-bahn,D,19641219_west,,
Kottbusser Tor,u-bahn,D,19641220_west,,
Kottbusserdamm (schönleinstr.),u-bahn,D,19641221_west,,
Hermannplatz,u-bahn,D,19641222_west,,
Boddinstr.,u-bahn,D,19641223_west,,
Leinestr.,u-bahn,D,19641224_west,,
Leopoldplatz,u-bahn,G,19641225_west,,
Amrumerstr.,u-bahn,G,19641226_west,,
Pulitzstr.,u-bahn,G,19641227_west,,
Birkenstr.,u-bahn,G,19641228_west,,
Turmstr.,u-bahn,G,19641229_west,,
Hansaplatz,u-bahn,G,19641230_west,,
Zoologischer Garten,u-bahn,G,19641231_west,,
Kurfürstendamm,u-bahn,G,19641232_west,,
Spichernstr.,u-bahn,G,19641233_west,,
Gesundbrunnen,s-bahn,KBS 100,19641234_west,,
Wedding,s-bahn,KBS 100,19641235_west,,
Putlitzstr.,s-bahn,KBS 100,19641236_west,,
Beusselstr.,s-bahn,KBS 100,19641237_west,,
Jungfernheide,s-bahn,KBS 100,19641238_west,,
Westend,s-bahn,KBS 100,19641239_west,,
Witzleben,s-bahn,KBS 100,19641240_west,,
Westkreuz,s-bahn,KBS 100,19641241_west,,
Halensee,s-bahn,KBS 100,19641242_west,,
Hohenzollerndamm,s-bahn,KBS 100,19641243_west,,
Schmargendorf,s-bahn,KBS 100,19641244_west,,
Wilmersdorf,s-bahn,KBS 100,19641245_west,,
Innsbruckerplatz,s-bahn,KBS 100,19641246_west,,
Schöneberg,s-bahn,KBS 100,19641247_west,,
Papestr.,s-bahn,KBS 100,19641248_west,,
Tempelhof,s-bahn,KBS 100,19641249_west,,
Hermannstr.,s-bahn,KBS 100,19641250_west,,
Neukölln,s-bahn,KBS 100,19641251_west,,
Sonnenallee,s-bahn,KBS 100,19641252_west,,
Gesundbrunnen,s-bahn,KBS 100a,19641253_west,,
Wedding,s-bahn,KBS 100a,19641254_west,,
Putlitzstr.,s-bahn,KBS 100a,19641255_west,,
Beusselstr.,s-bahn,KBS 100a,19641256_west,,
Jungfernheide,s-bahn,KBS 100a,19641257_west,,
Siemensstadt-Fürstenbrunn,s-bahn,KBS 100a,19641258_west,,
Spandau,s-bahn,KBS 100a,19641259_west,,
Spandau West,s-bahn,KBS 100a,19641260_west,,
Heiligensee,s-bahn,KBS 100c,19641261_west,,
Schulzendorf (b Tegel),s-bahn,KBS 100c,19641262_west,,
Tegel,s-bahn,KBS 100c,19641263_west,,
Eichbornstr.,s-bahn,KBS 100c,19641264_west,,
Wittenau (kremmener Bahn),s-bahn,KBS 100c,19641265_west,,
Reinickendorf,s-bahn,KBS 100c,19641266_west,,
Schönholz,s-bahn,KBS 100c,19641267_west,,
Wollankstr.,s-bahn,KBS 100c,19641268_west,,
Gesundbrunnen,s-bahn,KBS 100c,19641269_west,,
Humboldthain,s-bahn,KBS 100c,19641270_west,,
Friedrichstr.,s-bahn,KBS 100c,19641271_west,,
Anhalter Bahnhof,s-bahn,KBS 100c,19641272_west,,
Yorckstr.,s-bahn,KBS 100c,19641273_west,,
Papestr.,s-bahn,KBS 100c,19641274_west,,
Priesterweg,s-bahn,KBS 100c,19641275_west,,
Mariendorf,s-bahn,KBS 100c,19641276_west,,
Marienfelde,s-bahn,KBS 100c,19641277_west,,
Buckower Ch.,s-bahn,KBS 100c,19641278_west,,
Lichtenrade,s-bahn,KBS 100c,19641279_west,,
Jungfernheide,s-bahn,KBS 100b,19641280_west,,
Wernerwerk,s-bahn,KBS 100b,19641281_west,,
Siemensstadt,s-bahn,KBS 100b,19641282_west,,
Gartenfeld,s-bahn,KBS 100b,19641283_west,,
Gesundbrunnen,s-bahn,KBS 100d,19641284_west,,
Humboldthain,s-bahn,KBS 100d,19641285_west,,
Friedrichstr.,s-bahn,KBS 100d,19641286_west,,
Anhalter Bahnhof,s-bahn,KBS 100d,19641287_west,,
Yorckstr.,s-bahn,KBS 100d,19641288_west,,
Papestr.,s-bahn,KBS 100d,19641289_west,,
Priesterweg,s-bahn,KBS 100d,19641290_west,,
Südende,s-bahn,KBS 100d,19641291_west,,
Lankwitz,s-bahn,KBS 100d,19641292_west,,
Lichterfelde Ost,s-bahn,KBS 100d,19641293_west,,
Lichterfelde Süd,s-bahn,KBS 100d,19641294_west,,
Frohnau,s-bahn,KBS 100e,19641295_west,,
Hermsdorf,s-bahn,KBS 100e,19641296_west,,
Waidmannslust,s-bahn,KBS 100e,19641297_west,,
Wittenau (nordbahn),s-bahn,KBS 100e,19641298_west,,
Wilhelmsruh,s-bahn,KBS 100e,19641299_west,,
Schönholz,s-bahn,KBS 100e,19641300_west,,
Wollankstr.,s-bahn,KBS 100e,19641301_west,,
Gesundbrunnen,s-bahn,KBS 100e,19641302_west,,
Humboldthain,s-bahn,KBS 100e,19641303_west,,
Friedrichstr.,s-bahn,KBS 100e,19641304_west,,
Anhalter Bahnhof,s-bahn,KBS 100e,19641305_west,,
Großgörschenstr.,s-bahn,KBS 100e,19641306_west,,
Schöneberg,s-bahn,KBS 100e,19641307_west,,
Friedenau,s-bahn,KBS 100e,19641308_west,,
Feuerbachstr.,s-bahn,KBS 100e,19641309_west,,
Steglitz,s-bahn,KBS 100e,19641310_west,,
Botanischer Garten,s-bahn,KBS 100e,19641311_west,,
Lichterfelde West,s-bahn,KBS 100e,19641312_west,,
Sundgauer Str.,s-bahn,KBS 100e,19641313_west,,
Zehlendorf,s-bahn,KBS 100e,19641314_west,,
Lindenthalerallee,s-bahn,KBS 100e,19641315_west,,
Schlachtensee,s-bahn,KBS 100e,19641316_west,,
Nikolassee,s-bahn,KBS 100e,19641317_west,,
Wannsee,s-bahn,KBS 100e,19641318_west,,
Zehlendorf,s-bahn,KBS 100f,19641319_west,,
Düppel-Kleinmachnow,s-bahn,KBS 100f,19641320_west,,
Friedrichstr.,s-bahn,KBS 100g,19641321_west,,
Lehrter Stadtbahnhof,s-bahn,KBS 100g,19641322_west,,
Bellevue,s-bahn,KBS 100g,19641323_west,,
Tiergarten,s-bahn,KBS 100g,19641324_west,,
Zoologischer Garten,s-bahn,KBS 100g,19641325_west,,
Savignyplatz,s-bahn,KBS 100g,19641326_west,,
Charlottenburg,s-bahn,KBS 100g,19641327_west,,
Westkreuz,s-bahn,KBS 100g,19641328_west,,
Eichkamp,s-bahn,KBS 100g,19641329_west,,
Heerstr.,s-bahn,KBS 100g,19641330_west,,
Olympiastadion,s-bahn,KBS 100g,19641331_west,,
Pichelsberg,s-bahn,KBS 100g,19641332_west,,
Spandau,s-bahn,KBS 100g,19641333_west,,
Spandau West,s-bahn,KBS 100g,19641334_west,,
Friedrichstr.,s-bahn,KBS 100h,19641335_west,,
Lehrter Stadtbahnhof,s-bahn,KBS 100h,19641336_west,,
Bellevue,s-bahn,KBS 100h,19641337_west,,
Tiergarten,s-bahn,KBS 100h,19641338_west,,
Zoologischer Garten,s-bahn,KBS 100h,19641339_west,,
Savignyplatz,s-bahn,KBS 100h,19641340_west,,
Charlottenburg,s-bahn,KBS 100h,19641341_west,,
Westkreuz,s-bahn,KBS 100h,19641342_west,,
Grunewald,s-bahn,KBS 100h,19641343_west,,
Nikolassee,s-bahn,KBS 100h,19641344_west,,
Wannsee,s-bahn,KBS 100h,19641345_west,,
Zoologischer Garten,s-bahn,KBS 100k,19641346_west,,
Savignyplatz,s-bahn,KBS 100k,19641347_west,,
Charlottenburg,s-bahn,KBS 100k,19641348_west,,
Halensee,s-bahn,KBS 100k,19641349_west,,
Hohenzollerndamm,s-bahn,KBS 100k,19641350_west,,
Schmargendorf,s-bahn,KBS 100k,19641351_west,,
Wilmersdorf,s-bahn,KBS 100k,19641352_west,,
Innsbruckerplatz,s-bahn,KBS 100k,19641353_west,,
Schöneberg,s-bahn,KBS 100k,19641354_west,,
Papestr.,s-bahn,KBS 100k,19641355_west,,
Tempelhof,s-bahn,KBS 100k,19641356_west,,
Hermannstr.,s-bahn,KBS 100k,19641357_west,,
Neukölln,s-bahn,KBS 100k,19641358_west,,
Köllnische Heide,s-bahn,KBS 100k,19641359_west,,
Kladow,ferry,Kladow<>Wannsee,19641360_west,,
Wannsee,ferry,Kladow<>Wannsee,19641361_west,,
