stop_name,type,line_name,stop_id,location,identifier
Bernauerstr. Ecke Wollinerstr.,tram,2,19610_west,,
Voltastr. Ecke Wattstr.,tram,2,19611_west,,
Weddingplatz,tram,2,19612_west,,
Rathenowerstr. Ecke Perlebergerstr.,tram,2,19613_west,,
Alt-Moabit Ecke Rathenowerstr.,tram,2,19614_west,,
Stromstr. Ecke Alt-Moabit,tram,2,19615_west,,
Gotzkowskybrücke,tram,2,19616_west,,
Ernst-Reuter-Platz,tram,2,19617_west,,
Bhf. Zoo,tram,2,19618_west,,
Wittenbergplatz,tram,2,19619_west,,
Grunewaldstr. Ecke Martin-Lutherstr.,tram,2,196110_west,,
Rathaus Schöneberg,tram,2,196111_west,,
Hauptstr. Ecke Dominicusstr.,tram,2,196112_west,,
Kaiser-Wilhelm-Platz,tram,2,196113_west,,
Gotenstr.,tram,2,196114_west,,
Grüntalerstr. Ecke Osloerstr.,tram,3,196115_west,,
U-Bhf. Seestr.,tram,3,196116_west,,
Bhf. Beusselstr.,tram,3,196117_west,,
Gotzkowskystr. Ecke Turmstr.,tram,3,196118_west,,
Wiebestr. Ecke Kaiserin-Augusta-Allee,tram,3,196119_west,,
Tauroggenerstr. Ecke Osnabrückerstr.,tram,3,196120_west,,
Luisenplatz,tram,3,196121_west,,
Wilmersdorferstr. Ecke Otto-Suhr-Alle,tram,3,196122_west,,
Wilmersdorferstr. Ecke Kurfürstendamm,tram,3,196123_west,,
Fehrbellinerplatz,tram,3,196124_west,,
Berlinerstr. Ecke Bundesallee,tram,3,196125_west,,
Grunewaldstr. Ecke Martin-Lutherstr.,tram,3,196126_west,,
Potsdamerstr. Ecke Pallasstr.,tram,3,196127_west,,
Mehringdamm Ecke Yorckstr.,tram,3,196128_west,,
U-Bhf. Südstern,tram,3,196129_west,,
Hermannplatz,tram,3,196130_west,,
Wilderbruchstr. Ecke Sonnenallee,tram,3,196131_west,,
Elsenstr. Ecke Heidelbergerstr.,tram,3,196132_west,,
Daimlerstr.,tram,15,196133_west,,
Bhf. Marienfelde,tram,15,196134_west,,
Körtingstr. Ecke Großbeerenstr.,tram,15,196135_west,,
Mariendorferdamm,tram,15,196136_west,,
Imbrosweg,tram,15,196137_west,,
Mariendorfer Friedhof,tram,15,196138_west,,
Industriestr.,tram,15,196139_west,,
Germaniastr.,tram,15,196140_west,,
Frauenklinik,tram,15,196141_west,,
Hermannstr.,tram,15,196142_west,,
U-Bhf. Neukölln,tram,15,196143_west,,
Richardstr.,tram,15,196144_west,,
Bhf. Sonnenallee,tram,15,196145_west,,
Dammweg,tram,15,196146_west,,
Schulenburgpark,tram,15,196147_west,,
Spreewaldplatz,tram,26,196148_west,,
Reichenbergerstr.,tram,26,196149_west,,
Glogauerstr.,tram,26,196150_west,,
Sonnenallee,tram,26,196151_west,,
Hermannplatz,tram,26,196152_west,,
Weichselstr.,tram,26,196153_west,,
Rathaus Neukölln,tram,26,196154_west,,
Karl-Marx-Platz,tram,26,196155_west,,
U-Bhf. Neukölln,tram,26,196156_west,,
Silbersteinstr.,tram,26,196157_west,,
Hermannstr.,tram,26,196158_west,,
Städtische Frauenklinik,tram,26,196159_west,,
Germaniastr.,tram,26,196160_west,,
Bhf. Teltowkanal,tram,26,196161_west,,
Industriestr.,tram,26,196162_west,,
Spreewaldplatz,tram,27,196163_west,,
Hermannplatz,tram,27,196164_west,,
U-Bhf. Boddinstr.,tram,27,196165_west,,
U-Bhf. Leinestr.,tram,27,196166_west,,
Bhf. Hermannstr.,tram,27,196167_west,,
Mariendorferweg Ecke Hermannstr.,tram,27,196168_west,,
Germaniapromenade Ecke Britzerdamm,tram,27,196169_west,,
Franz-Körnerstr. Ecke Britzerdamm,tram,27,196170_west,,
Britzerdamm Ecke Gradestr.,tram,27,196171_west,,
Tempelhoferweg Ecke Britzerdamm,tram,27,196172_west,,
Mohrinerallee Ecke Buckowerdamm,tram,27,196173_west,,
Gutschmidtstr. Ecke Buckowerdamm,tram,27,196174_west,,
"Kleinbahn, Buckowerdamm",tram,27,196175_west,,
Dachdeckerweg Ecke Buckowerdamm,tram,27,196176_west,,
"Parkfriedhof Neukölln, Buckowerdamm",tram,27,196177_west,,
Alt-Buckow Ecke Buckowerdamm,tram,27,196178_west,,
Hermannplatz,tram,47,196179_west,,
Weichselstr.,tram,47,196180_west,,
Rathaus Neukölln,tram,47,196181_west,,
Karl-Marx-Platz,tram,47,196182_west,,
U-Bhf. Neukölln,tram,47,196183_west,,
Silbersteinstr.,tram,47,196184_west,,
U-Bhf. Grenzallee,tram,47,196185_west,,
Buschkrug,tram,47,196186_west,,
Onkel-Hersestr.,tram,47,196187_west,,
Parchimerallee,tram,47,196188_west,,
Krankenhause Neukölln,tram,47,196189_west,,
Johannisthalerchaussee,tram,47,196190_west,,
Wildmeisterdamm,tram,47,196191_west,,
Stubenrauchstr.,tram,47,196192_west,,
Köpenickerstr.,tram,47,196193_west,,
Bahnhofstr.,tram,47,196194_west,,
Richard-Wagner-Platz,tram,53,196195_west,,
Luisenplatz,tram,53,196196_west,,
Klausenerplatz,tram,53,196197_west,,
Königin-Elisabethstr.,tram,53,196198_west,,
Kirschenallee,tram,53,196199_west,,
Schloss Ruhwald,tram,53,1961100_west,,
U-Bhf. Ruhleben,tram,53,1961101_west,,
Teltowerstr.,tram,53,1961102_west,,
Bhf. Spandau,tram,53,1961103_west,,
"Spandau, Markt",tram,53,1961104_west,,
Hafenplatz,tram,53,1961105_west,,
Lynastr. Ecke Neuendorferstr.,tram,53,1961106_west,,
Hohenzollernring,tram,53,1961107_west,,
Hakenfelde,tram,53,1961108_west,,
Richard-Wagner-Platz,tram,54,1961109_west,,
Luisenplatz,tram,54,1961110_west,,
Klausenerplatz,tram,54,1961111_west,,
Königin-Elisabethstr.,tram,54,1961112_west,,
Kirschenallee,tram,54,1961113_west,,
Schloss Ruhwald,tram,54,1961114_west,,
U-Bhf. Ruhleben,tram,54,1961115_west,,
Teltowerstr.,tram,54,1961116_west,,
Bhf. Spandau,tram,54,1961117_west,,
"Spandau, Markt",tram,54,1961118_west,,
Hafenplatz,tram,54,1961119_west,,
Lynastr. Ecke Neuendorferstr.,tram,54,1961120_west,,
Hohenzollernring,tram,54,1961121_west,,
Johannesstift,tram,54,1961122_west,,
Nollendorfplatz,tram,55,1961123_west,,
Wittenbergplatz,tram,55,1961124_west,,
Bhf. Zoo,tram,55,1961125_west,,
U-Bhf. Ernst-Reuter-Platz,tram,55,1961126_west,,
Cauerstr.,tram,55,1961127_west,,
Richard-Wagner-Platz,tram,55,1961128_west,,
Luisenplatz,tram,55,1961129_west,,
Osnabrückerstr.,tram,55,1961130_west,,
Bhf. Jungfernheide,tram,55,1961131_west,,
Jakob-Kaiser-Platz,tram,55,1961132_west,,
Quellweg,tram,55,1961133_west,,
Paulsternstr.,tram,55,1961134_west,,
Zitadellenweg,tram,55,1961135_west,,
"Spandau, Markt",tram,55,1961136_west,,
Rathaus Spandau,tram,55,1961137_west,,
Nauenerstr.,tram,55,1961138_west,,
Königin-Elisabethstr.,tram,60,1961139_west,,
Sophie-Charlotten-Platz,tram,60,1961140_west,,
Stuttgarterplatz,tram,60,1961141_west,,
Fehrbellinerplatz,tram,60,1961142_west,,
Bundesallee,tram,60,1961143_west,,
Rathaus Schöneberg,tram,60,1961144_west,,
Hauptstr. (Schöneberg),tram,60,1961145_west,,
Bhf. Papestr.,tram,60,1961146_west,,
Eythstr.,tram,60,1961147_west,,
Belzigerstr.,tram,66,1961148_west,,
Hauptstr. (Schöneberg),tram,66,1961149_west,,
Innsbruckerplatz,tram,66,1961150_west,,
Traegerstr.,tram,66,1961151_west,,
Ceciliengärten,tram,66,1961152_west,,
Rembrandtstr.,tram,66,1961153_west,,
Canovastr. (Krankenhaus),tram,66,1961154_west,,
Thorwaldsenstr.,tram,66,1961155_west,,
Bergstr.,tram,66,1961156_west,,
Bhf. Lichterfelde-Ost,tram,73,1961157_west,,
Wiesenbaude,tram,73,1961158_west,,
Moltkestr.,tram,73,1961159_west,,
Händelplatz,tram,73,1961160_west,,
Schlossstr.,tram,73,1961161_west,,
Rathaus Steglitz,tram,73,1961162_west,,
Bundesallee Ecke Rheinstr.,tram,73,1961163_west,,
Kaisereiche,tram,73,1961164_west,,
Lauterplatz,tram,73,1961165_west,,
Innsbruckerplatz,tram,73,1961166_west,,
Dominicusstr.,tram,73,1961167_west,,
Albertstr.,tram,73,1961168_west,,
Kaiser-Wilhelm-Platz,tram,73,1961169_west,,
U-Bhf. Bülowstr.,tram,73,1961170_west,,
Lützowstr.,tram,73,1961171_west,,
Potsdamerplatz,tram,73,1961172_west,,
Finckensteinallee,tram,74,1961173_west,,
Wiesenbaude,tram,74,1961174_west,,
Moltkestr.,tram,74,1961175_west,,
Händelplatz,tram,74,1961176_west,,
Schlossstr.,tram,74,1961177_west,,
Rathaus Steglitz,tram,74,1961178_west,,
Bundesallee,tram,74,1961179_west,,
Kaisereiche,tram,74,1961180_west,,
Lauterplatz,tram,74,1961181_west,,
Innsbruckerplatz,tram,74,1961182_west,,
Dominicusstr.,tram,74,1961183_west,,
Albertstr.,tram,74,1961184_west,,
Kaiser-Wilhelm-Platz,tram,74,1961185_west,,
U-Bhf. Bülowstr.,tram,74,1961186_west,,
Lützowstr.,tram,74,1961187_west,,
Potsdamerplatz,tram,74,1961188_west,,
"Bhf. Zoo, Kantstr.",tram,75,1961189_west,,
Wilmersdorferstr.,tram,75,1961190_west,,
Amtsgericht,tram,75,1961191_west,,
Messedamm,tram,75,1961192_west,,
Reichskanzlerplatz,tram,75,1961193_west,,
Bhf. Heerstr.,tram,75,1961194_west,,
Reichssportfeldstr.,tram,75,1961195_west,,
Stößenseebrücke,tram,75,1961196_west,,
Pichelsdorferstr.,tram,75,1961197_west,,
"Weverstr., Strassenbahnhof",tram,75,1961198_west,,
Seeburgerstr.,tram,75,1961199_west,,
Rathaus Spandau,tram,75,1961200_west,,
"Spandau, Markt",tram,75,1961201_west,,
Hafenplatz,tram,75,1961202_west,,
Hohenzollernring,tram,75,1961203_west,,
Hakenfelde,tram,75,1961204_west,,
"Bhf. Zoo, Kantstr.",tram,76,1961205_west,,
Wilmersdorferstr.,tram,76,1961206_west,,
Amtsgericht,tram,76,1961207_west,,
Messedamm,tram,76,1961208_west,,
Reichskanzlerplatz,tram,76,1961209_west,,
Bhf. Heerstr.,tram,76,1961210_west,,
Reichssportfeldstr.,tram,76,1961211_west,,
Stößenseebrücke,tram,76,1961212_west,,
Pichelsdorferstr.,tram,76,1961213_west,,
"Weverstr., Strassenbahnhof",tram,76,1961214_west,,
Seeburgerstr.,tram,76,1961215_west,,
Rathaus Spandau,tram,76,1961216_west,,
"Spandau, Markt",tram,76,1961217_west,,
Hafenplatz,tram,76,1961218_west,,
Hohenzollernring,tram,76,1961219_west,,
Johannesstift,tram,76,1961220_west,,
Bhf. Zoo,tram,77,1961221_west,,
Wittenbergplatz,tram,77,1961222_west,,
Grunewaldstr.,tram,77,1961223_west,,
Bundesallee,tram,77,1961224_west,,
Bundesplatz,tram,77,1961225_west,,
Friedrich-Wilhelm-Platz,tram,77,1961226_west,,
Schlossstr.,tram,77,1961227_west,,
Rathaus Steglitz,tram,77,1961228_west,,
Hindenburgdamm,tram,77,1961229_west,,
Händelplatz,tram,77,1961230_west,,
Bhf. Botanischer Garten,tram,77,1961231_west,,
Bhf. Lichterfelde-West,tram,77,1961232_west,,
Rittberg-Krankenhaus,tram,77,1961233_west,,
Wismarerstr.,tram,77,1961234_west,,
Goerzallee,tram,77,1961235_west,,
Bhf. Zoo,tram,78,1961236_west,,
Wittenbergplatz,tram,78,1961237_west,,
Grunewaldstr.,tram,78,1961238_west,,
Bundesallee,tram,78,1961239_west,,
Bundesplatz,tram,78,1961240_west,,
Friedrich-Wilhelm-Platz,tram,78,1961241_west,,
Schlossstr.,tram,78,1961242_west,,
Rathaus Steglitz,tram,78,1961243_west,,
Hindenburgdamm,tram,78,1961244_west,,
Händelplatz,tram,78,1961245_west,,
Bhf. Botanischer Garten,tram,78,1961246_west,,
Bhf. Lichterfelde-West,tram,78,1961247_west,,
Rittberg-Krankenhaus,tram,78,1961248_west,,
Goerzallee,tram,78,1961249_west,,
Lichterfelde-West Lindenstr.,tram,78,1961250_west,,
Mehringplatz,tram,95,1961251_west,,
Zossenerstr. Ecke Blücherstr.,tram,95,1961252_west,,
Baerwaldstr. Ecke Urbanstr.,tram,95,1961253_west,,
Hermannplatz,tram,95,1961254_west,,
Erkstr. Ecke Sonnenallee,tram,95,1961255_west,,
Hertzbergplatz,tram,95,1961256_west,,
Bhf. Sonnenallee,tram,95,1961257_west,,
Dammweg Ecke Sonnenallee,tram,95,1961258_west,,
Schulenburgpark,tram,95,1961259_west,,
Schwarzerweg Ecke Sonnenallee,tram,95,1961260_west,,
Lindenstr.,tram,96,1961261_west,,
Mehringplatz,tram,96,1961262_west,,
Yorckstr.,tram,96,1961263_west,,
U-Bhf. Flughafen,tram,96,1961264_west,,
Adolf-Scheidt-Platz,tram,96,1961265_west,,
Berlinickeplatz,tram,96,1961266_west,,
Attilaplatz,tram,96,1961267_west,,
Bhf. Mariendorf,tram,96,1961268_west,,
"Lankwitz, Kirche",tram,96,1961269_west,,
Sydlitzstr. Ecke Kaiser-Wilhelmstr.,tram,96,1961270_west,,
Bhf. Lichterfelde-Ost,tram,96,1961271_west,,
Ostpreußendamm Ecke Morgensternstr.,tram,96,1961272_west,,
Giesendorferstr. Ecke Ostpreußendamm,tram,96,1961273_west,,
Wismarerstr. Ecke Ostpreußendamm,tram,96,1961274_west,,
Schwelmerstr. Ecke Ostpreußendamm,tram,96,1961275_west,,
Waldstr. Ecke Turmstr.,autobus,A1,1961276_west,,
Otto-Suhr-Allee,autobus,A1,1961277_west,,
U-Bhf. Fehrbellinerplatz,autobus,A1,1961278_west,,
Detmolderstr.,autobus,A1,1961279_west,,
Breitenbachplatz,autobus,A1,1961280_west,,
Botanischer Garten,autobus,A1,1961281_west,,
Pacelli-/Thielallee,autobus,A1,1961282_west,,
Clayallee,autobus,A1,1961283_west,,
U-Bhf. Oskar-Helene-Heim,autobus,A1,1961284_west,,
Bhf. Zehlendorf,autobus,A1,1961285_west,,
Beeskowdamm,autobus,A1,1961286_west,,
Wismarerstr.,autobus,A1,1961287_west,,
"Ernst-Reuter-Platz, Straße Des 17. Juni",autobus,A2,1961288_west,,
Ernst-Reuter-Platz,autobus,A2,1961289_west,,
Bhf. Zoo,autobus,A2,1961290_west,,
Spichernstr. Ecke Bundesallee,autobus,A2,1961291_west,,
Berlinerstr. Ecke Bundesallee,autobus,A2,1961292_west,,
Bundesplatz,autobus,A2,1961293_west,,
Friedrich-Wilhelm-Platz,autobus,A2,1961294_west,,
Schloßstr. Ecke Feuerbachstr.,autobus,A2,1961295_west,,
Bergstr. Ecke Bismarckstr.,autobus,A2,1961296_west,,
Steglitzerdamm Ecke Halskestr.,autobus,A2,1961297_west,,
Leonorenstr. Ecke Siemensstr.,autobus,A2,1961298_west,,
"Lankwitz, Kirche",autobus,A2,1961299_west,,
Havensteinstr. Ecke Gallwitzallee,autobus,A2,1961300_west,,
Lerbacherweg Ecke Gallwitzallee,autobus,A2,1961301_west,,
Trippsteinstr.,autobus,A2,1961302_west,,
Rathaus Zehlendorf,autobus,A3,1961303_west,,
Winifriedstr. Ecke Clayallee,autobus,A3,1961304_west,,
U-Bhf. Oskar-Helene-Heim,autobus,A3,1961305_west,,
U-Bhf. Onkel-Toms-Hütte,autobus,A3,1961306_west,,
U-Bhf. Krumme Lanke,autobus,A3,1961307_west,,
Bhf. Lindenthalerallee,autobus,A3,1961308_west,,
Benschallee Ecke Potsdamerchaussee,autobus,A3,1961309_west,,
Schopenhauer-Strasse Ecke Spanischeallee,autobus,A3,1961310_west,,
Bhf. Nikolassee,autobus,A3,1961311_west,,
Am Beelitzhof,autobus,A3,1961312_west,,
Bhf. Wannsee,autobus,A3,1961313_west,,
Am Großen Wannsee Ecke Königstr.,autobus,A3,1961314_west,,
Pfaueninsel-Chaussee Ecke Königstr.,autobus,A3,1961315_west,,
Rathaus Wannsee,autobus,A3,1961316_west,,
"Stölpchensee, Wilhelmplatz",autobus,A3,1961317_west,,
"Haselhorst, Kirche",autobus,A10,1961318_west,,
Paulsternstr.,autobus,A10,1961319_west,,
Verwaltungs-Gebäude,autobus,A10,1961320_west,,
Spandauerdamm,autobus,A10,1961321_west,,
U-Bhf. Kaiserdamm,autobus,A10,1961322_west,,
Amtsgerichsplatz,autobus,A10,1961323_west,,
Bhf. Halensee,autobus,A10,1961324_west,,
Elsterplatz,autobus,A10,1961325_west,,
Hundekehlestr.,autobus,A10,1961326_west,,
Königin-Luisestr.,autobus,A10,1961327_west,,
U-Bhf. Thielplatz,autobus,A10,1961328_west,,
Dahlemerweg,autobus,A10,1961329_west,,
Teltowerdamm,autobus,A10,1961330_west,,
Behring-Krankenhaus,autobus,A10,1961331_west,,
Lupsteinerweg,autobus,A10,1961332_west,,
Saargemünderstr.,autobus,A11,1961333_west,,
U-Bhf. Oskar-Helene-Heim,autobus,A11,1961334_west,,
Ihnestr.,autobus,A11,1961335_west,,
Corrensplatz,autobus,A11,1961336_west,,
Unter den Eichen Ecke Habelschwerdterallee,autobus,A11,1961337_west,,
Bhf. Lichterfelde-West,autobus,A11,1961338_west,,
Ringstr.,autobus,A11,1961339_west,,
Wiesenbaude,autobus,A11,1961340_west,,
Unter den Eichen Ecke Drakestr.,autobus,A11,1961341_west,,
Marienstr.,autobus,A11,1961342_west,,
Morgensternstr. Ecke Wilhelmstr.,autobus,A11,1961343_west,,
Bhf. Lichterfelde-Ost,autobus,A11,1961344_west,,
Langestr.,autobus,A11,1961345_west,,
Hildburghauserstr.,autobus,A11,1961346_west,,
Apoldaerstr. Ecke Sonderhauserstr.,autobus,A11,1961347_west,,
Trippsteinstr.,autobus,A11,1961348_west,,
Gartenstr. Ecke Bernauerstr.,autobus,A12,1961349_west,,
Grenzstr.,autobus,A12,1961350_west,,
U-Bhf. Leopold-Platz,autobus,A12,1961351_west,,
U-Bhf. Seestr.,autobus,A12,1961352_west,,
Bristolstr.,autobus,A12,1961353_west,,
Emmentalerstr.,autobus,A12,1961354_west,,
Lindauerstr.,autobus,A12,1961355_west,,
Lindenweg,autobus,A12,1961356_west,,
Holzhauserstr.,autobus,A12,1961357_west,,
Cyclopstr.,autobus,A12,1961358_west,,
Zabel-Krüger-Damm,autobus,A12,1961359_west,,
Kirchstr.,autobus,A12,1961360_west,,
Hermsdorferdamm,autobus,A12,1961361_west,,
Bhf. Frohnau,autobus,A12,1961362_west,,
Donnersmarckplatz,autobus,A12,1961363_west,,
Hainbuchenstr.,autobus,A12,1961364_west,,
Alt-Heiligensee,autobus,A13,1961365_west,,
Am Dachsbau,autobus,A13,1961366_west,,
Gabelung,autobus,A13,1961367_west,,
Ruppinerchaussee,autobus,A13,1961368_west,,
U-Bhf. Tegel,autobus,A13,1961369_west,,
Bernauerstr.,autobus,A13,1961370_west,,
Krankenhaus Tegel-Süd,autobus,A13,1961371_west,,
Strasse nach Staatwinkel,autobus,A13,1961372_west,,
Paulsternstr.,autobus,A13,1961373_west,,
Daumstr.,autobus,A13,1961374_west,,
Carl-Schurzstr. Ecke Am Juliusturm,autobus,A13,1961375_west,,
Rathaus Spandau,autobus,A13,1961376_west,,
Klosterstr. Ecke Seeburgerstr.,autobus,A13,1961377_west,,
Päwesinerweg Ecke Seeburgerstr.,autobus,A13,1961378_west,,
Heerstr.,autobus,A13,1961379_west,,
Weinmeisterhornweg,autobus,A13,1961380_west,,
Alt-Heiligensee,autobus,A14,1961381_west,,
Mattenbuder Pfad,autobus,A14,1961382_west,,
Bhf. Heiligensee,autobus,A14,1961383_west,,
Bhf. Schulzendorf,autobus,A14,1961384_west,,
Heiligenseestr.,autobus,A14,1961385_west,,
U-Bhf. Tegel,autobus,A14,1961386_west,,
Ziekowstr.,autobus,A14,1961387_west,,
Holzhauserstr.,autobus,A14,1961388_west,,
Lindenweg,autobus,A14,1961389_west,,
Aroserallee,autobus,A14,1961390_west,,
Kopenhagenerstr.,autobus,A14,1961391_west,,
Pankowerallee,autobus,A14,1961392_west,,
Pankstr.,autobus,A14,1961393_west,,
U-Bhf. Gesundbrunnen,autobus,A14,1961394_west,,
Rügenerstr.,autobus,A14,1961395_west,,
Lübarserstr.,autobus,A15,1961396_west,,
Bhf. Wittenau,autobus,A15,1961397_west,,
Alt-Wittenau,autobus,A15,1961398_west,,
Tor 5,autobus,A15,1961399_west,,
Bhf. Eichbornstr.,autobus,A15,1961400_west,,
Holzhauserstr.,autobus,A15,1961401_west,,
Borsigwalderweg,autobus,A15,1961402_west,,
Gorkistr.,autobus,A15,1961403_west,,
U-Bhf. Tegel,autobus,A15,1961404_west,,
Hermsdorferdamm,autobus,A15,1961405_west,,
Am Fließ,autobus,A15,1961406_west,,
Schulzendorferstr.,autobus,A15,1961407_west,,
Bhf. Hermsdorf,autobus,A15,1961408_west,,
Dominikus-Krankenhaus,autobus,A15,1961409_west,,
Donnersmarckplatz,autobus,A15,1961410_west,,
Bhf. Frohnau,autobus,A15,1961411_west,,
Louise-Schroeder-Platz,autobus,A16,1961412_west,,
U-Bhf. Seestr.,autobus,A16,1961413_west,,
Afrikanischestr.,autobus,A16,1961414_west,,
Virchow-Krankenhaus,autobus,A16,1961415_west,,
Bhf. Putlitzstr.,autobus,A16,1961416_west,,
Turmstr.,autobus,A16,1961417_west,,
Hansaplatz,autobus,A16,1961418_west,,
Tiergartenstr.,autobus,A16,1961419_west,,
Lützowplatz,autobus,A16,1961420_west,,
Einemstr.,autobus,A16,1961421_west,,
Rathaus Schöneberg,autobus,A16,1961422_west,,
Innsbruckerplatz,autobus,A16,1961423_west,,
Bundesplatz,autobus,A16,1961424_west,,
Wiesbadenerstr.,autobus,A16,1961425_west,,
Breitenbachplatz,autobus,A16,1961426_west,,
Englerallee,autobus,A16,1961427_west,,
Bhf. Grunewald,autobus,A17,1961428_west,,
Hagenplatz,autobus,A17,1961429_west,,
Rosenecke,autobus,A17,1961430_west,,
Warnem Nderstr.,autobus,A17,1961431_west,,
U-Bhf. Rüdesheimerplatz,autobus,A17,1961432_west,,
Friedriche-Wilhelm-Platz,autobus,A17,1961433_west,,
Rathaus Steglitz,autobus,A17,1961434_west,,
Stadtpark,autobus,A17,1961435_west,,
Leonorenstr.,autobus,A17,1961436_west,,
Stadion Lichterfelde,autobus,A17,1961437_west,,
Wilhelmstr.,autobus,A17,1961438_west,,
Morgensternstr. Ecke Wilhelmstr.,autobus,A17,1961439_west,,
Oberhoferplatz,autobus,A17,1961440_west,,
Saaleckplatz,autobus,A17,1961441_west,,
Saargemünderstr.,autobus,A18,1961442_west,,
U-Bhf. Oskar-Helene-Heim,autobus,A18,1961443_west,,
Sophie-Charlottenstr.,autobus,A18,1961444_west,,
Scharfestr.,autobus,A18,1961445_west,,
Mittelstr.,autobus,A18,1961446_west,,
Wolzogenstr.,autobus,A18,1961447_west,,
Benschallee,autobus,A18,1961448_west,,
Waldfriedhof,autobus,A18,1961449_west,,
Quantzstr.,autobus,A18,1961450_west,,
Kronprinzessinenweg,autobus,A18,1961451_west,,
Am Grossen Wannsee,autobus,A18,1961452_west,,
Pfaueninsel-Chaussee,autobus,A18,1961453_west,,
Rathaus Wannsee,autobus,A18,1961454_west,,
St Lpchensee,autobus,A18,1961455_west,,
Kohlhasenbrück,autobus,A18,1961456_west,,
Roseneck,autobus,A19,1961457_west,,
Hagenplatz,autobus,A19,1961458_west,,
Erdenerstr.,autobus,A19,1961459_west,,
Bhf. Halensee,autobus,A19,1961460_west,,
Wilmersdorferstr.,autobus,A19,1961461_west,,
Olivaerplatz,autobus,A19,1961462_west,,
Joachimstalerstr.,autobus,A19,1961463_west,,
Breitscheidplatz,autobus,A19,1961464_west,,
Wittenbergplatz,autobus,A19,1961465_west,,
Nollendorfplatz,autobus,A19,1961466_west,,
Bhf. Yorckstr.,autobus,A19,1961467_west,,
Katzbachstr.,autobus,A19,1961468_west,,
Mehringdamm,autobus,A19,1961469_west,,
U-Bhf. Flughafen,autobus,A19,1961470_west,,
Flughafen,autobus,A19,1961471_west,,
Tegelort,autobus,A20,1961472_west,,
Walderseestr.,autobus,A20,1961473_west,,
Falkenplatz,autobus,A20,1961474_west,,
Mühlenstr.,autobus,A20,1961475_west,,
Heiligenseestr.,autobus,A20,1961476_west,,
Karolinenstr.,autobus,A20,1961477_west,,
U-Bhf. Tegel,autobus,A20,1961478_west,,
Hatzfeldallee,autobus,A20,1961479_west,,
Martin-Luther-Friedhof,autobus,A20,1961480_west,,
Freie Scholle,autobus,A20,1961481_west,,
Waldstr.,autobus,A20,1961482_west,,
Bhf. Waidmannslust,autobus,A20,1961483_west,,
Oraniendamm,autobus,A20,1961484_west,,
Am Vierrutenbert,autobus,A20,1961485_west,,
"Lübars, Dorfaue",autobus,A20,1961486_west,,
Wentowsteig,autobus,A21,1961487_west,,
Oranienburgerstr.,autobus,A21,1961488_west,,
Alt-Wittenau,autobus,A21,1961489_west,,
Bhf. Eichbornstr.,autobus,A21,1961490_west,,
Scharnweberstr.,autobus,A21,1961491_west,,
Kurt-Schumacher-Platz,autobus,A21,1961492_west,,
Kaserne Südtor,autobus,A21,1961493_west,,
Heckerdamm,autobus,A21,1961494_west,,
Bhf. Jungfernheide,autobus,A21,1961495_west,,
Luisenplatz,autobus,A21,1961496_west,,
Kantstr.,autobus,A21,1961497_west,,
Stuttgarterplatz,autobus,A21,1961498_west,,
Amtsgericht Charlottenburg,autobus,A21,1961499_west,,
Bhf. Hohenzollerndamm,autobus,A21,1961500_west,,
U-Bhf. Fehrbellinerplatz,autobus,A21,1961501_west,,
Wiebestr.,autobus,A24,1961502_west,,
Gotzkowskystr.,autobus,A24,1961503_west,,
Stromstr.,autobus,A24,1961504_west,,
Rathenowerstr.,autobus,A24,1961505_west,,
Alt-Moabit,autobus,A24,1961506_west,,
John-Foster-Dulles-Allee,autobus,A24,1961507_west,,
Tiergartenstr.,autobus,A24,1961508_west,,
Lützowplatz,autobus,A24,1961509_west,,
Hafenplatz,autobus,A24,1961510_west,,
Askanischerplatz,autobus,A24,1961511_west,,
U-Bhf. Hallesches Tor,autobus,A24,1961512_west,,
Gneisenaustr.,autobus,A24,1961513_west,,
Columbiadamm,autobus,A24,1961514_west,,
Tempelhoferdamm,autobus,A24,1961515_west,,
Flughafen,autobus,A24,1961516_west,,
Unionplatz,autobus,A25,1961517_west,,
Gotzkowskybrücke,autobus,A25,1961518_west,,
Hansaplatz,autobus,A25,1961519_west,,
U-Bhf. Ernst-Reuter-Platz,autobus,A25,1961520_west,,
Bhf. Zoo,autobus,A25,1961521_west,,
Pariserstr. Ecke Bundesallee,autobus,A25,1961522_west,,
Berlinerstr. Ecke Bundesallee,autobus,A25,1961523_west,,
Bundesplatz,autobus,A25,1961524_west,,
Kaisereiche,autobus,A25,1961525_west,,
Grazerplatz,autobus,A25,1961526_west,,
Attilaplatz,autobus,A25,1961527_west,,
Tempelhoferdamm Ecke Friedrich-Karlstr.,autobus,A25,1961528_west,,
Gottlieb-Dunkelstr. Ecke Tempelhoferweg,autobus,A25,1961529_west,,
Tempelhoferweg Ecke Britzerdamm,autobus,A25,1961530_west,,
Grünerweg,autobus,A25,1961531_west,,
Gutschmidtstr.,autobus,A25,1961532_west,,
Loewenhardtdamm,autobus,A28,1961533_west,,
Dudenstr.,autobus,A28,1961534_west,,
Kreuzbergstr.,autobus,A28,1961535_west,,
Yorckstr.,autobus,A28,1961536_west,,
Mehringdamm,autobus,A28,1961537_west,,
Zossenerstr.,autobus,A28,1961538_west,,
Südstern,autobus,A28,1961539_west,,
Urban-Krankenhause,autobus,A28,1961540_west,,
U-Bhf. Prinzenstr.,autobus,A28,1961541_west,,
U-Bhf Kottbusser Tor,autobus,A28,1961542_west,,
Oranienstr.,autobus,A28,1961543_west,,
Waldemarstr.,autobus,A28,1961544_west,,
Mariannenplatz,autobus,A28,1961545_west,,
Köpenickerstr. Ecke Manteuffelstr.,autobus,A28,1961546_west,,
U-Bhf. Schlesisches Tor,autobus,A28,1961547_west,,
Heckmannufer,autobus,A28,1961548_west,,
Roseneck,autobus,A29,1961549_west,,
Berkaerstr.,autobus,A29,1961550_west,,
BSC-Sportplatz,autobus,A29,1961551_west,,
Bismarckplatz,autobus,A29,1961552_west,,
Bhf. Halensee,autobus,A29,1961553_west,,
Joachim-Friedrichstr.,autobus,A29,1961554_west,,
Wilmersdorferstr.,autobus,A29,1961555_west,,
Olivaerplatz,autobus,A29,1961556_west,,
Uhlandstr.,autobus,A29,1961557_west,,
Joachimstalerstr.,autobus,A29,1961558_west,,
Breitscheidplatz,autobus,A29,1961559_west,,
Wittenbergplatz,autobus,A29,1961560_west,,
Lutherstr.,autobus,A29,1961561_west,,
Lützowstr.,autobus,A29,1961562_west,,
Askanischerplatz,autobus,A29,1961563_west,,
Machandelweg,autobus,A31,1961564_west,,
U-Bhf. Ruhleben,autobus,A31,1961565_west,,
Friedhof Ruhleben,autobus,A31,1961566_west,,
Kinderheim Ruhleben,autobus,A31,1961567_west,,
Teltowerstr.,autobus,A31,1961568_west,,
Grenadierstr.,autobus,A31,1961569_west,,
Stresowplatz,autobus,A31,1961570_west,,
Breitestr.,autobus,A31,1961571_west,,
Rathaus Spandau,autobus,A31,1961572_west,,
Brunsbüttelerdamm,autobus,A31,1961573_west,,
Nauenerstr.,autobus,A31,1961574_west,,
Egelpfuhlstr.,autobus,A31,1961575_west,,
Magistratsweg,autobus,A31,1961576_west,,
Spandauerstr.,autobus,A31,1961577_west,,
Hackbuschstr.,autobus,A31,1961578_west,,
Heidebergplan,autobus,A31,1961579_west,,
Breitenbachplatz,autobus,A32,1961580_west,,
Gritznerstr.,autobus,A32,1961581_west,,
Schlossstr.,autobus,A32,1961582_west,,
Rathaus Steglitz,autobus,A32,1961583_west,,
Sedanstr.,autobus,A32,1961584_west,,
Stindestr.,autobus,A32,1961585_west,,
Leonorenstr.,autobus,A32,1961586_west,,
"Lankwitz, Kirche",autobus,A32,1961587_west,,
Marienfelderstr.,autobus,A32,1961588_west,,
Marchandstr.,autobus,A32,1961589_west,,
Marienfelderallee,autobus,A32,1961590_west,,
Stegerwaldstr.,autobus,A32,1961591_west,,
Bhf. Marienfelde,autobus,A32,1961592_west,,
Bhf. Steglitz,autobus,A33,1961593_west,,
Breitestr.,autobus,A33,1961594_west,,
Klingsorstr.,autobus,A33,1961595_west,,
Sedanstr.,autobus,A33,1961596_west,,
Bismarckstr.,autobus,A33,1961597_west,,
Halskestr.,autobus,A33,1961598_west,,
Bhf. Südende,autobus,A33,1961599_west,,
Bhf. Mariendorf,autobus,A33,1961600_west,,
Kurfürstenstr.,autobus,A33,1961601_west,,
Kaiserstr./Ringstr.,autobus,A33,1961602_west,,
Rathaus Mariendorf,autobus,A33,1961603_west,,
Kaiserstr.,autobus,A33,1961604_west,,
"Spandau, Friedhof",autobus,A34,1961605_west,,
Askanierring,autobus,A34,1961606_west,,
Hafenplatz,autobus,A34,1961607_west,,
Rathaus Spandau,autobus,A34,1961608_west,,
Wilhelmstr. Ecke Pichelsdorferstr.,autobus,A34,1961609_west,,
Adamstr.,autobus,A34,1961610_west,,
Heerstr.,autobus,A34,1961611_west,,
Weinmeisterhornweg,autobus,A34,1961612_west,,
Ortsgrenze Gatow,autobus,A34,1961613_west,,
"Gatow, Kirche",autobus,A34,1961614_west,,
Großglienickerweg,autobus,A34,1961615_west,,
Krankenhaus Hohengatow,autobus,A34,1961616_west,,
Krankenhaus Havelhöhe,autobus,A34,1961617_west,,
Alt-Kladow,autobus,A34,1961618_west,,
Schwiezerhaus,autobus,A34,1961619_west,,
Gutshof,autobus,A34,1961620_west,,
Germersheimerplatz,autobus,A35,1961621_west,,
Askanierring,autobus,A35,1961622_west,,
Rathaus Spandau,autobus,A35,1961623_west,,
Wilhelmstr. Ecke Pichelsdorferstr.,autobus,A35,1961624_west,,
Adamstr.,autobus,A35,1961625_west,,
Heerstr.,autobus,A35,1961626_west,,
Gatowerstr.,autobus,A35,1961627_west,,
Weinmeisterhornweg,autobus,A35,1961628_west,,
Ortsgrenze Gatow,autobus,A35,1961629_west,,
"Gatow, Kirche",autobus,A35,1961630_west,,
Großglienickerweg,autobus,A35,1961631_west,,
Krankenhaus Hohengatow,autobus,A35,1961632_west,,
Krankenhaus Havelhöhe,autobus,A35,1961633_west,,
Alt-Kladow,autobus,A35,1961634_west,,
Krampnitzerweg,autobus,A35,1961635_west,,
Hottengrund,autobus,A35,1961636_west,,
Brixplatz,autobus,A4,1961637_west,,
Reichskanzlerplatz,autobus,A4,1961638_west,,
Messedamm,autobus,A4,1961639_west,,
Bhf. Halensee,autobus,A4,1961640_west,,
Hochmeisterplatz,autobus,A4,1961641_west,,
U-Bhf. Fehrbellinerplatz,autobus,A4,1961642_west,,
Rathaus Schöneberg,autobus,A4,1961643_west,,
Innsbruckerplatz,autobus,A4,1961644_west,,
Dominicusstr.,autobus,A4,1961645_west,,
Kaiser-Wilhelm-Platz,autobus,A4,1961646_west,,
U-Bhf. Flughafen,autobus,A4,1961647_west,,
Friesenstr.,autobus,A4,1961648_west,,
U-Bhf. Boddinstr.,autobus,A4,1961649_west,,
Erkstr. Ecke Sonnenallee,autobus,A4,1961650_west,,
Harzerstr.,autobus,A4,1961651_west,,
Potsdamerstr. Ecke Fischerhüttenstr.,autobus,A48,1961652_west,,
Teltowerdamm,autobus,A48,1961653_west,,
Sundgauerstr.,autobus,A48,1961654_west,,
Dahlemerweg,autobus,A48,1961655_west,,
Drakestr.,autobus,A48,1961656_west,,
Hindenburgdamm,autobus,A48,1961657_west,,
Rathaus Steglitz,autobus,A48,1961658_west,,
Kaisereiche,autobus,A48,1961659_west,,
Innsbruckerplatz,autobus,A48,1961660_west,,
Dominicusstr.,autobus,A48,1961661_west,,
Kaiser-Wilhelm-Platz,autobus,A48,1961662_west,,
Goeben-/Pallasstr.,autobus,A48,1961663_west,,
U-Bhf. Bülowstr.,autobus,A48,1961664_west,,
Lützowstr.,autobus,A48,1961665_west,,
Margaretenstr.,autobus,A48,1961666_west,,
Machandelweg,autobus,A5,1961667_west,,
U-Bhf. Ruhleben,autobus,A5,1961668_west,,
Friedhof Ruhleben,autobus,A5,1961669_west,,
Hauptkinderheim,autobus,A5,1961670_west,,
Teltowerstr.,autobus,A5,1961671_west,,
Grenadierstr.,autobus,A5,1961672_west,,
Stresowplatz,autobus,A5,1961673_west,,
Breitestr.,autobus,A5,1961674_west,,
Rathaus Spandau,autobus,A5,1961675_west,,
Bhf. Spandau-West,autobus,A5,1961676_west,,
Hochgerichtstr.,autobus,A5,1961677_west,,
Falkenseerchaussee,autobus,A5,1961678_west,,
Viersenerstr.,autobus,A5,1961679_west,,
Wolburgsweg,autobus,A5,1961680_west,,
Stadtrandstr.,autobus,A5,1961681_west,,
Waldkrankenhaus,autobus,A5,1961682_west,,
Roseneck,autobus,A50,1961683_west,,
Hohenzollerndamm,autobus,A50,1961684_west,,
Elsterplatz,autobus,A50,1961685_west,,
Forckenbeckstr.,autobus,A50,1961686_west,,
Flinsbergerplatz,autobus,A50,1961687_west,,
Cunostr.,autobus,A50,1961688_west,,
Bhf. Hohenzollerndamm,autobus,A50,1961689_west,,
Konstanzerstr.,autobus,A50,1961690_west,,
Ruhrstr.,autobus,A50,1961691_west,,
Fehrbellinerplatz,autobus,A50,1961692_west,,
Emserplatz,autobus,A50,1961693_west,,
Uhlandstr.,autobus,A50,1961694_west,,
Nassauischestr.,autobus,A50,1961695_west,,
Pragerplatz,autobus,A50,1961696_west,,
Bhf. Wannsee,autobus,A51,1961697_west,,
Königstr./Kronprinzessinnenweg,autobus,A51,1961698_west,,
Am Grossen Wannsee,autobus,A51,1961699_west,,
Koblanckstr.,autobus,A51,1961700_west,,
Colomierstr.,autobus,A51,1961701_west,,
Krankenhaus Wannsee,autobus,A51,1961702_west,,
Zum Heckeshorn,autobus,A51,1961703_west,,
Krankenhaus Heckeshorn,autobus,A51,1961704_west,,
Alt-Marienfelde,autobus,A52,1961705_west,,
Gutshof Marienfelde,autobus,A52,1961706_west,,
Bhf. Buckowerchaussee,autobus,A52,1961707_west,,
Lichtenraderdamm,autobus,A52,1961708_west,,
Bühlerweg,autobus,A52,1961709_west,,
Buckower Friedhof,autobus,A52,1961710_west,,
Buckowerdamm,autobus,A52,1961711_west,,
Grünerweg,autobus,A52,1961712_west,,
Triftweg,autobus,A52,1961713_west,,
Rudowerstr.,autobus,A52,1961714_west,,
Efeuweg,autobus,A52,1961715_west,,
Wildmeisterdamm,autobus,A52,1961716_west,,
Köpenickerstr.,autobus,A52,1961717_west,,
Friedhof Rudow,autobus,A52,1961718_west,,
Kanalstr.,autobus,A52,1961719_west,,
Mimosenweg,autobus,A52,1961720_west,,
Schlachtensee,autobus,A53,1961721_west,,
Waldemarplatz,autobus,A53,1961722_west,,
Bhf. Lindenthalerallee,autobus,A53,1961723_west,,
U-Bhf. Krumme Lanke,autobus,A53,1961724_west,,
Hartmannsweilerweg,autobus,A53,1961725_west,,
Teltowerdamm,autobus,A53,1961726_west,,
Bhf. Zehlendorf,autobus,A53,1961727_west,,
Knesebeckstr.,autobus,A53,1961728_west,,
Jänickestr.,autobus,A53,1961729_west,,
Dahlemerweg,autobus,A53,1961730_west,,
Osteweg,autobus,A53,1961731_west,,
4. Ring,autobus,A53,1961732_west,,
Luzernerstr.,autobus,A53,1961733_west,,
Thunerplatz,autobus,A53,1961734_west,,
Bhf. Wannsee,autobus,A6,1961735_west,,
Königstr.,autobus,A6,1961736_west,,
Am Grossen Wannsee,autobus,A6,1961737_west,,
Endestr.,autobus,A6,1961738_west,,
Pfaueninsel-Chaussee,autobus,A6,1961739_west,,
Rathaus Wannsee,autobus,A6,1961740_west,,
Friedenstr.,autobus,A6,1961741_west,,
Schäferberg,autobus,A6,1961742_west,,
Nikolskoerweg,autobus,A6,1961743_west,,
Schloss Glienicke,autobus,A6,1961744_west,,
Glienicker Brücke,autobus,A6,1961745_west,,
"Roseneck, Hundekehl",autobus,A60,1961746_west,,
Warnemünder/Berkaerstr.,autobus,A60,1961747_west,,
Zappoter/Oeynhauserstr.,autobus,A60,1961748_west,,
"Hamburgerstr., Rudolf-Mosse-Platz",autobus,A60,1961749_west,,
U-Bhf. Heidelbergerplatz,autobus,A60,1961750_west,,
Brabanterplatz,autobus,A60,1961751_west,,
Am Volkspark,autobus,A60,1961752_west,,
Berlinerstr.,autobus,A60,1961753_west,,
Postamt,autobus,A60,1961754_west,,
Güntzelstr.,autobus,A60,1961755_west,,
Ludwigkirchstr./Pariserstr.,autobus,A60,1961756_west,,
Joachimstalerstr.,autobus,A60,1961757_west,,
Breitscheidplatz,autobus,A60,1961758_west,,
Wittenbergplatz,autobus,A60,1961759_west,,
Zobeltitzstr.,autobus,A61,1961760_west,,
"U-Bhf. Scharnweberstr., Sportplatz",autobus,A61,1961761_west,,
Schillingstr.,autobus,A61,1961762_west,,
U-Bhf. Kurt-Schumacher-Platz,autobus,A61,1961763_west,,
Humboldtstr.,autobus,A61,1961764_west,,
Sebastianfriedhof,autobus,A61,1961765_west,,
Teichstr.,autobus,A61,1961766_west,,
Aroserallee,autobus,A61,1961767_west,,
Osloerstr.,autobus,A61,1961768_west,,
Exerzierstr.,autobus,A61,1961769_west,,
Pankstr.,autobus,A61,1961770_west,,
Bhf. Gesundbrunnen,autobus,A61,1961771_west,,
Rügenerstr.,autobus,A61,1961772_west,,
Bernauerstr.,autobus,A61,1961773_west,,
"Gartenplatz, Feldstr.",autobus,A61,1961774_west,,
Wittenau,autobus,A62,1961775_west,,
Alt-Wittenau,autobus,A62,1961776_west,,
Bonhoeffer-Heim,autobus,A62,1961777_west,,
Auguste-Viktoria-Allee,autobus,A62,1961778_west,,
U-Bhf. Kurt-Schumacher-Platz,autobus,A62,1961779_west,,
Saatwinklerdamm,autobus,A62,1961780_west,,
Heckerdamm,autobus,A62,1961781_west,,
Bhf. Jungfernheide,autobus,A62,1961782_west,,
Luisenplatz,autobus,A62,1961783_west,,
Richard-Wagner-Platz,autobus,A62,1961784_west,,
Leibnizstr. Ecke Otto-Suhr-Allee,autobus,A62,1961785_west,,
U-Bhf. Ernst-Reuter-Platz,autobus,A62,1961786_west,,
Bhf. Zoo,autobus,A62,1961787_west,,
Marburgerstr.,autobus,A62,1961788_west,,
Wittenbergplatz,autobus,A62,1961789_west,,
Radelandstr.,autobus,A63,1961790_west,,
Bötzowbahn,autobus,A63,1961791_west,,
Kisselnallee Ecke Radelandstr.,autobus,A63,1961792_west,,
Zweibrückerstr.,autobus,A63,1961793_west,,
Askanierring,autobus,A63,1961794_west,,
Bezirksamt,autobus,A63,1961795_west,,
Rathaus Spandau,autobus,A63,1961796_west,,
Bhf. Spandau-West,autobus,A63,1961797_west,,
Staakenerstr.,autobus,A63,1961798_west,,
Hochgerichtstr.,autobus,A63,1961799_west,,
Viersenerstr.,autobus,A63,1961800_west,,
Dyotzerstr.,autobus,A63,1961801_west,,
Leuthingerweg,autobus,A63,1961802_west,,
Strasse 393,autobus,A63,1961803_west,,
Seegefelderweg,autobus,A63,1961804_west,,
Bernauerstr. Ecke Wollinerstr.,autobus,A64,1961805_west,,
Demminerstr. Ecke Brunnenstr.,autobus,A64,1961806_west,,
Ramlerstr. Ecke Brunnenstr.,autobus,A64,1961807_west,,
U-Bhf. Gesundbrunnen,autobus,A64,1961808_west,,
Prinzenallee Ecke Badstr.,autobus,A64,1961809_west,,
Schwedenstr. Ecke Exerzierstr.,autobus,A64,1961810_west,,
Schulstr. Ecke Exerzierstr.,autobus,A64,1961811_west,,
Reinickendorferstr. Ecke Schulstr.,autobus,A64,1961812_west,,
Leopoldplatz,autobus,A64,1961813_west,,
Tegelerstr. Ecke Trifstr.,autobus,A64,1961814_west,,
Augustenburgerplatz,autobus,A64,1961815_west,,
Seestr. Ecke Afrikanischestr.,autobus,A64,1961816_west,,
Transvaalstr. Ecke Africkanischestr.,autobus,A64,1961817_west,,
Nachtigalplatz,autobus,A64,1961818_west,,
Goebelplatz,autobus,A65,1961819_west,,
Kurt-Schumacher-Damme,autobus,A65,1961820_west,,
Bhf. Jungfernheide,autobus,A65,1961821_west,,
Landgericht,autobus,A65,1961822_west,,
Schlossbrücke,autobus,A65,1961823_west,,
Luisenplatz,autobus,A65,1961824_west,,
Bhf. Westend,autobus,A65,1961825_west,,
Königin-Elisabethstr.,autobus,A65,1961826_west,,
U-Bhf. Kaiserdamm,autobus,A65,1961827_west,,
Masurenallee,autobus,A65,1961828_west,,
Rathenauplatz,autobus,A65,1961829_west,,
Bhf. Hohenzollerndamm,autobus,A65,1961830_west,,
U-Bhf. Heidelbergplatz,autobus,A65,1961831_west,,
Bundesplatz,autobus,A65,1961832_west,,
Innsbruckerplatz,autobus,A65,1961833_west,,
Bhf. Schöneberg,autobus,A65,1961834_west,,
Alt-Tempelhof Ecke Tempelhoferdamm,autobus,A65,1961835_west,,
Hermannstr. Ecke Silbersteinstr.,autobus,A65,1961836_west,,
Bhf. Neukölln,autobus,A65,1961837_west,,
Bhf. Sonnenallee,autobus,A65,1961838_west,,
"Doppel-Süd, Berlepschstr.",autobus,A66,1961839_west,,
Andreezeile,autobus,A66,1961840_west,,
Machnowerstr. Ecke Berlepschstr.,autobus,A66,1961841_west,,
Rathaus Zehlendorf,autobus,A66,1961842_west,,
Clayallee Ecke Berlinerstr.,autobus,A66,1961843_west,,
Schützallee Ecke Onkel-Tomstr.,autobus,A66,1961844_west,,
U-Bhf. Onkel-Toms-Hütte,autobus,A66,1961845_west,,
"Jerusalems-Kirche, Lindenstr.",autobus,A67,1961846_west,,
Moritzplatz,autobus,A67,1961847_west,,
Oranienplatz,autobus,A67,1961848_west,,
U-Bhf. Kottbusser Tor,autobus,A67,1961849_west,,
Kottbusser Brücke,autobus,A67,1961850_west,,
Hohenstaufenplatz,autobus,A67,1961851_west,,
Hermannplatz,autobus,A67,1961852_west,,
Reuterstr.,autobus,A67,1961853_west,,
Fuldastr.,autobus,A67,1961854_west,,
Erkstr.,autobus,A67,1961855_west,,
Hertzbergplatz,autobus,A67,1961856_west,,
Bhf. Sonnenallee,autobus,A67,1961857_west,,
Dammweg,autobus,A67,1961858_west,,
Neuköllnischeallee,autobus,A67,1961859_west,,
Am Oberhafen,autobus,A67,1961860_west,,
U-Bhf. Grenzallee,autobus,A67,1961861_west,,
Clayallee Ecke Königin-Luisestr.,autobus,A68,1961862_west,,
Vogelsang,autobus,A68,1961863_west,,
Thielallee/Pacelliallee,autobus,A68,1961864_west,,
U-Bhf. Dahlem-Dorf,autobus,A68,1961865_west,,
Arnimallee,autobus,A68,1961866_west,,
Botanischer Garten,autobus,A68,1961867_west,,
Lepsiusstr.,autobus,A68,1961868_west,,
Rathaus Steglitz,autobus,A68,1961869_west,,
Breitestr.,autobus,A68,1961870_west,,
Bergstr.,autobus,A68,1961871_west,,
Bergstr. Ecke Bismarckstr.,autobus,A68,1961872_west,,
Munsterdamm Ecke Grazerdamm,autobus,A68,1961873_west,,
Alboinstr. Ecke Arnulfstr.,autobus,A68,1961874_west,,
Attilaplatz,autobus,A68,1961875_west,,
Tempehoferdamm Ecke Friedrich-Karlstr.,autobus,A68,1961876_west,,
Kaiserin-Augustastr. Ecke Tempelhoferdamm,autobus,A68,1961877_west,,
Alt-Tempelhof Ecke Tempelhoferdamm,autobus,A68,1961878_west,,
Bhf. Tempelhof,autobus,A68,1961879_west,,
Eichkamp,autobus,A69,1961880_west,,
Trabenerstr.,autobus,A69,1961881_west,,
Bhf. Halensee,autobus,A69,1961882_west,,
Joachim-Friedrichstr. Ecke Kurfürstendamm,autobus,A69,1961883_west,,
Wilmersdorferstr. Ecke Kurfürstendamm,autobus,A69,1961884_west,,
Leibnizstr. Ecke Kurfürstendamm,autobus,A69,1961885_west,,
Bleibtreustr. Ecke Kurfürstendamm,autobus,A69,1961886_west,,
Uhlandstr. Ecke Kurfürstendamm,autobus,A69,1961887_west,,
Joachimstalerstr. Ecke Kurfürstendamm,autobus,A69,1961888_west,,
Nürnbergerstr. Ecke Kurfürstenstr.,autobus,A69,1961889_west,,
Nettelbeckstr.,autobus,A69,1961890_west,,
Lützowplatz,autobus,A69,1961891_west,,
Tiergartenstr.,autobus,A69,1961892_west,,
Großer Stern,autobus,A69,1961893_west,,
Kongreßhalle,autobus,A69,1961894_west,,
Bhf. Wollankstr.,autobus,A70,1961895_west,,
Osloerstr.,autobus,A70,1961896_west,,
Badstr.,autobus,A70,1961897_west,,
Wiesenstr.,autobus,A70,1961898_west,,
Bhf. Wedding,autobus,A70,1961899_west,,
Weddingplatz,autobus,A70,1961900_west,,
Am Nordhafen,autobus,A70,1961901_west,,
Rathenowerstr.,autobus,A70,1961902_west,,
Turmstr./Rathenowerstr.,autobus,A70,1961903_west,,
Krankenhaus Moabit,autobus,A70,1961904_west,,
Stromstr.,autobus,A70,1961905_west,,
Rathaus Tiergarten,autobus,A70,1961906_west,,
Waldstr./Gotzkowskystr.,autobus,A70,1961907_west,,
Reuchlinstr.,autobus,A70,1961908_west,,
"Wiebestr., Strassenbahnhof",autobus,A70,1961909_west,,
Bhf. Wilhelmsruh,autobus,A71,1961910_west,,
Lindauerstr.,autobus,A71,1961911_west,,
Emmentalerstr.,autobus,A71,1961912_west,,
"Schäfersee, Pankowerallee",autobus,A71,1961913_west,,
"Letteplatz, Strassenbahnhof",autobus,A71,1961914_west,,
Provinzstr./Pankowerallee,autobus,A71,1961915_west,,
Ritterlandweg,autobus,A71,1961916_west,,
Prinzenallee/Soldinerstr.,autobus,A71,1961917_west,,
Osloerstr.,autobus,A71,1961918_west,,
Badstr./Prinzenallee,autobus,A71,1961919_west,,
Bhf. Gesundbrunnen,autobus,A71,1961920_west,,
Ramlerstr.,autobus,A71,1961921_west,,
Rügenerstr.,autobus,A71,1961922_west,,
Usedomerstr.,autobus,A71,1961923_west,,
Bernauerstr./Brunnenstr.,autobus,A71,1961924_west,,
Bernauerstr. Ecke Wollinerstr.,autobus,A71,1961925_west,,
Alt-Reinickendorf Ecke Rödernallee,autobus,A72,1961926_west,,
Lindauerstr. Ecke Residenzstr.,autobus,A72,1961927_west,,
Pankowerallee Ecke Residenzstr.,autobus,A72,1961928_west,,
Luise-Schröder-Platz,autobus,A72,1961929_west,,
Nauenerplatz,autobus,A72,1961930_west,,
Weddingplatz,autobus,A72,1961931_west,,
Rathenowerstr. Ecke Perlebergerstr.,autobus,A72,1961932_west,,
Turmstr. Ecke Stromstr.,autobus,A72,1961933_west,,
Waldstr. Ecke Turmstr.,autobus,A72,1961934_west,,
Wiebestr. Ecke Kaiserin-Augusta-Allee,autobus,A72,1961935_west,,
Tauroggenerstr. Ecke Osnabrückerstr.,autobus,A72,1961936_west,,
Landgericht,autobus,A72,1961937_west,,
Jakob-Kaiser-Platz,autobus,A72,1961938_west,,
Quellweg Ecke Nonnendammallee,autobus,A72,1961939_west,,
"Nonnendammallee, Siemensstadt",autobus,A72,1961940_west,,
Bhf. Zoo,autobus,A73,1961941_west,,
Wittenbergplatz,autobus,A73,1961942_west,,
Motzstr.,autobus,A73,1961943_west,,
Grunewaldstr.,autobus,A73,1961944_west,,
Rathaus Schöneberg,autobus,A73,1961945_west,,
Hauptstr. Ecke Dominicusstr.,autobus,A73,1961946_west,,
Bhf. Schöneberg,autobus,A73,1961947_west,,
Bhf. Papestr.,autobus,A73,1961948_west,,
Berlinickeplatz,autobus,A73,1961949_west,,
Alt-Tempelhof Ecke Tempelhoferdamm,autobus,A73,1961950_west,,
Rohdestr. Ecke Germaniastr.,autobus,A73,1961951_west,,
Gottlieb-Dunkelstr. Ecke Tempelhoferweg,autobus,A73,1961952_west,,
Britzerdamm Ecke Gradestr.,autobus,A73,1961953_west,,
Buschkrug Alle Ecke Blaschko-Allee,autobus,A73,1961954_west,,
Königin-Elisabethstr.,autobus,A74,1961955_west,,
Spandauerdamm,autobus,A74,1961956_west,,
Klausenerplatz,autobus,A74,1961957_west,,
Schlossstr. Ecke Seelingstr.,autobus,A74,1961958_west,,
Kaiser-Friedrichstr.,autobus,A74,1961959_west,,
Stuttgarterplatz,autobus,A74,1961960_west,,
Fehrbellinerplatz,autobus,A74,1961961_west,,
Martin-Lutherstr. Ecke Grunewaldstr.,autobus,A74,1961962_west,,
Rathaus Schöneberg,autobus,A74,1961963_west,,
Hauptstr. (Schöneberg),autobus,A74,1961964_west,,
Bhf. Papestr.,autobus,A74,1961965_west,,
Bosestr.,autobus,A74,1961966_west,,
Eythstr.,autobus,A74,1961967_west,,
Munsterdamm Ecke Steglitzerdamm,autobus,A75,1961968_west,,
Bergstr. Ecke Bismarckstr.,autobus,A75,1961969_west,,
Lauenburgerplatz,autobus,A75,1961970_west,,
Kaisereiche,autobus,A75,1961971_west,,
Innsbruckerplatz,autobus,A75,1961972_west,,
Hauptstr. Ecke Dominicusstr.,autobus,A75,1961973_west,,
Kaiser-Wilhelm-Platz,autobus,A75,1961974_west,,
U-Bhf. Bülowstr.,autobus,A75,1961975_west,,
Am Karlsbad,autobus,A75,1961976_west,,
Askanischerplatz,autobus,A75,1961977_west,,
U-Bhf. Kochstr.,autobus,A75,1961978_west,,
Oranienstr.,autobus,A75,1961979_west,,
U-Bhf. Moritzplatz,autobus,A75,1961980_west,,
Skalitzerstr.,autobus,A75,1961981_west,,
Spreewaldplatz,autobus,A75,1961982_west,,
Wiener Brücke,autobus,A75,1961983_west,,
Blohmstr. Ecke Wünsdorferstr.,autobus,A76,1961984_west,,
Bhf. Lichtenrade,autobus,A76,1961985_west,,
Marienfelderstr. Ecke Lichtenraderdamm,autobus,A76,1961986_west,,
Goethestr. Ecke Lichtenraderdamm,autobus,A76,1961987_west,,
Buckowerchaussee Ecke Lichtenraderdamm,autobus,A76,1961988_west,,
Rennbahn,autobus,A76,1961989_west,,
Alt-Mariendorf Ecke Tempelhoferdamm,autobus,A76,1961990_west,,
Kaiserstr. Ecke Mariendorferdamm,autobus,A76,1961991_west,,
Burgemeisterstr. Ecke Tempelhoferdamm,autobus,A76,1961992_west,,
Alt-Tempelhof Ecke Tempelhoferdamm,autobus,A76,1961993_west,,
U-Bhf. Tempelhof,autobus,A76,1961994_west,,
Thuyring,autobus,A76,1961995_west,,
Flughafen Tempelhof,autobus,A76,1961996_west,,
Platz der Luftbrücke,autobus,A76,1961997_west,,
Daimlerstr.,autobus,A77,1961998_west,,
Bhf. Marienfelde,autobus,A77,1961999_west,,
Körtingstr.,autobus,A77,19611000_west,,
Mariendorferdamm,autobus,A77,19611001_west,,
Kaiserstr. Ecke Mariendorferdamm,autobus,A77,19611002_west,,
Markgrafenstr. Ecke Mariendorferdamm,autobus,A77,19611003_west,,
Burgemeisterstr. Ecke Tempelhoferdamm,autobus,A77,19611004_west,,
Rathaus Tempelhof,autobus,A77,19611005_west,,
Alt-Tempelhof Ecke Tempelhoferdamm,autobus,A77,19611006_west,,
U-Bhf. Tempelhof,autobus,A77,19611007_west,,
Thuyring,autobus,A77,19611008_west,,
Paradestr.,autobus,A77,19611009_west,,
Flughafen Tempelhof,autobus,A77,19611010_west,,
Platz der Luftbrücke,autobus,A77,19611011_west,,
Bhf. Zoo,autobus,AS1,19611012_west,,
U-Bhf. Ernst-Reuter-Platz,autobus,AS1,19611013_west,,
Cauerstr.,autobus,AS1,19611014_west,,
Luisenplatz,autobus,AS1,19611015_west,,
Fürstenbrunnerweg,autobus,AS1,19611016_west,,
Schloss Ruhwald,autobus,AS1,19611017_west,,
U-Bhf. Ruhleben,autobus,AS1,19611018_west,,
Teltowerstr.,autobus,AS1,19611019_west,,
Rathaus Spandau,autobus,AS1,19611020_west,,
Hafenplatz,autobus,AS1,19611021_west,,
Lynastr.,autobus,AS1,19611022_west,,
Klinkeplatz,autobus,AS1,19611023_west,,
Hohenzollernring,autobus,AS1,19611024_west,,
Bhf. Zoo,autobus,AS2,19611025_west,,
Hardenbergstr.,autobus,AS2,19611026_west,,
"Rankeplatz, Bundeshaus",autobus,AS2,19611027_west,,
Berlinerstr.,autobus,AS2,19611028_west,,
Bundesplatz,autobus,AS2,19611029_west,,
"Schlossstr., Wilhelm-Schreiber-Platz",autobus,AS2,19611030_west,,
Canovastr.,autobus,AS2,19611031_west,,
Attilaplatz,autobus,AS2,19611032_west,,
Mariendorferdamm,autobus,AS2,19611033_west,,
Alt-Mariendorf,autobus,AS2,19611034_west,,
"Tauernallee, Adlermühle",autobus,AS2,19611035_west,,
Buckowerchaussee,autobus,AS2,19611036_west,,
"Lichtenrade, Goethestr.",autobus,AS2,19611037_west,,
Goltzstr.,autobus,AS2,19611038_west,,
Bhf. Lichtenrade,autobus,AS2,19611039_west,,
"Lichtenrade, Blohmstr. Ecke Wünsdorferstr.",autobus,AS2,19611040_west,,
Bhf. Zoo,autobus,AS3,19611041_west,,
Hardenbergstr.,autobus,AS3,19611042_west,,
Rankeplatz/Bundeshaus,autobus,AS3,19611043_west,,
U-Bhf. Fehrbellinerplatz,autobus,AS3,19611044_west,,
Bhf. Hohenzollerndamm,autobus,AS3,19611045_west,,
"Berkaerstr., Elsterplatz",autobus,AS3,19611046_west,,
Roseneck,autobus,AS3,19611047_west,,
Pücklerstr.,autobus,AS3,19611048_west,,
Königin-Luisestr.,autobus,AS3,19611049_west,,
U-Bhf. Oskar-Helene-Heim,autobus,AS3,19611050_west,,
Sundgauerstr.,autobus,AS3,19611051_west,,
Winfriedstr.,autobus,AS3,19611052_west,,
Clayallee/Teltowerdamm,autobus,AS3,19611053_west,,
Rathaus Zehlendorf,autobus,AS3,19611054_west,,
Gleisdreieck,u-bahn,A I,19611055_west,,
Bülowstr.,u-bahn,A I,19611056_west,,
Nollendorfplatz,u-bahn,A I,19611057_west,,
Wittenbergplatz,u-bahn,A I,19611058_west,,
Zoologischer Garten,u-bahn,A I,19611059_west,,
Ernst-Reuter-Platz,u-bahn,A I,19611060_west,,
Deutsche Oper (Bismarckstr.),u-bahn,A I,19611061_west,,
Sophie-Charlotte-Platz,u-bahn,A I,19611062_west,,
Kaiserdamm (Messedamm),u-bahn,A I,19611063_west,,
Reichskanzlerplatz,u-bahn,A I,19611064_west,,
Kottbusser Tor,u-bahn,A II,19611065_west,,
Prinzenstr.,u-bahn,A II,19611066_west,,
Hallesches Tor,u-bahn,A II,19611067_west,,
Möckernbrücke,u-bahn,A II,19611068_west,,
Gleisdreieck,u-bahn,A II,19611069_west,,
Kurfürstenstr.,u-bahn,A II,19611070_west,,
Nollendorfplatz,u-bahn,A II,19611071_west,,
Wittenbergplatz,u-bahn,A II,19611072_west,,
Augsburgerstr.,u-bahn,A II,19611073_west,,
Spichernstr. (Bundesallee),u-bahn,A II,19611074_west,,
Hohenzollernplatz,u-bahn,A II,19611075_west,,
Fehrbellinerplatz,u-bahn,A II,19611076_west,,
Heidelbergerplatz,u-bahn,A II,19611077_west,,
Rüdesheimerplatz,u-bahn,A II,19611078_west,,
Breitenbachplatz,u-bahn,A II,19611079_west,,
Podbielskiallee,u-bahn,A II,19611080_west,,
Dahlem-Dorf,u-bahn,A II,19611081_west,,
Thielplatz,u-bahn,A II,19611082_west,,
Oskar-Helene-Heim,u-bahn,A II,19611083_west,,
Onkel Toms Hütte,u-bahn,A II,19611084_west,,
Krumme Lanke,u-bahn,A II,19611085_west,,
Deutsche Oper (Bismarckstr.),u-bahn,A III,19611086_west,,
Richard-Wagner-Platz,u-bahn,A III,19611087_west,,
Schlesisches Tor,u-bahn,B I,19611088_west,,
Görlitzer Bahnhof (Oranienstr.),u-bahn,B I,19611089_west,,
Kottbusser Tor,u-bahn,B I,19611090_west,,
Prinzenstr.,u-bahn,B I,19611091_west,,
Hallesches Tor,u-bahn,B I,19611092_west,,
Möckernbrücke,u-bahn,B I,19611093_west,,
Gleisdreieck,u-bahn,B I,19611094_west,,
Kurfürstenstr.,u-bahn,B I,19611095_west,,
Nollendorfplatz,u-bahn,B I,19611096_west,,
Wittenbergplatz,u-bahn,B I,19611097_west,,
Zoologischer Garten,u-bahn,B I,19611098_west,,
Ernst-Reuter-Platz,u-bahn,B I,19611099_west,,
Deutsche Oper (Bismarckstr.),u-bahn,B I,19611100_west,,
Sophie-Charlotte-Platz,u-bahn,B I,19611101_west,,
Kaiserdamm (Messedamm),u-bahn,B I,19611102_west,,
Reichskanzlerplatz,u-bahn,B I,19611103_west,,
Neu-Westend,u-bahn,B I,19611104_west,,
Olympia-Stadion,u-bahn,B I,19611105_west,,
Ruhleben,u-bahn,B I,19611106_west,,
Schlesisches Tor,u-bahn,B II,19611107_west,,
Görlitzer Bahnhof (Oranienstr.),u-bahn,B II,19611108_west,,
Kottbusser Tor,u-bahn,B II,19611109_west,,
Prinzenstr.,u-bahn,B II,19611110_west,,
Hallesches Tor,u-bahn,B II,19611111_west,,
Möckernbrücke,u-bahn,B II,19611112_west,,
Gleisdreieck,u-bahn,B II,19611113_west,,
Kurfürstenstr.,u-bahn,B II,19611114_west,,
Nollendorfplatz,u-bahn,B II,19611115_west,,
Wittenbergplatz,u-bahn,B II,19611116_west,,
Augsburgerstr.,u-bahn,B II,19611117_west,,
Hohenzollernplatz,u-bahn,B II,19611118_west,,
Fehrbellinerplatz,u-bahn,B II,19611119_west,,
Heidelbergerplatz,u-bahn,B II,19611120_west,,
Rüdesheimerplatz,u-bahn,B II,19611121_west,,
Breitenbachplatz,u-bahn,B II,19611122_west,,
Podbielskiallee,u-bahn,B II,19611123_west,,
Dahlem-Dorf,u-bahn,B II,19611124_west,,
Thielplatz,u-bahn,B II,19611125_west,,
Oskar-Helene-Heim,u-bahn,B II,19611126_west,,
Onkel Toms Hütte,u-bahn,B II,19611127_west,,
Krumme Lanke,u-bahn,B II,19611128_west,,
Nollendorfplatz,u-bahn,B III,19611129_west,,
Viktoria-Luise-Platz,u-bahn,B III,19611130_west,,
Bayerischerplatz,u-bahn,B III,19611131_west,,
Rathaus Schöneberg,u-bahn,B III,19611132_west,,
Innsbruckerplatz (Hauptstr.),u-bahn,B III,19611133_west,,
Tegel,u-bahn,C I,19611134_west,,
Borsigwerke,u-bahn,C I,19611135_west,,
Holzhauserstr.,u-bahn,C I,19611136_west,,
Seidelstr. (Flughafen Tegel),u-bahn,C I,19611137_west,,
Scharnweberstr. (Eichborndamm),u-bahn,C I,19611138_west,,
Kurt-Schumacher-Platz,u-bahn,C I,19611139_west,,
Afrikanischestr.,u-bahn,C I,19611140_west,,
Rehberge,u-bahn,C I,19611141_west,,
Seestr.,u-bahn,C I,19611142_west,,
Leopoldplatz,u-bahn,C I,19611143_west,,
Bahnhof Wedding,u-bahn,C I,19611144_west,,
Reinickendorferstr.,u-bahn,C I,19611145_west,,
Bahnhof Friedrichstr. (Stadtbahn),u-bahn,C I,19611146_west,,
Kochstr.,u-bahn,C I,19611147_west,,
Hallesches Tor,u-bahn,C I,19611148_west,,
Mehringdamm,u-bahn,C I,19611149_west,,
Gneisenaustr.,u-bahn,C I,19611150_west,,
Südstern,u-bahn,C I,19611151_west,,
Hermannplatz,u-bahn,C I,19611152_west,,
Rathaus Neukölln,u-bahn,C I,19611153_west,,
Karl-Marxstr.,u-bahn,C I,19611154_west,,
Neukölln (Südring),u-bahn,C I,19611155_west,,
Grenzallee,u-bahn,C I,19611156_west,,
Mehringdamm,u-bahn,C II,19611157_west,,
Flughafen,u-bahn,C II,19611158_west,,
Paradestr.,u-bahn,C II,19611159_west,,
Tempelhof (Südring),u-bahn,C II,19611160_west,,
Gesundbrunnen,u-bahn,D,19611161_west,,
Voltastr.,u-bahn,D,19611162_west,,
Moritzplatz,u-bahn,D,19611163_west,,
Kottbusser Tor,u-bahn,D,19611164_west,,
Kottbusserdamm (Schönleinstr.),u-bahn,D,19611165_west,,
Hermannplatz,u-bahn,D,19611166_west,,
Boddinstr.,u-bahn,D,19611167_west,,
Leinestr.,u-bahn,D,19611168_west,,
Gesundbrunnen,s-bahn,KBS 100,19611169_west,,
Wedding,s-bahn,KBS 100,19611170_west,,
Putlitzstr.,s-bahn,KBS 100,19611171_west,,
Beusselstr.,s-bahn,KBS 100,19611172_west,,
Jungfernheide,s-bahn,KBS 100,19611173_west,,
Westend,s-bahn,KBS 100,19611174_west,,
Witzleben,s-bahn,KBS 100,19611175_west,,
Westkreuz,s-bahn,KBS 100,19611176_west,,
Halensee,s-bahn,KBS 100,19611177_west,,
Hohenzollerndamm,s-bahn,KBS 100,19611178_west,,
Schmargendorf,s-bahn,KBS 100,19611179_west,,
Wilmersdorf,s-bahn,KBS 100,19611180_west,,
Innsbruckerplatz,s-bahn,KBS 100,19611181_west,,
Schöneberg,s-bahn,KBS 100,19611182_west,,
Papestr.,s-bahn,KBS 100,19611183_west,,
Tempelhof,s-bahn,KBS 100,19611184_west,,
Hermannstr.,s-bahn,KBS 100,19611185_west,,
Neukölln,s-bahn,KBS 100,19611186_west,,
Sonnenallee,s-bahn,KBS 100,19611187_west,,
Wilmersdorf,s-bahn,KBS 100a,19611188_west,,
Innsbruckerplatz,s-bahn,KBS 100a,19611189_west,,
Schöneberg,s-bahn,KBS 100a,19611190_west,,
Papestr.,s-bahn,KBS 100a,19611191_west,,
Tempelhof,s-bahn,KBS 100a,19611192_west,,
Hermannstr.,s-bahn,KBS 100a,19611193_west,,
Neukölln,s-bahn,KBS 100a,19611194_west,,
Köllnische Heide,s-bahn,KBS 100a,19611195_west,,
Baumschulenweg,s-bahn,KBS 100a,19611196_west,,
Schöneweide,s-bahn,KBS 100a,19611197_west,,
Betriebsbahnhof Schöneweide,s-bahn,KBS 100a,19611198_west,,
Adlershof,s-bahn,KBS 100a,19611199_west,,
Grünau,s-bahn,KBS 100a,19611200_west,,
Gartenfeld,s-bahn,KBS 100c,19611201_west,,
Siemensstadt,s-bahn,KBS 100c,19611202_west,,
Wernerwerk,s-bahn,KBS 100c,19611203_west,,
Jungfernheide,s-bahn,KBS 100c,19611204_west,,
Spandau West,s-bahn,KBS 101,19611205_west,,
Spandau,s-bahn,KBS 101,19611206_west,,
Pichelsberg,s-bahn,KBS 101,19611207_west,,
Olympiastadion,s-bahn,KBS 101,19611208_west,,
Heerstr.,s-bahn,KBS 101,19611209_west,,
Eichkamp,s-bahn,KBS 101,19611210_west,,
Westkreuz,s-bahn,KBS 101,19611211_west,,
Charlottenburg,s-bahn,KBS 101,19611212_west,,
Savignyplatz,s-bahn,KBS 101,19611213_west,,
Zoologischer Garten,s-bahn,KBS 101,19611214_west,,
Tiergarten,s-bahn,KBS 101,19611215_west,,
Bellevue,s-bahn,KBS 101,19611216_west,,
Lehrter Stadtbahnhof,s-bahn,KBS 101,19611217_west,,
Friedrichstr.,s-bahn,KBS 101,19611218_west,,
Wannsee,s-bahn,KBS 102,19611219_west,,
Nikolassee,s-bahn,KBS 102,19611220_west,,
Grunewald,s-bahn,KBS 102,19611221_west,,
Westkreuz,s-bahn,KBS 102,19611222_west,,
Charlottenburg,s-bahn,KBS 102,19611223_west,,
Savignyplatz,s-bahn,KBS 102,19611224_west,,
Zoologischer Garten,s-bahn,KBS 102,19611225_west,,
Tiergarten,s-bahn,KBS 102,19611226_west,,
Bellevue,s-bahn,KBS 102,19611227_west,,
Lehrter Stadtbahnhof,s-bahn,KBS 102,19611228_west,,
Friedrichstr.,s-bahn,KBS 102,19611229_west,,
Spandau West,s-bahn,KBS 103a,19611230_west,,
Spandau,s-bahn,KBS 103a,19611231_west,,
Siemensstadt-Fürstenbrunn,s-bahn,KBS 103a,19611232_west,,
Jungfernheide,s-bahn,KBS 103a,19611233_west,,
Zehlendorf,s-bahn,KBS 104a,19611234_west,,
Düppel-Kleinmachnow,s-bahn,KBS 104a,19611235_west,,
Gesundbrunnen,s-bahn,KBS 104,19611236_west,,
Humboldthain,s-bahn,KBS 104,19611237_west,,
Friedrichstr.,s-bahn,KBS 104,19611238_west,,
Anhalter Bahnhof,s-bahn,KBS 104,19611239_west,,
Großgörschenstr.,s-bahn,KBS 104,19611240_west,,
Schöneberg,s-bahn,KBS 104,19611241_west,,
Friedenau,s-bahn,KBS 104,19611242_west,,
Feuerbachstr.,s-bahn,KBS 104,19611243_west,,
Steglitz,s-bahn,KBS 104,19611244_west,,
Botanischer Garten,s-bahn,KBS 104,19611245_west,,
Lichterfelde West,s-bahn,KBS 104,19611246_west,,
Sundgauerstr.,s-bahn,KBS 104,19611247_west,,
Zehlendorf,s-bahn,KBS 104,19611248_west,,
Lindenthalerallee,s-bahn,KBS 104,19611249_west,,
Schlachtensee,s-bahn,KBS 104,19611250_west,,
Nikolassee,s-bahn,KBS 104,19611251_west,,
Wannsee,s-bahn,KBS 104,19611252_west,,
Heiligensee,s-bahn,KBS 105,19611253_west,,
Schulzendorf (b Tegel),s-bahn,KBS 105,19611254_west,,
Tegel,s-bahn,KBS 105,19611255_west,,
Eichbornstr.,s-bahn,KBS 105,19611256_west,,
Wittenau (Kremmener Bahn),s-bahn,KBS 105,19611257_west,,
Reinickendorf,s-bahn,KBS 105,19611258_west,,
Schönholz,s-bahn,KBS 105,19611259_west,,
Wollankstr.,s-bahn,KBS 105,19611260_west,,
Gesundbrunnen,s-bahn,KBS 105,19611261_west,,
Humboldthain,s-bahn,KBS 105,19611262_west,,
Friedrichstr.,s-bahn,KBS 105,19611263_west,,
Anhalter Bahnhof,s-bahn,KBS 105,19611264_west,,
Yorckstr.,s-bahn,KBS 105,19611265_west,,
Papestr.,s-bahn,KBS 105,19611266_west,,
Priesterweg,s-bahn,KBS 105,19611267_west,,
Mariendorf,s-bahn,KBS 105,19611268_west,,
Marienfelde,s-bahn,KBS 105,19611269_west,,
Buckower Ch.,s-bahn,KBS 105,19611270_west,,
Lichtenrade,s-bahn,KBS 105,19611271_west,,
Frohnau,s-bahn,KBS 106,19611272_west,,
Hermsdorf,s-bahn,KBS 106,19611273_west,,
Waidmannslust,s-bahn,KBS 106,19611274_west,,
Wittenau (Nordbahn),s-bahn,KBS 106,19611275_west,,
Wilhelmsruh,s-bahn,KBS 106,19611276_west,,
Schönholz,s-bahn,KBS 106,19611277_west,,
Wollankstr.,s-bahn,KBS 106,19611278_west,,
Gesundbrunnen,s-bahn,KBS 106,19611279_west,,
Humboldthain,s-bahn,KBS 106,19611280_west,,
Friedrichstr.,s-bahn,KBS 106,19611281_west,,
Anhalter Bahnhof,s-bahn,KBS 106,19611282_west,,
Yorckstr.,s-bahn,KBS 106,19611283_west,,
Papestr.,s-bahn,KBS 106,19611284_west,,
Priesterweg,s-bahn,KBS 106,19611285_west,,
Südende,s-bahn,KBS 106,19611286_west,,
Lankwitz,s-bahn,KBS 106,19611287_west,,
Lichterfelde Ost,s-bahn,KBS 106,19611288_west,,
Lichterfelde Süd,s-bahn,KBS 106,19611289_west,,
Kladow,ferry,Wannsee<>Kladow (Betrieb durch Stern und Kreisschiffahrt),19611290_west,,
Wannsee,ferry,Wannsee<>Kladow (Betrieb durch Stern und Kreisschiffahrt),19611291_west,,
