stop_name,type,line_name,stop_id,location,identifier
Hallesches Tor (Stresemannstr.),tram,1,19510_unified,,
Prinzenstr.,tram,1,19511_unified,,
U-Bhf. Moritzplatz,tram,1,19512_unified,,
Brückenstr./Neanderstr.,tram,1,19513_unified,,
Schillingbrücke,tram,1,19514_unified,,
Andreasplatz,tram,1,19515_unified,,
Alexanderplatz,tram,1,19516_unified,,
Rosentalerplatz,tram,1,19517_unified,,
Invalidenstr. Ecke Chausseestr.,tram,1,19518_unified,,
Oranienburger Tor,tram,1,19519_unified,,
Dorotheestr. (Bhf. Friedrichstr.),tram,1,195110_unified,,
Charlottenstr. Ecke Unter den Linden,tram,1,195111_unified,,
Werftstr. Ecke Alt-Moabit,tram,2,195112_unified,,
"Rathenowerstr., Kriminalgericht",tram,2,195113_unified,,
Stromstr. Ecke Turmstr.,tram,2,195114_unified,,
Waldstr. Ecke Gotzkowskystr.,tram,2,195115_unified,,
Knie,tram,2,195116_unified,,
Bhf. Zoo,tram,2,195117_unified,,
U-Bhf. Wittenbergplatz,tram,2,195118_unified,,
U-Bhf. Nollendorfplatz,tram,2,195119_unified,,
Potsdamerstr. Ecke Bülowstr.,tram,2,195120_unified,,
Mansteinstr. (Bhf. Großgörschenstr.),tram,2,195121_unified,,
Osloerstr. Ecke Grüntalerstr.,tram,3,195122_unified,,
Prinzenallee Ecke Osloerstr.,tram,3,195123_unified,,
Oskarplatz,tram,3,195124_unified,,
Müllerstr. Ecke Seestr.,tram,3,195125_unified,,
Seestraßenbrücke,tram,3,195126_unified,,
Turmstr. Ecke Gotzkowskystr.,tram,3,195127_unified,,
Osnabrückerstr. Ecke Taurroggenerstr.,tram,3,195128_unified,,
Schloßbrücke/Luisenplatz,tram,3,195129_unified,,
Berlinerstr. Ecke Wilmersdorferstr.,tram,3,195130_unified,,
Kanststr. Ecke Wilmersdorferstr.,tram,3,195131_unified,,
Fehrbellinerplatz,tram,3,195132_unified,,
Brandenburgischestr. Ecke Berlinerstr.,tram,3,195133_unified,,
Bundesallee Ecke Berlinerstr.,tram,3,195134_unified,,
Bayerischerplatz,tram,3,195135_unified,,
Martin-Lutherstr. Ecke Grunewaldstr.,tram,3,195136_unified,,
Potsdamerstr. Ecke Goebenstr.,tram,3,195137_unified,,
Mehringdamm Ecke Gneisenaustr.,tram,3,195138_unified,,
Zossenerstr. Ecke Gneisenaustr.,tram,3,195139_unified,,
Südstern,tram,3,195140_unified,,
Hermannplatz,tram,3,195141_unified,,
Schönhauserallee/Berlinerstr.,tram,3,195142_unified,,
Prenzlauerallee/Prenzlauer Promenade,tram,3,195143_unified,,
Berlinerallee Ecke Langhansstr.,tram,3,195144_unified,,
Hohenschönhauserstr. Ecke Weißenseerweg,tram,3,195145_unified,,
Landsbergerallee & Weißenseerweg,tram,3,195146_unified,,
Roederstr./Herzbergerstr.,tram,3,195147_unified,,
Stalinallee,tram,3,195148_unified,,
Boxhagenerstr.,tram,3,195149_unified,,
Warschauer Brücke,tram,3,195150_unified,,
Schlesisches Tor,tram,3,195151_unified,,
"Treptow, Elsenstr.",tram,3,195152_unified,,
Strelitzerstr. Ecke Bernauerstr.,tram,4,195153_unified,,
Eberwalderstr. Ecke Schönhauserallee,tram,4,195154_unified,,
Prenzlauerstr. Ecke Dimitroffstr.,tram,4,195155_unified,,
Greifswalderstr. Ecke Dimitroffstr.,tram,4,195156_unified,,
Leninallee Ecke Bersarinstr.,tram,4,195157_unified,,
Weidenweg Ecke Bersarinstr.,tram,4,195158_unified,,
Boxhagenerstr. Ecke Warschauerstr.,tram,4,195159_unified,,
Kopernikusstr. Ecke Warschauerstr.,tram,4,195160_unified,,
Warschauer Brücke,tram,4,195161_unified,,
Stralauerallee Ecke Warschauerstr.,tram,4,195162_unified,,
Schlesisches Tor,tram,4,195163_unified,,
Kurfürstendamm Ecke Joachimstalerstr.,tram,6,195164_unified,,
Bhf. Zoo,tram,6,195165_unified,,
U-Bhf. Wittenbergplatz,tram,6,195166_unified,,
Grunewaldstr. Ecke Martin-Lutherstr.,tram,6,195167_unified,,
Rudolf-Wilde-Platz (Schöneberger Rathaus),tram,6,195168_unified,,
Hauptstr. Ecke Dominicusstr.,tram,6,195169_unified,,
Alboinstr. Ecke Schönebergerstr.,tram,6,195170_unified,,
Tempelhoferdamm Ecke Alt-Tempelhof,tram,6,195171_unified,,
Gottlieb-Dunkelstr. Ecke Germaniastr.,tram,6,195172_unified,,
Hermannstr. Ecke Hertastr.,tram,6,195173_unified,,
U-Bhf. Neukölln,tram,6,195174_unified,,
U-Bhf. Rathaus Neukölln,tram,6,195175_unified,,
Elsenstr. Ecke Heidelbergerstr.,tram,6,195176_unified,,
Kraftwerk Klingenberg,tram,13,195177_unified,,
Nöldnerstr. Ecke Karlshorsterstr.,tram,13,195178_unified,,
Holteistr. Ecke Boxhagenerstr.,tram,13,195179_unified,,
Warschaerstr. Ecke Boxhagenerstr.,tram,13,195180_unified,,
Bersarinstr. Station,tram,13,195181_unified,,
Weidenweg Ecke Bersarinstr.,tram,13,195182_unified,,
Leninallee Ecke Dimitroffstr.,tram,13,195183_unified,,
Bersarinplatz,tram,14,195184_unified,,
Bersarinstr. Ecke Warschauerstr.,tram,14,195185_unified,,
Holteistr. Ecke Boxhagenerstr.,tram,14,195186_unified,,
Karlshorsterstr. Ecke Nöldnerstr.,tram,14,195187_unified,,
Lückstr. Ecke Wilhelmstr.,tram,14,195188_unified,,
Frankfurter Tor,tram,14,195189_unified,,
Siegfriedstr. Ecke Herzbergerstr.,tram,14,195190_unified,,
Möllendorferstr. Ecke Herzbergerstr.,tram,14,195191_unified,,
Scheffelstr. Ecke Möllendorferstr.,tram,14,195192_unified,,
"Marienfelde, Daimlerstr.",tram,15,195193_unified,,
Mariendorferdamm Ecke Alt-Mariendorf,tram,15,195194_unified,,
Germaniastr. Ecke Gottlieb-Dunkelstr.,tram,15,195195_unified,,
Hermannstr. Ecke Hertastr.,tram,15,195196_unified,,
Bhf. Neukölln,tram,15,195197_unified,,
Bhf. Sonnenallee,tram,15,195198_unified,,
"Neukölln, Schulenburgpark",tram,15,195199_unified,,
"Moabit, Wiebestr.",tram,21,1951100_unified,,
Gotzkowskystr. Ecke Waldstr.,tram,21,1951101_unified,,
Stromstr. Ecke Turmstr.,tram,21,1951102_unified,,
Rathenowerstr. (Kriminalgericht),tram,21,1951103_unified,,
Lehrter Bhf.,tram,21,1951104_unified,,
Brandenburger Tor,tram,21,1951105_unified,,
"Potsdamerplatz, Voßstr.",tram,21,1951106_unified,,
Anhalter Bhf.,tram,21,1951107_unified,,
Hallesches Tor,tram,21,1951108_unified,,
Gneisenaustr. Ecke Zossenerstr.,tram,21,1951109_unified,,
Friesenstr. Ecke Schwiebusserstr.,tram,21,1951110_unified,,
"Rosenthal, Quickbornerstr.",tram,23,1951111_unified,,
Siedlung Weiche,tram,23,1951112_unified,,
Grenzweiche,tram,23,1951113_unified,,
Platanenstr. Ecke Klosterweg,tram,23,1951114_unified,,
Bismarckplatz,tram,23,1951115_unified,,
"Pankow, Rathaus",tram,23,1951116_unified,,
Bhf. Wollankstr. (Grenze),tram,23,1951117_unified,,
Badstr. Ecke Pankstr.,tram,23,1951118_unified,,
Nettelbeckplatz,tram,23,1951119_unified,,
Weddingplatz,tram,23,1951120_unified,,
Augustenburgerplatz (Virchow-Krankenhaus),tram,23,1951121_unified,,
"Buchholz, Hauptstr.",tram,24,1951122_unified,,
Eweststr. Ecke Paswealkerstr.,tram,24,1951123_unified,,
Blankenburger Weiche,tram,24,1951124_unified,,
Heinersdorfer Weiche,tram,24,1951125_unified,,
Bhf. Pankow-Heinersdorf,tram,24,1951126_unified,,
"Pankow, Kirche",tram,24,1951127_unified,,
"Pankow, Rathaus",tram,24,1951128_unified,,
Bhf. Wollankstr.,tram,24,1951129_unified,,
Prinzenstr. Ecke Badstr.,tram,24,1951130_unified,,
Bhf. Gesundbrunnen,tram,24,1951131_unified,,
"Tegel, Alt-Tegel",tram,25,1951132_unified,,
Bernauerstr. (Gaswerke),tram,25,1951133_unified,,
Sportplatz (Reinickendorf-West),tram,25,1951134_unified,,
Berlinerstr. Ecke Scharnweberstr.,tram,25,1951135_unified,,
Londonerstr. (Rehberge),tram,25,1951136_unified,,
Seestr. Ecke Müllerstr.,tram,25,1951137_unified,,
Müllerstr. Ecke Schulstr.,tram,25,1951138_unified,,
Weddingplatz,tram,25,1951139_unified,,
Stromstr. Ecke Turmstr.,tram,25,1951140_unified,,
Waldstr./Gotzkowskystr.,tram,25,1951141_unified,,
Knie,tram,25,1951142_unified,,
Bhf. Zoo,tram,25,1951143_unified,,
U-Bhf. Wittenbergplatz,tram,25,1951144_unified,,
Grunewaldstr. Ecke Martin-Lutherstr.,tram,25,1951145_unified,,
Rudolf-Wilde-Platz (Schöneberger Rathaus),tram,25,1951146_unified,,
Hauptstr. Ecke Dominicusstr.,tram,25,1951147_unified,,
Kaiser-Wilhelm-Platz,tram,25,1951148_unified,,
"Schöneberg, Gotenstr.",tram,25,1951149_unified,,
"Görlitzer Bhf., Spreewaldplatz",tram,26,1951150_unified,,
Hermannplatz,tram,26,1951151_unified,,
Erkstr. Ecke Karl-Marxstr.,tram,26,1951152_unified,,
U-Bhf. Neukölln,tram,26,1951153_unified,,
Bhf. Grenzallee,tram,26,1951154_unified,,
Buschkrugallee Ecke Blaschkoallee,tram,26,1951155_unified,,
Chaussestr. Ecke Gradestr.,tram,26,1951156_unified,,
Wilhelm-Borgmann Brücke,tram,26,1951157_unified,,
"Neukölln, Hermannplatz",tram,27,1951158_unified,,
U-Bhf. Boddinstr.,tram,27,1951159_unified,,
Bhf. Leinestr.,tram,27,1951160_unified,,
Bhf. Hermannstr.,tram,27,1951161_unified,,
Gradestr. Ecke Chausseestr.,tram,27,1951162_unified,,
"Buckow-West, Alt-Buckow",tram,27,1951163_unified,,
"Tegelort, Kurzestr.",tram,28,1951164_unified,,
Falkenplatz,tram,28,1951165_unified,,
Gabelung,tram,28,1951166_unified,,
Alt-Tegel,tram,28,1951167_unified,,
Bernauerstr. (Gaswerke),tram,28,1951168_unified,,
Sportplatz (Reinickendorf-West),tram,28,1951169_unified,,
Berlinerstr. Ecke Scharnweberstr.,tram,28,1951170_unified,,
Londonerstr. (Rehberge),tram,28,1951171_unified,,
Seestr. Ecke Müllerstr.,tram,28,1951172_unified,,
Müllerstr. Ecke Schulstr.,tram,28,1951173_unified,,
Pankstr./Prinzenallee,tram,28,1951174_unified,,
Bhf. Gesundbrunnen,tram,28,1951175_unified,,
Rügenesrstr. Ecke Brunnenstr.,tram,28,1951176_unified,,
"Heiligensee, Dorfaue",tram,29,1951177_unified,,
Hennigsdorferstr. Ecke Heiligensee,tram,29,1951178_unified,,
Gabelung,tram,29,1951179_unified,,
Alt-Tegel,tram,29,1951180_unified,,
Bernauerstr. (Gaswerke),tram,29,1951181_unified,,
Sportplatz (Reinickendorf-West),tram,29,1951182_unified,,
Berlinerstr. Ecke Scharnweberstr.,tram,29,1951183_unified,,
Londonerstr. (Rehberge),tram,29,1951184_unified,,
Seestr. Ecke Müllerstr.,tram,29,1951185_unified,,
Müllerstr. Ecke Schulstr.,tram,29,1951186_unified,,
Pankstr./Prinzenallee,tram,29,1951187_unified,,
Bhf. Gesundbrunnen,tram,29,1951188_unified,,
Rügenesrstr. Ecke Brunnenstr.,tram,29,1951189_unified,,
Siemensstadt (Verwaltungsgebäude),tram,35,1951190_unified,,
Bhf. Jungfernheide,tram,35,1951191_unified,,
Gotzkowskystr./Waldstr.,tram,35,1951192_unified,,
Stromstr. Ecke Turmstr.,tram,35,1951193_unified,,
Rathenowerstr. (Kriminalgericht),tram,35,1951194_unified,,
Weddingplatz,tram,35,1951195_unified,,
Nettelbeckplatz,tram,35,1951196_unified,,
Pankowerallee (Schäfersee),tram,35,1951197_unified,,
Residenzstr. Ecke Hauptstr.,tram,35,1951198_unified,,
"Wilhelmsruh, Hauptstr.",tram,35,1951199_unified,,
"Wilhelmsruh, Hauptstr.",tram,36,1951200_unified,,
Hauptstr. (Reinickendorf-Ost),tram,36,1951201_unified,,
Pankowerallee (Schäfersee) Osloerstr. Ecke Kolonie-Drontheim,tram,36,1951202_unified,,
Badstr. Ecke Pankstr.,tram,36,1951203_unified,,
Bhf. Gesundbrunnen,tram,36,1951204_unified,,
Rügenerstr. Ecke Brunnenstr.,tram,36,1951205_unified,,
"Dahlem, Clayallee",tram,40,1951206_unified,,
Pacelliallee Ecke Königin-Luisestr.,tram,40,1951207_unified,,
U-Bhf. Dahlem-Dorf,tram,40,1951208_unified,,
Podbielskiallee (Botanischer Garten),tram,40,1951209_unified,,
Steglitz Rathaus,tram,40,1951210_unified,,
"Steglitz, Birkbuschstr. Ecke Siemensstr.",tram,40,1951211_unified,,
"Tegel, Alt-Tegel",tram,41,1951212_unified,,
Bernauerstr. (Gaswerke),tram,41,1951213_unified,,
Sportplatz (Reinickendorf-West),tram,41,1951214_unified,,
Scharnweberstr. Ecke Berlinerstr.,tram,41,1951215_unified,,
Teichstr. Ecke Gotthardstr.,tram,41,1951216_unified,,
Hauptstr. Ecke Residenzstr.,tram,41,1951217_unified,,
Pankowerallee (Schäfersee),tram,41,1951218_unified,,
Oslowerstr. Ecke Schwedenstr.,tram,41,1951219_unified,,
Pankstr./Prinzenallee,tram,41,1951220_unified,,
U-Bhf. Gesundbrunnen,tram,41,1951221_unified,,
Rügenerstr. Ecke Brunnenstr.,tram,41,1951222_unified,,
"Sandkrugbrücke, Lehrter Bahnhof",tram,44,1951223_unified,,
Rathenowerstr. Ecke Invalidenstr.,tram,44,1951224_unified,,
Stromstr. Ecke Alt-Moabit,tram,44,1951225_unified,,
Gotzkowskystr. Ecke Alt-Moabit,tram,44,1951226_unified,,
U-Bhf. Ernst-Reuter-Platz,tram,44,1951227_unified,,
Wilmersdorferstr. Ecke Berlinerstr.,tram,44,1951228_unified,,
Kantstr. Ecke Wilmersdorferstr.,tram,44,1951229_unified,,
Kurfürstendamm Ecke Wilmersdorferstr.,tram,44,1951230_unified,,
Fehrbellinerplatz,tram,44,1951231_unified,,
Berlinerstr. Ecke Blissestr.,tram,44,1951232_unified,,
Hildegardstr. Ecke Bundesallee,tram,44,1951233_unified,,
Bundesplatz,tram,44,1951234_unified,,
Friedrich-Wilhelm-Platz,tram,44,1951235_unified,,
Titania-Palast,tram,44,1951236_unified,,
Bhf. Steglitz,tram,44,1951237_unified,,
Schloßstr. Ecke Albrechtstr.,tram,44,1951238_unified,,
Birkbuschstr. Ecke Siemensstr.,tram,44,1951239_unified,,
"Nordend, Kaiser-Wilhelmstr.",tram,46,1951240_unified,,
Ossietzkyplatz,tram,46,1951241_unified,,
Bismarckplatz,tram,46,1951242_unified,,
"Pankow, Rathaus",tram,46,1951243_unified,,
"Pankow, Kirche",tram,46,1951244_unified,,
Kissingenstr. Ecke Berlinerstr.,tram,46,1951245_unified,,
Bhf. Vinetastr.,tram,46,1951246_unified,,
Bornholmerstr./Wisbyerstr.,tram,46,1951247_unified,,
Bhf. Schönhauserallee,tram,46,1951248_unified,,
Bhf. Dimitroffstr.,tram,46,1951249_unified,,
Zionskirchplatz,tram,46,1951250_unified,,
Nordbahnhof,tram,46,1951251_unified,,
Oranienburger Tor,tram,46,1951252_unified,,
Dorothenstr. Ecke Friedrichstr.,tram,46,1951253_unified,,
Franzstr. Ecke Oberwallstr.,tram,46,1951254_unified,,
Dönhoffplatz,tram,46,1951255_unified,,
Hermannplatz,tram,47,1951256_unified,,
"Erkstr., Rathaus Neukölln",tram,47,1951257_unified,,
Karl-Marxstr. Station,tram,47,1951258_unified,,
U-Bhf. Neukölln,tram,47,1951259_unified,,
U-Bhf. Grenzallee,tram,47,1951260_unified,,
Buschkrugallee Ecke Blaschkoallee,tram,47,1951261_unified,,
Parchimerallee Ecke Rudowerstr.,tram,47,1951262_unified,,
Krankenhaus Neukölln,tram,47,1951263_unified,,
Johannisthalerchaussee Ecke Rudowerstr.,tram,47,1951264_unified,,
Waltersdorferchaussee Ecke Neuköllnerstr.,tram,47,1951265_unified,,
"Rudow, Bahnhofstr.",tram,47,1951266_unified,,
"Rudow, Stadtgrenze",tram,47,1951267_unified,,
"Buchholz, Hauptstr.",tram,49,1951268_unified,,
Eweststr. Ecke Pasewalkerstr.,tram,49,1951269_unified,,
"Galenusstr., Pankow, Krankenhaus",tram,49,1951270_unified,,
S-Bhf. Pankow-Heinersdorf,tram,49,1951271_unified,,
"Pankow, Kirche",tram,49,1951272_unified,,
"S-Bhf. Pankow, Florastr.",tram,49,1951273_unified,,
U-Bhf. Vinetastr.,tram,49,1951274_unified,,
S-Bhf. Schönhauserallee,tram,49,1951275_unified,,
"Eberswalderstr., U-Bhf. Dimitroffstr.",tram,49,1951276_unified,,
Zionskirchstr.,tram,49,1951277_unified,,
Rosenthalerplatz,tram,49,1951278_unified,,
Hackescher Markt,tram,49,1951279_unified,,
Große Präsidentenstr.,tram,49,1951280_unified,,
Roseneck,tram,51,1951281_unified,,
Bhf. Schmargendorf,tram,51,1951282_unified,,
Berlinerstr. Ecke Uhlandstr.,tram,51,1951283_unified,,
Kurfürstendamm Ecke Uhlandstr.,tram,51,1951284_unified,,
Bhf. Zoo,tram,51,1951285_unified,,
"Spandau, Johannesstift",tram,54,1951286_unified,,
Spandau Stadtpark,tram,54,1951287_unified,,
Hafenplatz,tram,54,1951288_unified,,
Spandau Markt,tram,54,1951289_unified,,
Bhf. Spandau,tram,54,1951290_unified,,
Güterbahnhof Ruhleben,tram,54,1951291_unified,,
U-Bhf. Ruhleben,tram,54,1951292_unified,,
Spandauer Bock,tram,54,1951293_unified,,
Kirschenallee Ecke Spandauerdamm,tram,54,1951294_unified,,
Königin-Elisabethstr. Ecke Spandauerdamm,tram,54,1951295_unified,,
"U-Bhf. Richard-Wagner-Platz, Wintersteinstr.",tram,54,1951296_unified,,
"Spandau, Nauenerstr.",tram,55,1951297_unified,,
Bhf. Spandau-West,tram,55,1951298_unified,,
"Spandau, Markt",tram,55,1951299_unified,,
Industriebahn,tram,55,1951300_unified,,
Paulsternstr. Ecke Gartenfelderstr.,tram,55,1951301_unified,,
Verwaltungsgebäude,tram,55,1951302_unified,,
Wernerwerk,tram,55,1951303_unified,,
Bhf. Jungfernheide,tram,55,1951304_unified,,
Tauroggenerstr. Ecke Osnabrückerstr.,tram,55,1951305_unified,,
Berlinerstr. Ecke Wilmersdorferstr.,tram,55,1951306_unified,,
Knie,tram,55,1951307_unified,,
Bhf. Zoo,tram,55,1951308_unified,,
Kurfürstendamm V. Marmorhaus,tram,55,1951309_unified,,
Emserplatz,tram,57,1951310_unified,,
Fehrbellinerplatz,tram,57,1951311_unified,,
Bhf. Hohenzollerndamm,tram,57,1951312_unified,,
Elsterplatz,tram,57,1951313_unified,,
Roseneck,tram,57,1951314_unified,,
Königin-Elisabethstr. Ecke Kaiserdamm,tram,60,1951315_unified,,
Spandauerdamm Ecke Königin-Elisabethstr.,tram,60,1951316_unified,,
Sophie-Charlotte-Platz,tram,60,1951317_unified,,
Amtsgerichtsplatz,tram,60,1951318_unified,,
Stuttgarterplatz,tram,60,1951319_unified,,
Kurfürstendamm Ecke Wilmersdorferstr.,tram,60,1951320_unified,,
Fehrbellinerplatz,tram,60,1951321_unified,,
Bundesallee Ecke Berlinerstr.,tram,60,1951322_unified,,
Bayerischerplatz,tram,60,1951323_unified,,
Rudolf-Wilde-Platz,tram,60,1951324_unified,,
Hauptstr. Ecke Dominicusstr.,tram,60,1951325_unified,,
Sachsendamm Ecke Alboinstr.,tram,60,1951326_unified,,
"Lindenhof, Eythstr.",tram,60,1951327_unified,,
"Hohenschönhausen, Falkenbergerstr.",tram,64,1951328_unified,,
Orankestr.,tram,64,1951329_unified,,
Weißenseerweg,tram,64,1951330_unified,,
Steuerhaus,tram,64,1951331_unified,,
S-Bhf. Leninallee,tram,64,1951332_unified,,
Leninallee Ecke Dimitroffstr.,tram,64,1951333_unified,,
Leninplatz,tram,64,1951334_unified,,
Kleine Frankfurterstr.,tram,64,1951335_unified,,
"Alexanderplatz, Grunestr.",tram,64,1951336_unified,,
Bhf. Jannowitzbrücke,tram,64,1951337_unified,,
U-Bhf. Neanderstr.,tram,64,1951338_unified,,
Spittelmarkt,tram,64,1951339_unified,,
"Dönhoffplatz, Krausenstr.",tram,64,1951340_unified,,
Hackescher Markt,tram,65,1951341_unified,,
Weinmeisterstr.,tram,65,1951342_unified,,
Prenzlauerstr. Ecke Memhardtstr.,tram,65,1951343_unified,,
"Alexanderplatz, Neue Königsstr.",tram,65,1951344_unified,,
Leninallee Ecke Friedenstr.,tram,65,1951345_unified,,
Dimitroffstr. Ecke Bersarinstr.,tram,65,1951346_unified,,
Weidenweg Ecke Bersarinstr.,tram,65,1951347_unified,,
Eldenaerstr. Ecke Scheffelstr.,tram,65,1951348_unified,,
"Loeperplatz, Scheffelstr.",tram,65,1951349_unified,,
"Schöneberg, Belzigerstr. (Straßenbahnhof)",tram,66,1951350_unified,,
U-Bhf. Innsbruckerplatz,tram,66,1951351_unified,,
"Schöneberg, Thorwaldsenstr. (August-Viktoria-Krankenhaus",tram,66,1951352_unified,,
"Wittenau, Nordbahn",tram,68,1951353_unified,,
"Wittenau, Heilanstalt",tram,68,1951354_unified,,
Berlinerstr. Ecke Scharnweberstr.,tram,68,1951355_unified,,
Londonerstr. (Rehberge),tram,68,1951356_unified,,
Müllerstr. Ecke Seestr.,tram,68,1951357_unified,,
Schulstr. Ecke Müllerstr.,tram,68,1951358_unified,,
Nettelbeckplatz,tram,68,1951359_unified,,
Hackescher Markt,tram,69,1951360_unified,,
"Alexanderplatz, Neue Königsstr.",tram,69,1951361_unified,,
Lenineallee Ecke Friedenstr.,tram,69,1951362_unified,,
Dimitroffstr./Bersarinstr.,tram,69,1951363_unified,,
Roederstr. Ecke Möllendorffstr.,tram,69,1951364_unified,,
Siegfriedstr. Ecke Alt-Friedrichfelde,tram,69,1951365_unified,,
Marzahnerchaussee Ecke Schloßstr.,tram,69,1951366_unified,,
Treskowallee Ecke Marksburgstr.,tram,69,1951367_unified,,
Wilhelminenhofstr. Ecke Edisonstr.,tram,69,1951368_unified,,
"Weißensee, Buschallee",tram,70,1951369_unified,,
Antonplatz,tram,70,1951370_unified,,
Prenzlauer Promenade Ecke Krügerstr.,tram,70,1951371_unified,,
U-Bhf. Danzigerstr.,tram,70,1951372_unified,,
Zionskirchplatz,tram,70,1951373_unified,,
Brunnenstr. Ecke Veteranenstr.,tram,70,1951374_unified,,
Invalidenstr. Ecke Chausseestr.,tram,70,1951375_unified,,
Oranienburger Tor,tram,70,1951376_unified,,
Kupfergraben,tram,70,1951377_unified,,
"Heinersdorf, Helgestr.",tram,71,1951378_unified,,
Prenzlauer Promenade Ecke Prenzlauerallee,tram,71,1951379_unified,,
Danzigerstr. Ecke Prenzlauerallee,tram,71,1951380_unified,,
Prenzlauer Tor,tram,71,1951381_unified,,
"Alexanderplatz, Grunerstr.",tram,71,1951382_unified,,
"Jüdenstr., Rathaus",tram,71,1951383_unified,,
"Weißensee, Rennbahnstr. Ecke Parkstr.",tram,72,1951384_unified,,
Antonplatz,tram,72,1951385_unified,,
Gustav-Adolfstr. Ecke Prenzlauer Promenade,tram,72,1951386_unified,,
Dimitroffstr. Ecke Prenzlauerallee,tram,72,1951387_unified,,
"Saarbrückerstr., Prenzlauer Tor",tram,72,1951388_unified,,
"Alexanderplatz, Grunerstr.",tram,72,1951389_unified,,
Molkenmarkt,tram,72,1951390_unified,,
Spittelmarkt,tram,72,1951391_unified,,
Charlottenstr. Ecke Taubenstr.,tram,72,1951392_unified,,
Bhf. Lichterfelde-Ost,tram,73,1951393_unified,,
"Wiesenbaude, Giesendorferstr.",tram,73,1951394_unified,,
Händelplatz,tram,73,1951395_unified,,
Rathaus Steglitz,tram,73,1951396_unified,,
Kaisereiche,tram,73,1951397_unified,,
U-Bhf. Innsbruckerplatz,tram,73,1951398_unified,,
Dominicusstr. Ecke Hauptstr.,tram,73,1951399_unified,,
Eisenacherstr. Ecke Potsdamerstr.,tram,73,1951400_unified,,
Pallasstr. Ecke Potsdamerstr.,tram,73,1951401_unified,,
Lützowstr. Ecke Potsdamerstr.,tram,73,1951402_unified,,
"Potsdamerplatz, Linkstr.",tram,73,1951403_unified,,
Dönhoffplatz,tram,73,1951404_unified,,
Spittelmarkt,tram,73,1951405_unified,,
Molkenmarkt,tram,73,1951406_unified,,
"Alexanderplatz, Grunerstr.",tram,73,1951407_unified,,
Königstor,tram,73,1951408_unified,,
Danzigerstr. Ecke Greifswalderstr.,tram,73,1951409_unified,,
Antonplatz,tram,73,1951410_unified,,
"Rennbahnstr., Weißensee",tram,73,1951411_unified,,
"Lichtefelde, Finckensteinallee",tram,74,1951412_unified,,
Wiesenbaude,tram,74,1951413_unified,,
Händelplatz,tram,74,1951414_unified,,
Rathaus Steglitz,tram,74,1951415_unified,,
Kaisereiche,tram,74,1951416_unified,,
U-Bhf. Innsbruckerplatz,tram,74,1951417_unified,,
Dominicusstr. Ecke Hauptstr.,tram,74,1951418_unified,,
Eisenacherstr. Ecke Potsdamerstr.,tram,74,1951419_unified,,
Pallasstr. Ecke Potsdamerstr.,tram,74,1951420_unified,,
Kurfürstenstr. Ecke Potsdamerstr.,tram,74,1951421_unified,,
Lützowstr. Ecke Potsdamerstr.,tram,74,1951422_unified,,
"Potsdamerplatz, Link-Strasse",tram,74,1951423_unified,,
Dönhoffplatz,tram,74,1951424_unified,,
Spittelmarkt,tram,74,1951425_unified,,
"Alexanderplatz, Grunerstr.",tram,74,1951426_unified,,
Königstor,tram,74,1951427_unified,,
Danzigerstr. Ecke Greifswalderstr.,tram,74,1951428_unified,,
Antonplatz,tram,74,1951429_unified,,
"Rennbahnstr., Weißensee",tram,74,1951430_unified,,
Spandau Hakenfelde,tram,75,1951431_unified,,
Hafenplatz,tram,75,1951432_unified,,
Spandau Markt,tram,75,1951433_unified,,
Spandau Rathaus,tram,75,1951434_unified,,
Strassenbahnhof Spandau,tram,75,1951435_unified,,
Heerstr. Ecke Pichelsdorferstr.,tram,75,1951436_unified,,
Scholzplatz,tram,75,1951437_unified,,
Bhf. Heerstr.,tram,75,1951438_unified,,
Reichskanzler-Platz,tram,75,1951439_unified,,
Ausstellungshallen,tram,75,1951440_unified,,
Amtsgericht,tram,75,1951441_unified,,
Savignyplatz,tram,75,1951442_unified,,
Bhf. Zoo,tram,75,1951443_unified,,
Hundekehle über Königsallee,tram,76,1951444_unified,,
Bhf. Halensee,tram,76,1951445_unified,,
Wilmersdorferstr. Ecke Kurfürstendamm,tram,76,1951446_unified,,
U-Bhf. Uhlandstr.,tram,76,1951447_unified,,
Bhf. Zoo,tram,76,1951448_unified,,
Wittenbergplatz,tram,76,1951449_unified,,
Lützowplatz,tram,76,1951450_unified,,
Lütsowstr. Ecke Potsdamerstr.,tram,76,1951451_unified,,
Anhalter Bhf.,tram,76,1951452_unified,,
Hundekehlenstr. Ecke Teplitzerstr.,tram,76E,1951453_unified,,
Hagenstr. Ecke Königsallee,tram,76E,1951454_unified,,
Hubertusallee Ecke Kurfürstendamm,tram,76E,1951455_unified,,
Kurfürstendamm Ecke Wilmersdorferstr.,tram,76E,1951456_unified,,
Kurfürstendamm Ecke Uhlandstr.,tram,76E,1951457_unified,,
Kurfürstendamm Ecke Joachimsthalerstr.,tram,76E,1951458_unified,,
Bhf. Zoo,tram,76E,1951459_unified,,
Wittenbergplatz,tram,76E,1951460_unified,,
Nollendorfplatz,tram,76E,1951461_unified,,
Bhf. Zoo,tram,77,1951462_unified,,
Wittenbergplatz,tram,77,1951463_unified,,
Kurfürstendamm Ecke Joachimsthalerstr.,tram,77,1951464_unified,,
Bundesallee Ecke Berlinerstr.,tram,77,1951465_unified,,
Bundesplatz,tram,77,1951466_unified,,
Friedrich-Wilhelm-Platz,tram,77,1951467_unified,,
Schloßstr. Ecke Bundesallee,tram,77,1951468_unified,,
Rathaus Steglitz,tram,77,1951469_unified,,
Hindenburgdamm Ecke Schloßstr.,tram,77,1951470_unified,,
Händelplatz,tram,77,1951471_unified,,
Bhf. Botanischer Garten,tram,77,1951472_unified,,
Bhf. Lichterfelde-West,tram,77,1951473_unified,,
Baselerstr.,tram,77,1951474_unified,,
Rittberg-Krankenhaus,tram,77,1951475_unified,,
Goerzallee Ecke Wismarerstr.,tram,77,1951476_unified,,
"Lichterfelde, Goerzallee",tram,77,1951477_unified,,
"Lichterfelde-Süd, Lindenstr.",tram,78,1951478_unified,,
Goerzallee Ecke Wismarstr.,tram,78,1951479_unified,,
Rittberg-Krankenhaus,tram,78,1951480_unified,,
Drakestr. (Bhf. Lichterfelde-West),tram,78,1951481_unified,,
Händelplatz,tram,78,1951482_unified,,
Steglitz Rathaus,tram,78,1951483_unified,,
Bundesplatz,tram,78,1951484_unified,,
Berlinerstr. Ecke Bundesallee,tram,78,1951485_unified,,
Rankeplatz,tram,78,1951486_unified,,
Bhf. Zoo,tram,78,1951487_unified,,
Breitestr. Ecke Mühlendamm,tram,82,1951488_unified,,
Molkenmarkt,tram,82,1951489_unified,,
Bhf. Jannowitzbrücke,tram,82,1951490_unified,,
Schlesischer Bhf./Ostbahnhof,tram,82,1951491_unified,,
Stralauerallee Ecke Warschauerstr.,tram,82,1951492_unified,,
Osthafen,tram,82,1951493_unified,,
Markgrafendamm,tram,82,1951494_unified,,
Alt-Stralau,tram,82,1951495_unified,,
Wendenschloß Ecke Ekhofstr.,tram,83,1951496_unified,,
Strassenbahnhof Köpenick,tram,83,1951497_unified,,
Lindenstr. Ecke Bahnhofstr.,tram,83,1951498_unified,,
S-Bhf. Köpenick,tram,83,1951499_unified,,
"Mahlsdorf-Süd, Hubertus",tram,83,1951500_unified,,
Voltastr. Ecke Hultschinerdamm,tram,83,1951501_unified,,
"Mahlsdorf, Rathaus",tram,83,1951502_unified,,
S-Bhf. Mahlsdorf,tram,83,1951503_unified,,
Bhf. Friedrichshagen,tram,84,1951504_unified,,
Hirschgarten,tram,84,1951505_unified,,
"Köpenick, Lindenstr. Ecke Bahnhofstr.",tram,84,1951506_unified,,
Köllnischerplatz,tram,84,1951507_unified,,
Bhf. Adlershof,tram,84,1951508_unified,,
"Adlershof, Oppenbrücke (Benzolwerk)",tram,84,1951509_unified,,
"Alt-Glienicke, Am Falkenberg",tram,84,1951510_unified,,
"Mahlsdorf-Süd, Hubertus",tram,86,1951511_unified,,
Bhf. Köpenick,tram,86,1951512_unified,,
Lindenstr. Ecke Bahnhofstr.,tram,86,1951513_unified,,
Köllnischerplatz,tram,86,1951514_unified,,
Vollkropfgraben,tram,86,1951515_unified,,
Bootshaus,tram,86,1951516_unified,,
Kattunfabrik,tram,86,1951517_unified,,
Schule,tram,86,1951518_unified,,
Bhf. Grünau,tram,86,1951519_unified,,
Regattahaus,tram,86,1951520_unified,,
Freibad Grünau,tram,86,1951521_unified,,
Richtershorn,tram,86,1951522_unified,,
Karolinenhof,tram,86,1951523_unified,,
Alt-Schmöckwitz,tram,86,1951524_unified,,
"Dönhoffplatz, Krausenstr.",tram,87,1951525_unified,,
U-Bhf. Spittelmarkt,tram,87,1951526_unified,,
U-Bhf. Neanderstr.,tram,87,1951527_unified,,
U-Bhf. Schlesisches Tor,tram,87,1951528_unified,,
Elsenstr. Ecke Köpenicker Landstr.,tram,87,1951529_unified,,
Baumschulenstr. Ecke Köpenicker Landstr.,tram,87,1951530_unified,,
Nalepastr. Ecke Wilhelminenhofstr.,tram,87,1951531_unified,,
Königsplatz,tram,87,1951532_unified,,
Lindenstr. Ecke Bahnhofstr.,tram,87,1951533_unified,,
Seelenbinderstr.,tram,87,1951534_unified,,
Hirschgarten,tram,87,1951535_unified,,
Spreetunnel,tram,87,1951536_unified,,
Bhf. Friedrichshagen,tram,87,1951537_unified,,
Freibad Müggelsee,tram,87,1951538_unified,,
Rahnsdorf (Mühle),tram,87,1951539_unified,,
"Steglitz, Stadtpark",tram,88,1951540_unified,,
Kaisereiche Ecke Rheinstr.,tram,88,1951541_unified,,
Innsbruckerplatz,tram,88,1951542_unified,,
Dominicusstr. Ecke Hauptstr.,tram,88,1951543_unified,,
Eisenacherstr. Ecke Hauptstr.,tram,88,1951544_unified,,
Pallasstr. Ecke Potsdamerstr.,tram,88,1951545_unified,,
U-Bhf. Kurfürstenstr.,tram,88,1951546_unified,,
Potsdamerstr. Ecke Lützowstr.,tram,88,1951547_unified,,
Anhalter Bahnhof,tram,88,1951548_unified,,
Jerusalemer Kirche,tram,88,1951549_unified,,
U-Bhf. Moritzplatz,tram,88,1951550_unified,,
U-Bhf. Görlitzer Bahnhof,tram,88,1951551_unified,,
Wiener Brücke,tram,88,1951552_unified,,
"Treptow, Rathaus",tram,91,1951553_unified,,
Baumschulenstr.,tram,91,1951554_unified,,
"Grünauerstr., Bhf. Schöneweide",tram,91,1951555_unified,,
"Friedrichstr., Johannisthal",tram,91,1951556_unified,,
"Dönhoffplatz, Krausenstr.",tram,92,1951557_unified,,
U-Bhf. Spittelmarkt,tram,92,1951558_unified,,
U-Bhf. Neanderstr.,tram,92,1951559_unified,,
U-Bhf. Schlesisches Tor,tram,92,1951560_unified,,
Elsenstr. Ecke Köpenicker Landstr.,tram,92,1951561_unified,,
Baumschulenstr. Ecke Köpenicker Landstr.,tram,92,1951562_unified,,
Bhf. Schöneweide,tram,92,1951563_unified,,
"Bhf. Oberspree, Sedanstr.",tram,92,1951564_unified,,
Attilaplatz,tram,95,1951565_unified,,
Alt-Tempelhof Ecke Manteuffelstr.,tram,95,1951566_unified,,
Flughafen,tram,95,1951567_unified,,
Mehringdamm,tram,95,1951568_unified,,
Mehringdamm Ecke Blücherstr.,tram,95,1951569_unified,,
Hermannplatz,tram,95,1951570_unified,,
Sonnenallee Ecke Teupitzerstr.,tram,95,1951571_unified,,
Köpenicker Landstr. Ecke Schnellerstr.,tram,95,1951572_unified,,
Wilhelminenhofstr. Ecke Edisonstr.,tram,95,1951573_unified,,
Lindenstr. Ecke Bahnhofstr.,tram,95,1951574_unified,,
Oberspreestr. Ecke Grünstr.,tram,95,1951575_unified,,
Wendenschloßstr. Ecke Müggelheimerstr.,tram,95,1951576_unified,,
"Köpenick, Krankenhaus",tram,95,1951577_unified,,
Machnower Schleuse,tram,96,1951578_unified,,
Hauptstr. Ecke Potsdamerstr.,tram,96,1951579_unified,,
Potsdamerstr. Ecke Lichterfelderstr.,tram,96,1951580_unified,,
Berlinerstr. Ecke Wismarerstr.,tram,96,1951581_unified,,
Wilhelmstr./Oberhoferweg,tram,96,1951582_unified,,
Kaiser-Wilhelmstr. Ecke Leonorenstr.,tram,96,1951583_unified,,
Attilaplatz,tram,96,1951584_unified,,
Friedrich-Karlstr. Ecke Mariendorferdamm,tram,96,1951585_unified,,
Alt-Tempelhof Ecke Tempelhoferdamm,tram,96,1951586_unified,,
Tempelhof (Südring),tram,96,1951587_unified,,
Bhf. Tempelhof,tram,96,1951588_unified,,
U-Bhf. Tempelhof,tram,98,1951589_unified,,
Alt-Tempelhof Ecke Tempelhoferdamm,tram,98,1951590_unified,,
Kaiserin-Augustastr. Ecke Tempelhoferdamm,tram,98,1951591_unified,,
Kaiserstr. Ecke Mariendorferdamm,tram,98,1951592_unified,,
Mariendorferdamm Ecke Alt-Mariendorf,tram,98,1951593_unified,,
Grossbeerenstr. Ecke Daimlerstr.,tram,98,1951594_unified,,
Daimlerstr. Ecke Birnhornweg,tram,98,1951595_unified,,
Mehringplatz/Hallesches Tor,tram,99,1951596_unified,,
Yorckstr./Gneisenaustr.,tram,99,1951597_unified,,
Dudenstr. Ecke Mehringdamm,tram,99,1951598_unified,,
Bhf. Tempelhof,tram,99,1951599_unified,,
Alt-Tempelhof Ecke Tempelhoferdamm,tram,99,1951600_unified,,
Kaiserin-Augustastr. Ecke Tempelhoferdamm,tram,99,1951601_unified,,
Kaiserstr. Ecke Mariendorferdamm,tram,99,1951602_unified,,
Alt-Mariendorf Ecke Mariendorferdamm,tram,99,1951603_unified,,
"Rennbahn, Mariendorf",tram,99,1951604_unified,,
Marienfelderchaussee Ecke Lichtenraderdamm,tram,99,1951605_unified,,
Grimmstr. Ecke Lichtenraderdamm,tram,99,1951606_unified,,
Bhf. Lichtenrade,tram,99,1951607_unified,,
Hundekehle über Königsallee,tram,76E,1951608_unified,,
Bhf. Halensee,tram,76E,1951609_unified,,
Wilmersdorferstr. Ecke Kurfürstendamm,tram,76E,1951610_unified,,
U-Bhf. Uhlandstr.,tram,76E,1951611_unified,,
Pankow (Vinetastr.),u-bahn,A I,1951612_unified,,
Schönhauserallee,u-bahn,A I,1951613_unified,,
Dimitroffstr.,u-bahn,A I,1951614_unified,,
Senefelderplatz,u-bahn,A I,1951615_unified,,
Luxemburgplatz,u-bahn,A I,1951616_unified,,
Alexanderplatz,u-bahn,A I,1951617_unified,,
Klosterstr.,u-bahn,A I,1951618_unified,,
Märkisches Museum,u-bahn,A I,1951619_unified,,
Spittelmarkt,u-bahn,A I,1951620_unified,,
Hausvogteiplatz,u-bahn,A I,1951621_unified,,
Stadtmitte (Mohrenstr.),u-bahn,A I,1951622_unified,,
Thälmannplatz,u-bahn,A I,1951623_unified,,
Potsdamerplatz,u-bahn,A I,1951624_unified,,
Gleisdreieck,u-bahn,A I,1951625_unified,,
Bülowstr.,u-bahn,A I,1951626_unified,,
Nollendorfplatz,u-bahn,A I,1951627_unified,,
Wittenbergplatz,u-bahn,A I,1951628_unified,,
Zoologischer Garten,u-bahn,A I,1951629_unified,,
Ernst-Reuter-Platz,u-bahn,A I,1951630_unified,,
Deutsches Opernhaus (Bismarckstr.),u-bahn,A I,1951631_unified,,
Sophie-Charlotte-Platz,u-bahn,A I,1951632_unified,,
Kaiserdamm (Messedamm),u-bahn,A I,1951633_unified,,
Reichskanzlerplatz,u-bahn,A I,1951634_unified,,
Neu-Westend,u-bahn,A I,1951635_unified,,
Olympia-Stadion,u-bahn,A I,1951636_unified,,
Ruhleben,u-bahn,A I,1951637_unified,,
Wittenbergplatz,u-bahn,A II,1951638_unified,,
Nürnbergerplatz,u-bahn,A II,1951639_unified,,
Hohenzollernplatz,u-bahn,A II,1951640_unified,,
Fehrbellinerplatz,u-bahn,A II,1951641_unified,,
Heidelbergerplatz,u-bahn,A II,1951642_unified,,
Rüdesheimerplatz,u-bahn,A II,1951643_unified,,
Breitenbachplatz,u-bahn,A II,1951644_unified,,
Podbielskiallee,u-bahn,A II,1951645_unified,,
Dahlem-Dorf,u-bahn,A II,1951646_unified,,
Thielplatz,u-bahn,A II,1951647_unified,,
Oskar-Helene-Heim,u-bahn,A II,1951648_unified,,
Onkel Toms Hütte,u-bahn,A II,1951649_unified,,
Krumme Lanke,u-bahn,A II,1951650_unified,,
Deutsches Opernhaus (Bismarckstr.),u-bahn,A III,1951651_unified,,
Richard-Wagner-Platz,u-bahn,A III,1951652_unified,,
"Moabit, Waldstr. Ecke Turmstr.",autobus,A1 (Obus),1951653_unified,,
Heimholtzstr.,autobus,A1 (Obus),1951654_unified,,
Berlinerstr. Ecke Cauerstr.,autobus,A1 (Obus),1951655_unified,,
Kantstr. Ecke Leibnizstr.,autobus,A1 (Obus),1951656_unified,,
Kurfürstendamm Ecke Konstanzerstr.,autobus,A1 (Obus),1951657_unified,,
U-Bhf. Fehrbellinerplatz,autobus,A1 (Obus),1951658_unified,,
Hildegardstr. Ecke Blissestr.,autobus,A1 (Obus),1951659_unified,,
U-Bhf. Breitenbachplatz,autobus,A1 (Obus),1951660_unified,,
Pacellialle Ecke Im Dol,autobus,A1 (Obus),1951661_unified,,
U-Bhf. Oskar-Helene-Heim,autobus,A1 (Obus),1951662_unified,,
Berlinerstr. Ecke Clayallee,autobus,A1 (Obus),1951663_unified,,
Bhf. Zehlendorf,autobus,A1 (Obus),1951664_unified,,
Teltowerdamm Ecke Beeskowdamm,autobus,A1 (Obus),1951665_unified,,
Goerzallee Ecke Wismarerstr.,autobus,A1 (Obus),1951666_unified,,
"Westend, Königin-Elisabethstr.",autobus,A10,1951667_unified,,
U-Bhf. Neu-Westend,autobus,A10,1951668_unified,,
U-Bhf. Reichskanzlerplatz,autobus,A10,1951669_unified,,
Bhf. Halensee,autobus,A10,1951670_unified,,
Elsterplatz,autobus,A10,1951671_unified,,
Wilder Eber,autobus,A10,1951672_unified,,
Dahlem-Dorf,autobus,A10,1951673_unified,,
U-Bhf. Thielplatz,autobus,A10,1951674_unified,,
Thielallee Ecke Berlinerstr.,autobus,A10,1951675_unified,,
Berlinerstr. Ecke Seehofstr.,autobus,A10,1951676_unified,,
Bhf. Zehlendorf,autobus,A10,1951677_unified,,
"Machnowerstr. Ecke Andreezeile, Zehlendorf",autobus,A10,1951678_unified,,
U-Bhf. Dahlem-Dorf,autobus,A11,1951679_unified,,
U-Bhf. Thielplatz,autobus,A11,1951680_unified,,
Habelschwerdterallee Ecke Unter den Eichen,autobus,A11,1951681_unified,,
Bhf. Lichterfelde-West,autobus,A11,1951682_unified,,
Wiesenbaude,autobus,A11,1951683_unified,,
Bhf. Lichterfelde-Ost,autobus,A11,1951684_unified,,
"Lankwitz, Trippsteinstr.",autobus,A11,1951685_unified,,
"Frohnau, Sigismundkorso",autobus,A12,1951686_unified,,
Bhf. Frohnau,autobus,A12,1951687_unified,,
Am Pilz,autobus,A12,1951688_unified,,
Sandkrug,autobus,A12,1951689_unified,,
Hermsdorferdamm,autobus,A12,1951690_unified,,
Waidmannslusterdamm,autobus,A12,1951691_unified,,
Oranienburgerstr. Ecke Hauptstr.,autobus,A12,1951692_unified,,
Hauptstr. Ecke Roedernallee,autobus,A12,1951693_unified,,
Schillerhof,autobus,A12,1951694_unified,,
Seestr. Ecke Müllerstr.,autobus,A12,1951695_unified,,
"Spandau, Weinmeisterhornweg",autobus,A13,1951696_unified,,
Heerstr. Ecke Wilhelmstr.,autobus,A13,1951697_unified,,
Adamstr. Ecke Wilhelmstr.,autobus,A13,1951698_unified,,
Rathaus Spandau,autobus,A13,1951699_unified,,
"Spandau, Markt",autobus,A13,1951700_unified,,
Gartenfelderstr. Ecke Am Juliusturm,autobus,A13,1951701_unified,,
Gartenfelderstr. Ecke Paulsternstr.,autobus,A13,1951702_unified,,
"Gartenfeld, Tegeler Brücke",autobus,A13,1951703_unified,,
Weg nach Saatwinkel,autobus,A13,1951704_unified,,
Wasserwerk,autobus,A13,1951705_unified,,
Krankenhaus Tegel-Süd,autobus,A13,1951706_unified,,
Berlinerstr. Ecke Bernauerstr.,autobus,A13,1951707_unified,,
Bhf. Tegel,autobus,A13,1951708_unified,,
Bhf. Tegel,autobus,A14,1951709_unified,,
Waidmannslusterdamm Ecke Buddestr.,autobus,A14,1951710_unified,,
Hauptstr. Ecke Hermsdorferstr.,autobus,A14,1951711_unified,,
Haupstr. Ecke Holzhauserdamm,autobus,A14,1951712_unified,,
Oranienburgerstr. Ecke Hauptstr.,autobus,A14,1951713_unified,,
"Reinickendorf, Hauptstr. Ecke Residenzstr.",autobus,A14,1951714_unified,,
Kopenhagenerstr. Ecke Flottenstr.,autobus,A14,1951715_unified,,
Reinickendorf Hauptstr. Ecke Aroserallee,autobus,A14,1951716_unified,,
Bhf. Wittenau,autobus,A15,1951717_unified,,
Holzhauserstr. Ecke Hauptstr.,autobus,A15,1951718_unified,,
Breitenbachstr. Ecke Eichborndamm,autobus,A15,1951719_unified,,
Borsigweg Ecke Schubstr.,autobus,A15,1951720_unified,,
Bernauerstr. Ecke Seidelstr.,autobus,A15,1951721_unified,,
Berlinerstr. Ecke Bahnhofstr.,autobus,A15,1951722_unified,,
Bhf. Tegel,autobus,A15,1951723_unified,,
U-Bhf. Seestr.,autobus,A16,1951724_unified,,
Augustenburgerplatz,autobus,A16,1951725_unified,,
Fennbrücke,autobus,A16,1951726_unified,,
Kriminalgericht,autobus,A16,1951727_unified,,
Rathaus Tiergarten,autobus,A16,1951728_unified,,
Hansaplatz,autobus,A16,1951729_unified,,
Großer Stern,autobus,A16,1951730_unified,,
Lützowplatz,autobus,A16,1951731_unified,,
Nollendorfplatz,autobus,A16,1951732_unified,,
Grunewaldstr. Ecke Martin-Lutherstr.,autobus,A16,1951733_unified,,
Rathaus Schöneberg,autobus,A16,1951734_unified,,
Innsbruckerplatz,autobus,A16,1951735_unified,,
Bundesplatz,autobus,A16,1951736_unified,,
U-Bhf. Breitenbachplatz,autobus,A16,1951737_unified,,
Roseneck,autobus,A17,1951738_unified,,
U-Bhf. Rüdesheimerplatz,autobus,A17,1951739_unified,,
Friedrich-Wilhelm-Platz,autobus,A17,1951740_unified,,
Kaisereiche,autobus,A17,1951741_unified,,
Titania-Palast,autobus,A17,1951742_unified,,
Rathaus Steglitz,autobus,A17,1951743_unified,,
Siemensstr. Ecke Leopnorenstr.,autobus,A17,1951744_unified,,
Bhf. Lichterfelde-Ost,autobus,A17,1951745_unified,,
Oberhoferplatz,autobus,A17,1951746_unified,,
Saaleckplatz (Lichterfelde),autobus,A17,1951747_unified,,
"Arnswalderplatz, Elbingerstr.",autobus,A9,1951748_unified,,
Königstor,autobus,A9,1951749_unified,,
Bhf. Alexanderplatz,autobus,A9,1951750_unified,,
Bhf. Friedrichstr.,autobus,A9,1951751_unified,,
Chausseestr. Ecke Invalidenstr.,autobus,A9,1951752_unified,,
Scharnhorststr. Ecke Kielerstr.,autobus,A9,1951753_unified,,
Rathaus Zehlendorf,autobus,A2,1951754_unified,,
Berlinerstr. Ecke Seehofstr.,autobus,A2,1951755_unified,,
Habelschwerdterallee Ecke Unter den Eichen,autobus,A2,1951756_unified,,
Hindenburgdamm Ecke Schloßstr.,autobus,A2,1951757_unified,,
Feuerbachstr. Ecke Bismarckstr.,autobus,A2,1951758_unified,,
Stadtpark Steglitz,autobus,A2,1951759_unified,,
Siemensstr. Ecke Leonorenstr.,autobus,A2,1951760_unified,,
"Lankwitz, Kirche",autobus,A2,1951761_unified,,
"Lankwitz, Trippsteinstr.",autobus,A2,1951762_unified,,
Müggelheim (an der Großen Krampe),autobus,A27,1951763_unified,,
Prinzengarten,autobus,A27,1951764_unified,,
Chausseehaus,autobus,A27,1951765_unified,,
Köpenicker Krankenhaus,autobus,A27,1951766_unified,,
Bahnhofstr. Ecke Lindenstr.,autobus,A27,1951767_unified,,
Bhf. Köpenick,autobus,A27,1951768_unified,,
Hoppendorferstr.,autobus,A27,1951769_unified,,
Chemnitzerstr. Ecke Ulmenstr.,autobus,A27,1951770_unified,,
Chemnitzerstr. Ecke Alt-Kaulsdorf,autobus,A27,1951771_unified,,
Bhf. Kaulsdorf,autobus,A27,1951772_unified,,
Rathaus Zehlendorf,autobus,A3,1951773_unified,,
U-Bhf. Oskar-Helene-Heim,autobus,A3,1951774_unified,,
U-Bhf. Onkel-Toms-Hütte,autobus,A3,1951775_unified,,
U-Bhf. Krumme Lanke,autobus,A3,1951776_unified,,
Bhf. Zehlendorf-West,autobus,A3,1951777_unified,,
Potsdamerchaussee Ecke Spanischeallee,autobus,A3,1951778_unified,,
Bhf. Nikolassee,autobus,A3,1951779_unified,,
Bhf. Wannsee,autobus,A3,1951780_unified,,
Rathaus Wannsee,autobus,A3,1951781_unified,,
"Stölpchensee, Wilhelmplatz",autobus,A3,1951782_unified,,
"Staaken, Heidelbergplan",autobus,A31,1951783_unified,,
Bhf. Staaken,autobus,A31,1951784_unified,,
Magistratsweg Ecke Brunsbüttelerdamm,autobus,A31,1951785_unified,,
"Spandau, Rathaus",autobus,A31,1951786_unified,,
Bhf. Spandau,autobus,A31,1951787_unified,,
Breitenbachplatz,autobus,A32 (Obus),1951788_unified,,
Rathaus Steglitz,autobus,A32 (Obus),1951789_unified,,
Stadtpark Steglitz,autobus,A32 (Obus),1951790_unified,,
Siemensstr. Ecke Leonorenstr.,autobus,A32 (Obus),1951791_unified,,
"Lankwitz, Kirche",autobus,A32 (Obus),1951792_unified,,
Marchandstr./Lankwitzer Ring,autobus,A32 (Obus),1951793_unified,,
Marienfelderallee Ecke Lankwitzstr.,autobus,A32 (Obus),1951794_unified,,
Bhf. Marienfelde,autobus,A32 (Obus),1951795_unified,,
Bhf. Steglitz,autobus,A33 (Obus),1951796_unified,,
Stadtpark Steglitz,autobus,A33 (Obus),1951797_unified,,
Bhf. Südende,autobus,A33 (Obus),1951798_unified,,
Bhf. Mariendorf,autobus,A33 (Obus),1951799_unified,,
Kaiserstr./Ringstr.,autobus,A33 (Obus),1951800_unified,,
"Mariendorf, Kaiserstr. Ecke Mariendorferdamm",autobus,A33 (Obus),1951801_unified,,
"Spandau, Askanierring",autobus,A34,1951802_unified,,
Rathaus Spandau,autobus,A34,1951803_unified,,
Heerstr. Ecke Pichelsdorferstr.,autobus,A34,1951804_unified,,
Zur Haveldüne (Weinmeisterhöhe),autobus,A34,1951805_unified,,
"Gatow, Kirche",autobus,A34,1951806_unified,,
Badewiese Ecke Kladowerdamm,autobus,A34,1951807_unified,,
"Gatow, Flugplatz",autobus,A34,1951808_unified,,
Neukladowerallee Ecke Kladowerdamm,autobus,A34,1951809_unified,,
"Alt-Kladow, Kladow",autobus,A34,1951810_unified,,
S-Bhf. Tegel,autobus,A35,1951811_unified,,
Freie Scholle (Schollenhof),autobus,A35,1951812_unified,,
Bhf. Waidmannslust,autobus,A35,1951813_unified,,
Am Vierrutenberg,autobus,A35,1951814_unified,,
"Lübars, Dorfplatz",autobus,A35,1951815_unified,,
S-Bhf. Grünau,autobus,A36,1951816_unified,,
"Bohnsdorf, Kirche",autobus,A36,1951817_unified,,
Falkenhöhe,autobus,A36,1951818_unified,,
Waltersdorferchaussee (Spinne),autobus,A36,1951819_unified,,
"Schönefeld, Dorfplatz",autobus,A36,1951820_unified,,
Bhf. Lichtenberg,autobus,A37,1951821_unified,,
"Friedrichsfelde, Schloßstr.",autobus,A37,1951822_unified,,
S-Bhf. Biesdorf,autobus,A37,1951823_unified,,
Cäcilienstr.,autobus,A37,1951824_unified,,
"Geißenweide, Elisabethstr.",autobus,A37,1951825_unified,,
"Alt-Marzahn, Kirche",autobus,A37,1951826_unified,,
Bhf. Grünau,autobus,A38,1951827_unified,,
"Bohnsdorf, Sportplatz",autobus,A38,1951828_unified,,
Schulzendorferstr. Ecke Parchwitzerstr.,autobus,A38,1951829_unified,,
Walterdorferstr. Ecke Waldstr.,autobus,A38,1951830_unified,,
Wartenbergerstr. Ecke Falkenbergerstr.,autobus,A39,1951831_unified,,
Falkenbergerchaussee,autobus,A39,1951832_unified,,
Bhf. Ahrensfelde,autobus,A39,1951833_unified,,
Birkholzerweg,autobus,A39,1951834_unified,,
"Wartenberg, Siedlung",autobus,A39,1951835_unified,,
U-Bhf. Oskar-Helene-Heim,autobus,A3E,1951836_unified,,
Clayallee Ecke Potsdamerstr.,autobus,A3E,1951837_unified,,
Berlinerstr. Ecke Seehofstr.,autobus,A3E,1951838_unified,,
Dahlemerweg Ecke Seehofstr.,autobus,A3E,1951839_unified,,
"Lichterfelde, Osteweg",autobus,A3E,1951840_unified,,
Rathaus Schöneberg,autobus,A4,1951841_unified,,
Martin-Lutherstr. Ecke Hauptstr.,autobus,A4,1951842_unified,,
Kaiser-Wilhelm-Platz,autobus,A4,1951843_unified,,
U-Bhf. Flughafen,autobus,A4,1951844_unified,,
U-Bhf. Boddinstr.,autobus,A4,1951845_unified,,
Rathaus Neukölln,autobus,A4,1951846_unified,,
"Schlesischer Bhf./Ostbahnhof, Madaistr.",autobus,A40,1951847_unified,,
Frankfurterallee,autobus,A40,1951848_unified,,
Königstor,autobus,A40,1951849_unified,,
Schönhauser Tor,autobus,A40,1951850_unified,,
Rosentalerplatz,autobus,A40,1951851_unified,,
Oranienburger Tor,autobus,A40,1951852_unified,,
Robert-Koch-Platz,autobus,A40,1951853_unified,,
Dimitroffstr. Ecke Leninallee,autobus,A41,1951854_unified,,
Oderbruchstr./Steuerhaus,autobus,A41,1951855_unified,,
Weißenseerweg Ecke Landsbergerstr.,autobus,A41,1951856_unified,,
Gensierstr. Ecke Landsbergerstr.,autobus,A41,1951857_unified,,
Dingelstädterstr. (Hohenschönhausen) Ecke Landsbergerstr.,autobus,A41,1951858_unified,,
"Marzahn, Bürknersfelde",autobus,A41,1951859_unified,,
Ostseestr. Ecke Prenzlauerallee,autobus,A42,1951860_unified,,
Hamburgerplatz (Weißensee),autobus,A42,1951861_unified,,
Gustav-Adolfstr. Ecke Rennbahnstr.,autobus,A42,1951862_unified,,
"Heinersdorf, Kirche",autobus,A42,1951863_unified,,
"Alt-Blankenburg, Kirche",autobus,A42,1951864_unified,,
"Alt-Karow, Kirche",autobus,A42,1951865_unified,,
"Alt-Buch, Kirche",autobus,A42,1951866_unified,,
"Buch, Zepernickerstr. (Ludwig-Hoffmann-Krankenhaus)",autobus,A42,1951867_unified,,
U-Bhf. Friedrichsfelde,autobus,A43,1951868_unified,,
Schloßstr. Ecke Alt-Friedrichsfelde,autobus,A43,1951869_unified,,
Bhf. Friedrichsfelde-Ost,autobus,A43,1951870_unified,,
Springpfuhl,autobus,A43,1951871_unified,,
"Pekrunstr., Marzahn",autobus,A43,1951872_unified,,
"Bhf. Mahlsdorf, Wodanstr.",autobus,A44,1951873_unified,,
Greifswalderstr. Ecke Hönowerstr.,autobus,A44,1951874_unified,,
"Hönow, Dorfstr. (Schule)",autobus,A44,1951875_unified,,
"Wilhelmsruh, Fontanestr.",autobus,A45,1951876_unified,,
Hauptstr. Ecke Edelweißstr.,autobus,A45,1951877_unified,,
Edelweißstr. Ecke Germanenstr.,autobus,A45,1951878_unified,,
Bismarckstr. Ecke Seckenderstr.,autobus,A45,1951879_unified,,
Grabbeallee Ecke Seckenderstr.,autobus,A45,1951880_unified,,
Breitestr. Ecke Wollankstr.,autobus,A45,1951881_unified,,
Breitestr. Ecke Berlinerstr.,autobus,A45,1951882_unified,,
Berlinerstr. Ecke Kissingenstr.,autobus,A45,1951883_unified,,
Prenzlauer Promenade Ecke Berlinerstr.,autobus,A45,1951884_unified,,
Langhansstr. Ecke Prenzlauerallee,autobus,A45,1951885_unified,,
Gustav-Adolfstr. Ecke Pistoriusstr.,autobus,A45,1951886_unified,,
Berlinerallee Ecke Wörthstr.,autobus,A45,1951887_unified,,
"Weißensee, Lindenallee",autobus,A45,1951888_unified,,
"Falkensee, Hansastr. Ecke Friedrich-Engelstr.",autobus,A5,1951889_unified,,
"Falkensee, Rathaus",autobus,A5,1951890_unified,,
Falkenhöhe/Zonengrenze,autobus,A5,1951891_unified,,
Falkenhagenerchaussee Ecke Zeppelinstr.,autobus,A5,1951892_unified,,
Seegefelderstr. Ecke Zeppelinstr.,autobus,A5,1951893_unified,,
"Spandau, Rathaus",autobus,A5,1951894_unified,,
Kladow/Hottengrund,autobus,A6,1951895_unified,,
Alt-Kladow/Postamt,autobus,A6,1951896_unified,,
Seekorso,autobus,A6,1951897_unified,,
Groß-Glienick/Gutshof,autobus,A6,1951898_unified,,
"Pankow, Elsa-Brandströmstr.",autobus,A7,1951899_unified,,
"Pankow, Kirche",autobus,A7,1951900_unified,,
"Pankow, Rathaus",autobus,A7,1951901_unified,,
Bismarckplatz,autobus,A7,1951902_unified,,
Ossietzkyplatz,autobus,A7,1951903_unified,,
"Nordend, Schillerstr.",autobus,A7,1951904_unified,,
"Blankenfelde, Hauptstr.",autobus,A7,1951905_unified,,
"Schildow, Breitestr.",autobus,A7,1951906_unified,,
U-Bhf. Friedrichsfelde,autobus,A8,1951907_unified,,
Gregoroviusweg (Gymnasium),autobus,A8,1951908_unified,,
Gleiwitzerstr. Ecke Köpenickerstr.,autobus,A8,1951909_unified,,
Chamnitzerstr. Ecke Ulmenstr.,autobus,A8,1951910_unified,,
"Kaulsdorf, Sadowastr.",autobus,A8,1951911_unified,,
Potsdamerplatz/Leipzigerplatz,autobus,A19,1951912_unified,,
Kaiserhof/Thälmannplatz,autobus,A19,1951913_unified,,
Karlplatz,autobus,A19,1951914_unified,,
Neues Tor,autobus,A19,1951915_unified,,
Stettiner Bhf./Nordbahnhof,autobus,A19,1951916_unified,,
Innsbruckerplatz,u-bahn,B I,1951917_unified,,
Bayerischerplatz,u-bahn,B I,1951918_unified,,
Viktoria-Luise-Platz,u-bahn,B I,1951919_unified,,
Nollendorfplatz,u-bahn,B I,1951920_unified,,
Kurfürstenstr.,u-bahn,B I,1951921_unified,,
Gleisdreieck,u-bahn,B I,1951922_unified,,
Möckernbrücke,u-bahn,B I,1951923_unified,,
Hallesches Tor,u-bahn,B I,1951924_unified,,
Prinzenstr.,u-bahn,B I,1951925_unified,,
Kottbusser Tor,u-bahn,B I,1951926_unified,,
Warschauer Brücke,u-bahn,B II,1951927_unified,,
Schlesisches Tor,u-bahn,B II,1951928_unified,,
Görlitzer Bahnhof,u-bahn,B II,1951929_unified,,
Kottbusser Tor,u-bahn,B II,1951930_unified,,
Prinzenstr.,u-bahn,B II,1951931_unified,,
Hallesches Tor,u-bahn,B II,1951932_unified,,
Möckernbrücke,u-bahn,B II,1951933_unified,,
Gleisdreieck,u-bahn,B II,1951934_unified,,
Kurfürstenstr.,u-bahn,B II,1951935_unified,,
Nollendorfplatz,u-bahn,B II,1951936_unified,,
Wittenbergplatz,u-bahn,B II,1951937_unified,,
Uhlandstr.,u-bahn,B II,1951938_unified,,
Seestr.,u-bahn,C I,1951939_unified,,
Leopoldplatz,u-bahn,C I,1951940_unified,,
Bahnhof Wedding,u-bahn,C I,1951941_unified,,
Reinickendorferstr.,u-bahn,C I,1951942_unified,,
Walter-Ulbricht-Stadion,u-bahn,C I,1951943_unified,,
Nordbahnhof,u-bahn,C I,1951944_unified,,
Oranienburger Tor,u-bahn,C I,1951945_unified,,
Friedrichstr.,u-bahn,C I,1951946_unified,,
Französischestr.,u-bahn,C I,1951947_unified,,
Stadtmitte,u-bahn,C I,1951948_unified,,
Kochstr.,u-bahn,C I,1951949_unified,,
Hallesches Tor,u-bahn,C I,1951950_unified,,
Mehringdamm,u-bahn,C I,1951951_unified,,
Gneisenaustr.,u-bahn,C I,1951952_unified,,
Südstern,u-bahn,C I,1951953_unified,,
Hermannplatz,u-bahn,C I,1951954_unified,,
Rathaus Neukölln,u-bahn,C I,1951955_unified,,
Karl-Marxstr.,u-bahn,C I,1951956_unified,,
Neukölln (Südring),u-bahn,C I,1951957_unified,,
Grenzallee,u-bahn,C I,1951958_unified,,
Mehringdamm,u-bahn,C II,1951959_unified,,
Flughafen,u-bahn,C II,1951960_unified,,
Paradestr.,u-bahn,C II,1951961_unified,,
Tempelhof (Südring),u-bahn,C II,1951962_unified,,
Gesundbrunnen,u-bahn,D,1951963_unified,,
Voltastr.,u-bahn,D,1951964_unified,,
Bernauerstr.,u-bahn,D,1951965_unified,,
Rosenthalerplatz,u-bahn,D,1951966_unified,,
Weinmeisterstr.,u-bahn,D,1951967_unified,,
Alexanderplatz,u-bahn,D,1951968_unified,,
Jannowitzbrücke,u-bahn,D,1951969_unified,,
Neanderstr.,u-bahn,D,1951970_unified,,
Moritzplatz,u-bahn,D,1951971_unified,,
Kottbusser Tor,u-bahn,D,1951972_unified,,
Schönleinstr.,u-bahn,D,1951973_unified,,
Hermannplatz,u-bahn,D,1951974_unified,,
Boddinstr.,u-bahn,D,1951975_unified,,
Leinestr.,u-bahn,D,1951976_unified,,
Friedrichsfelde,u-bahn,E,1951977_unified,,
Lichtenberg,u-bahn,E,1951978_unified,,
Magdalenenstr.,u-bahn,E,1951979_unified,,
Stalinallee,u-bahn,E,1951980_unified,,
Samariterstr.,u-bahn,E,1951981_unified,,
Bersarinstr.,u-bahn,E,1951982_unified,,
Marchlewskistr.,u-bahn,E,1951983_unified,,
Strausbergerplatz,u-bahn,E,1951984_unified,,
Schillingstr.,u-bahn,E,1951985_unified,,
Alexanderplatz,u-bahn,E,1951986_unified,,
Gesundbrunnen,s-bahn,KBS 100,1951987_unified,,
Schönhauserallee,s-bahn,KBS 100,1951988_unified,,
Prenzlauerallee,s-bahn,KBS 100,1951989_unified,,
Greifswalderstr.,s-bahn,KBS 100,1951990_unified,,
Leninallee,s-bahn,KBS 100,1951991_unified,,
Zentralviehhof,s-bahn,KBS 100,1951992_unified,,
Stalinallee,s-bahn,KBS 100,1951993_unified,,
Ostkreuz,s-bahn,KBS 100,1951994_unified,,
Treptower Park,s-bahn,KBS 100,1951995_unified,,
Sonnenallee,s-bahn,KBS 100,1951996_unified,,
Neukölln,s-bahn,KBS 100,1951997_unified,,
Hermannstr.,s-bahn,KBS 100,1951998_unified,,
Tempelhof,s-bahn,KBS 100,1951999_unified,,
Papestr.,s-bahn,KBS 100,19511000_unified,,
Schöneberg,s-bahn,KBS 100,19511001_unified,,
Innsbruckerplatz,s-bahn,KBS 100,19511002_unified,,
Wilmersdorf,s-bahn,KBS 100,19511003_unified,,
Schmargendorf,s-bahn,KBS 100,19511004_unified,,
Hohenzollerndamm,s-bahn,KBS 100,19511005_unified,,
Halensee,s-bahn,KBS 100,19511006_unified,,
Westkreuz,s-bahn,KBS 100,19511007_unified,,
Witzleben,s-bahn,KBS 100,19511008_unified,,
Westend,s-bahn,KBS 100,19511009_unified,,
Jungfernheide,s-bahn,KBS 100,19511010_unified,,
Beusselstr.,s-bahn,KBS 100,19511011_unified,,
Putlitzstr.,s-bahn,KBS 100,19511012_unified,,
Wedding,s-bahn,KBS 100,19511013_unified,,
Wilmersdorf,s-bahn,KBS 100a,19511014_unified,,
Innsbruckerplatz,s-bahn,KBS 100a,19511015_unified,,
Schöneberg,s-bahn,KBS 100a,19511016_unified,,
Papestr.,s-bahn,KBS 100a,19511017_unified,,
Tempelhof,s-bahn,KBS 100a,19511018_unified,,
Hermannstr.,s-bahn,KBS 100a,19511019_unified,,
Neukölln,s-bahn,KBS 100a,19511020_unified,,
Köllnische Heide,s-bahn,KBS 100a,19511021_unified,,
Baumschulenweg,s-bahn,KBS 100a,19511022_unified,,
Schöneweide,s-bahn,KBS 100a,19511023_unified,,
Betriebsbahnhof Schöneweide,s-bahn,KBS 100a,19511024_unified,,
Adlershof,s-bahn,KBS 100a,19511025_unified,,
Grünau,s-bahn,KBS 100a,19511026_unified,,
Jungfernheide,s-bahn,KBS 100b,19511027_unified,,
Wernerwerk,s-bahn,KBS 100b,19511028_unified,,
Siemensstadt,s-bahn,KBS 100b,19511029_unified,,
Gartenfeld,s-bahn,KBS 100b,19511030_unified,,
Schöneweide,s-bahn,KBS 100d,19511031_unified,,
Oberspree,s-bahn,KBS 100d,19511032_unified,,
Spindlersfeld,s-bahn,KBS 100d,19511033_unified,,
Staaken,s-bahn,KBS 101,19511034_unified,,
Spandau West,s-bahn,KBS 101,19511035_unified,,
Spandau,s-bahn,KBS 101,19511036_unified,,
Pichelsberg,s-bahn,KBS 101,19511037_unified,,
Reichssportfeld,s-bahn,KBS 101,19511038_unified,,
Heerstr.,s-bahn,KBS 101,19511039_unified,,
Eichkamp,s-bahn,KBS 101,19511040_unified,,
Westkreuz,s-bahn,KBS 101,19511041_unified,,
Charlottenburg,s-bahn,KBS 101,19511042_unified,,
Savignyplatz,s-bahn,KBS 101,19511043_unified,,
Zoologischer Garten,s-bahn,KBS 101,19511044_unified,,
Tiergarten,s-bahn,KBS 101,19511045_unified,,
Bellevue,s-bahn,KBS 101,19511046_unified,,
Lehrter Stadtbahnhof,s-bahn,KBS 101,19511047_unified,,
Friedrichstr.,s-bahn,KBS 101,19511048_unified,,
Marx-Engels-Platz,s-bahn,KBS 101,19511049_unified,,
Alexanderplatz,s-bahn,KBS 101,19511050_unified,,
Jannowitzbrücke,s-bahn,KBS 101,19511051_unified,,
Ostbahnhof,s-bahn,KBS 101,19511052_unified,,
Warschauerstr.,s-bahn,KBS 101,19511053_unified,,
Ostkreuz,s-bahn,KBS 101,19511054_unified,,
Neu-Lichtenberg,s-bahn,KBS 101,19511055_unified,,
Lichtenberg,s-bahn,KBS 101,19511056_unified,,
Friedrichsfelde Ost,s-bahn,KBS 101,19511057_unified,,
Biesdorf,s-bahn,KBS 101,19511058_unified,,
Kaulsdorf,s-bahn,KBS 101,19511059_unified,,
Mahlsdorf,s-bahn,KBS 101,19511060_unified,,
Hoppegarten (Mark),s-bahn,KBS 101,19511061_unified,,
Neuenhagen (b Bln),s-bahn,KBS 101,19511062_unified,,
Fredersdorf (b Bln),s-bahn,KBS 101,19511063_unified,,
Giebelsee,s-bahn,KBS 101,19511064_unified,,
Strausberg,s-bahn,KBS 101,19511065_unified,,
Potsdam,s-bahn,KBS 102,19511066_unified,,
Babelsberg,s-bahn,KBS 102,19511067_unified,,
Griebnitzsee,s-bahn,KBS 102,19511068_unified,,
Wannsee,s-bahn,KBS 102,19511069_unified,,
Nikolassee,s-bahn,KBS 102,19511070_unified,,
Grunewald,s-bahn,KBS 102,19511071_unified,,
Westkreuz,s-bahn,KBS 102,19511072_unified,,
Charlottenburg,s-bahn,KBS 102,19511073_unified,,
Savignyplatz,s-bahn,KBS 102,19511074_unified,,
Zoologischer Garten,s-bahn,KBS 102,19511075_unified,,
Tiergarten,s-bahn,KBS 102,19511076_unified,,
Bellevue,s-bahn,KBS 102,19511077_unified,,
Lehrter Stadtbahnhof,s-bahn,KBS 102,19511078_unified,,
Friedrichstr.,s-bahn,KBS 102,19511079_unified,,
Marx-Engels-Platz,s-bahn,KBS 102,19511080_unified,,
Alexanderplatz,s-bahn,KBS 102,19511081_unified,,
Jannowitzbrücke,s-bahn,KBS 102,19511082_unified,,
Ostbahnhof,s-bahn,KBS 102,19511083_unified,,
Warschauerstr.,s-bahn,KBS 102,19511084_unified,,
Ostkreuz,s-bahn,KBS 102,19511085_unified,,
Rummelsburg,s-bahn,KBS 102,19511086_unified,,
Betriebsbahnhof Rummelsburg,s-bahn,KBS 102,19511087_unified,,
Karlshorst,s-bahn,KBS 102,19511088_unified,,
Wuhlheide,s-bahn,KBS 102,19511089_unified,,
Köpenick,s-bahn,KBS 102,19511090_unified,,
Hirschgarten,s-bahn,KBS 102,19511091_unified,,
Friedrichshagen,s-bahn,KBS 102,19511092_unified,,
Rahnsdorf,s-bahn,KBS 102,19511093_unified,,
Wilhelmshagen,s-bahn,KBS 102,19511094_unified,,
Erkner,s-bahn,KBS 102,19511095_unified,,
Falkensee,s-bahn,KBS 103,19511096_unified,,
Albrechtshof,s-bahn,KBS 103,19511097_unified,,
Spandau West,s-bahn,KBS 103,19511098_unified,,
Spandau,s-bahn,KBS 103,19511099_unified,,
Pichelsberg,s-bahn,KBS 103,19511100_unified,,
Reichssportfeld,s-bahn,KBS 103,19511101_unified,,
Heerstr.,s-bahn,KBS 103,19511102_unified,,
Eichkamp,s-bahn,KBS 103,19511103_unified,,
Westkreuz,s-bahn,KBS 103,19511104_unified,,
Charlottenburg,s-bahn,KBS 103,19511105_unified,,
Savignyplatz,s-bahn,KBS 103,19511106_unified,,
Zoologischer Garten,s-bahn,KBS 103,19511107_unified,,
Tiergarten,s-bahn,KBS 103,19511108_unified,,
Bellevue,s-bahn,KBS 103,19511109_unified,,
Lehrter Stadtbahnhof,s-bahn,KBS 103,19511110_unified,,
Friedrichstr.,s-bahn,KBS 103,19511111_unified,,
Marx-Engels-Platz,s-bahn,KBS 103,19511112_unified,,
Alexanderplatz,s-bahn,KBS 103,19511113_unified,,
Jannowitzbrücke,s-bahn,KBS 103,19511114_unified,,
Ostbahnhof,s-bahn,KBS 103,19511115_unified,,
Warschauerstr.,s-bahn,KBS 103,19511116_unified,,
Ostkreuz,s-bahn,KBS 103,19511117_unified,,
Treptower Park,s-bahn,KBS 103,19511118_unified,,
Baumschulenweg,s-bahn,KBS 103,19511119_unified,,
Schöneweide,s-bahn,KBS 103,19511120_unified,,
Betriebsbahnhof Schöneweide,s-bahn,KBS 103,19511121_unified,,
Adlershof,s-bahn,KBS 103,19511122_unified,,
Grünau,s-bahn,KBS 103,19511123_unified,,
Eichwalde (Kreis Teltow),s-bahn,KBS 103,19511124_unified,,
Zeuthen,s-bahn,KBS 103,19511125_unified,,
Wildau,s-bahn,KBS 103,19511126_unified,,
Königs Wusterhausen,s-bahn,KBS 103,19511127_unified,,
Oranienburg,s-bahn,KBS 104,19511128_unified,,
Lehnitz,s-bahn,KBS 104,19511129_unified,,
Borgsdorf,s-bahn,KBS 104,19511130_unified,,
Birkenwerder,s-bahn,KBS 104,19511131_unified,,
Hohen-Neuendorf (b Bln),s-bahn,KBS 104,19511132_unified,,
Frohnau,s-bahn,KBS 104,19511133_unified,,
Hermsdorf,s-bahn,KBS 104,19511134_unified,,
Waidmannslust,s-bahn,KBS 104,19511135_unified,,
Wittenau (Nordbahn),s-bahn,KBS 104,19511136_unified,,
Wilhelmsruh,s-bahn,KBS 104,19511137_unified,,
Schönholz,s-bahn,KBS 104,19511138_unified,,
Wollankstr.,s-bahn,KBS 104,19511139_unified,,
Bornholmerstr.,s-bahn,KBS 104,19511140_unified,,
Gesundbrunnen,s-bahn,KBS 104,19511141_unified,,
Humboldthain,s-bahn,KBS 104,19511142_unified,,
Nordbahnhof,s-bahn,KBS 104,19511143_unified,,
Oranienburgerstr.,s-bahn,KBS 104,19511144_unified,,
Friedrichstr.,s-bahn,KBS 104,19511145_unified,,
Unter den Linden,s-bahn,KBS 104,19511146_unified,,
Potsdamerplatz,s-bahn,KBS 104,19511147_unified,,
Anhalter Bahnhof,s-bahn,KBS 104,19511148_unified,,
Großgörschenstr.,s-bahn,KBS 104,19511149_unified,,
Schöneberg,s-bahn,KBS 104,19511150_unified,,
Friedenau,s-bahn,KBS 104,19511151_unified,,
Feuerbachstr.,s-bahn,KBS 104,19511152_unified,,
Steglitz,s-bahn,KBS 104,19511153_unified,,
Botanischer Garten,s-bahn,KBS 104,19511154_unified,,
Lichterfelde West,s-bahn,KBS 104,19511155_unified,,
Sundgauerstr.,s-bahn,KBS 104,19511156_unified,,
Zehlendorf,s-bahn,KBS 104,19511157_unified,,
Zehlendorf West,s-bahn,KBS 104,19511158_unified,,
Schlachtensee,s-bahn,KBS 104,19511159_unified,,
Nikolassee,s-bahn,KBS 104,19511160_unified,,
Wannsee,s-bahn,KBS 104,19511161_unified,,
Zehlendorf,s-bahn,KBS 104a,19511162_unified,,
Hohenschöpping,s-bahn,KBS 105,19511163_unified,,
Hennigsdorf (Kr. Oberhavel),s-bahn,KBS 105,19511164_unified,,
Heiligensee,s-bahn,KBS 105,19511165_unified,,
Schulzendorf (b Tegel),s-bahn,KBS 105,19511166_unified,,
Tegel,s-bahn,KBS 105,19511167_unified,,
Eichbornstr.,s-bahn,KBS 105,19511168_unified,,
Wittenau (Kremmener Bahn),s-bahn,KBS 105,19511169_unified,,
Reinickendorf,s-bahn,KBS 105,19511170_unified,,
Schönholz,s-bahn,KBS 105,19511171_unified,,
Wollankstr.,s-bahn,KBS 105,19511172_unified,,
Bornholmerstr.,s-bahn,KBS 105,19511173_unified,,
Gesundbrunnen,s-bahn,KBS 105,19511174_unified,,
Humboldthain,s-bahn,KBS 105,19511175_unified,,
Nordbahnhof,s-bahn,KBS 105,19511176_unified,,
Oranienburgerstr.,s-bahn,KBS 105,19511177_unified,,
Friedrichstr.,s-bahn,KBS 105,19511178_unified,,
Unter den Linden,s-bahn,KBS 105,19511179_unified,,
Potsdamerplatz,s-bahn,KBS 105,19511180_unified,,
Anhalter Bahnhof,s-bahn,KBS 105,19511181_unified,,
Nordbahnhof,s-bahn,KBS 105b,19511182_unified,,
Oranienburgerstr.,s-bahn,KBS 105b,19511183_unified,,
Friedrichstr.,s-bahn,KBS 105b,19511184_unified,,
Unter den Linden,s-bahn,KBS 105b,19511185_unified,,
Potsdamerplatz,s-bahn,KBS 105b,19511186_unified,,
Anhalter Bahnhof,s-bahn,KBS 105b,19511187_unified,,
Yorckstr.,s-bahn,KBS 105b,19511188_unified,,
Papestr.,s-bahn,KBS 105b,19511189_unified,,
Priesterweg,s-bahn,KBS 105b,19511190_unified,,
Mariendorf,s-bahn,KBS 105b,19511191_unified,,
Marienfelde,s-bahn,KBS 105b,19511192_unified,,
Buckower Ch.,s-bahn,KBS 105b,19511193_unified,,
Lichtenrade,s-bahn,KBS 105b,19511194_unified,,
Mahlow,s-bahn,KBS 105b,19511195_unified,,
Blankenfelde (Kr. Teltow),s-bahn,KBS 105b,19511196_unified,,
Dahlewitz,s-bahn,KBS 105b,19511197_unified,,
Rangsdorf,s-bahn,KBS 105b,19511198_unified,,
Bernau (b Bln),s-bahn,KBS 106,19511199_unified,,
Zepernick (Kr. Niederbarnim),s-bahn,KBS 106,19511200_unified,,
Röntgental,s-bahn,KBS 106,19511201_unified,,
Buch,s-bahn,KBS 106,19511202_unified,,
Karow,s-bahn,KBS 106,19511203_unified,,
Blankenburg,s-bahn,KBS 106,19511204_unified,,
Pankow-Heinersdorf,s-bahn,KBS 106,19511205_unified,,
Pankow-Schönhausen,s-bahn,KBS 106,19511206_unified,,
Bornholmerstr.,s-bahn,KBS 106,19511207_unified,,
Gesundbrunnen,s-bahn,KBS 106,19511208_unified,,
Humboldthain,s-bahn,KBS 106,19511209_unified,,
Nordbahnhof,s-bahn,KBS 106,19511210_unified,,
Oranienburgerstr.,s-bahn,KBS 106,19511211_unified,,
Friedrichstr.,s-bahn,KBS 106,19511212_unified,,
Unter den Linden,s-bahn,KBS 106,19511213_unified,,
Potsdamerplatz,s-bahn,KBS 106,19511214_unified,,
Anhalter Bahnhof,s-bahn,KBS 106,19511215_unified,,
Yorckstr.,s-bahn,KBS 106,19511216_unified,,
Papestr.,s-bahn,KBS 106,19511217_unified,,
Priesterweg,s-bahn,KBS 106,19511218_unified,,
Südende,s-bahn,KBS 106,19511219_unified,,
Lankwitz,s-bahn,KBS 106,19511220_unified,,
Lichterfelde Ost,s-bahn,KBS 106,19511221_unified,,
Lichterfelde Süd,s-bahn,KBS 106,19511222_unified,,
Teltow,s-bahn,KBS 106,19511223_unified,,
Kladow,ferry,Wannsee<>Kladow (Betrieb durch Stern und Kreisschiffahrt),19511224_unified,,
Wannsee,ferry,Wannsee<>Kladow (Betrieb durch Stern und Kreisschiffahrt),19511225_unified,,
