stop_name,type,line_name,stop_id,location,identifier
Schillingbrücke (Ostbahnhof),tram,1,19560_unified,,
Stalinallee,tram,1,19561_unified,,
Leninplatz,tram,1,19562_unified,,
"Leninallee, Kleine Frankfurterstr.",tram,1,19563_unified,,
"Alexanderplatz, Memhardstr.",tram,1,19564_unified,,
"Gipsstr., U-Bhf. Weinmeisterstr.",tram,1,19565_unified,,
Rosenthalerplatz,tram,1,19566_unified,,
Brunnen Ecke Invalidenstr.,tram,1,19567_unified,,
Invalidenstr. Ecke Chausseestr.,tram,1,19568_unified,,
Oranienburger Tor,tram,1,19569_unified,,
"Weidendammbrücke, Bhf. Friedrichstr.",tram,1,195610_unified,,
Am Kupfergraben,tram,1,195611_unified,,
"Wienerstr., Spreewaldplatz",tram,2,195612_unified,,
Hermannplatz,tram,2,195613_unified,,
Südstern,tram,2,195614_unified,,
Mehringdamm,tram,2,195615_unified,,
Goebenstr. Ecke Bülowstr.,tram,2,195616_unified,,
Nollendorfplatz,tram,2,195617_unified,,
Wittenbergplatz,tram,2,195618_unified,,
Bhf. Zoo,tram,2,195619_unified,,
Am Knie,tram,2,195620_unified,,
Gotzkowskystr. Ecke Turmstr.,tram,2,195621_unified,,
Turmstr. Ecke Rathenowerstr.,tram,2,195622_unified,,
Fennbrücke,tram,2,195623_unified,,
Weddingplatz,tram,2,195624_unified,,
Usedomerstr.,tram,2,195625_unified,,
Bernauerstr. Ecke Wollinerstr.,tram,2,195626_unified,,
Mühlenstr.,tram,3,195627_unified,,
Bhf. Warschauer Brücke,tram,3,195628_unified,,
Boxhagenerstr.,tram,3,195629_unified,,
"Bhf. Stalineallee, Gürtelstr.",tram,3,195630_unified,,
Rathaus Lichtenberg,tram,3,195631_unified,,
Roederplatz,tram,3,195632_unified,,
Landsbergerchaussee Ecke Weißenseerweg,tram,3,195633_unified,,
Hohenschönhauserstr.,tram,3,195634_unified,,
Klement-Gottwald-Allee/Lichtenbergerstr.,tram,3,195635_unified,,
Antonplatz,tram,3,195636_unified,,
Prenzlauer Promenade Ecke Gustav-Adolfstr.,tram,3,195637_unified,,
Schönhauserallee,tram,3,195638_unified,,
Björnsonstr.,tram,3,195639_unified,,
"Neukölln, Hermannplatz",tram,3,195640_unified,,
Südstern,tram,3,195641_unified,,
Zosenerstr. Ecke Gneisenaustr.,tram,3,195642_unified,,
Mehringdamm,tram,3,195643_unified,,
Potsdamerstr.,tram,3,195644_unified,,
Martin-Lutherstr.,tram,3,195645_unified,,
Bundesallee Ecke Berlinerstr.,tram,3,195646_unified,,
Fehrbellinerplatz,tram,3,195647_unified,,
Kurfürstendamm Ecke Brandenburgischestr.,tram,3,195648_unified,,
Kantstr. Ecke Wilmersdorferstr.,tram,3,195649_unified,,
Wilmersdorferstr. Ecke Berlinerstr.,tram,3,195650_unified,,
Luisenplatz,tram,3,195651_unified,,
Osnabrückerstr. Ecke Tauroggenerstr.,tram,3,195652_unified,,
Gotzkowskystr. Ecke Turmstr.,tram,3,195653_unified,,
Plötzensee,tram,3,195654_unified,,
U-Bhf. Seestr.,tram,3,195655_unified,,
Oskarplatz,tram,3,195656_unified,,
Prinzenallee Ecke Osloerstr.,tram,3,195657_unified,,
Grüntalerstr. Ecke Osloerstr.,tram,3,195658_unified,,
Mühlenstr.,tram,4,195659_unified,,
Bhf. Warschauer Brücke,tram,4,195660_unified,,
Grünbergerstr.,tram,4,195661_unified,,
Frankfurter Tor/Stalinallee,tram,4,195662_unified,,
Bersarinplatz,tram,4,195663_unified,,
Leninallee,tram,4,195664_unified,,
Paul-Heysestr.,tram,4,195665_unified,,
Arnswalderplatz,tram,4,195666_unified,,
Greifswalderstr.,tram,4,195667_unified,,
Prenzlauerallee,tram,4,195668_unified,,
U-Bhf. Dimitroffstr.,tram,4,195669_unified,,
Oderbergerstr.,tram,4,195670_unified,,
Bhf. Zoo,tram,6,195671_unified,,
Wittenbergplatz,tram,6,195672_unified,,
Grunewaldstr. Ecke Martin-Lutherstr.,tram,6,195673_unified,,
Rathaus Schöneberg,tram,6,195674_unified,,
Hauptstr.,tram,6,195675_unified,,
Alboinstr. Ecke Schönebergerstr.,tram,6,195676_unified,,
Tempelhoferdamm Ecke Alt-Tempelhof,tram,6,195677_unified,,
Oberlandstr. Ecke Germaniastr.,tram,6,195678_unified,,
Gottlieb-Dunkelstr. Ecke Germaniastr.,tram,6,195679_unified,,
Britzerdamm Ecke Blaschkoallee,tram,6,195680_unified,,
Buschkrug,tram,6,195681_unified,,
U-Bhf. Grenzallee,tram,6,195682_unified,,
U-Bhf. Neukölln,tram,6,195683_unified,,
U-Bhf. Rathaus Neukölln,tram,6,195684_unified,,
Elsenstr. Ecke Heidelbergerstr.,tram,6,195685_unified,,
Köpenickerstr. Ecke Adalbertstr.,tram,11,195686_unified,,
U-Bhf. Neanderstr.,tram,11,195687_unified,,
Bhf. Jannowitzbrücke,tram,11,195688_unified,,
"Alexanderplatz, Memhardstr.",tram,11,195689_unified,,
U-Bhf. Weinmeisterstr.,tram,11,195690_unified,,
Rosenthalerplatz,tram,11,195691_unified,,
Brunnen Ecke Invalidenstr.,tram,11,195692_unified,,
Invalidenstr. Ecke Chausseestr.,tram,11,195693_unified,,
Oranienburger Tor,tram,11,195694_unified,,
Hannoverschestr.,tram,11,195695_unified,,
"Klingenberg, Blockdammweg",tram,13,195696_unified,,
Kraftwerk Klingenberg,tram,13,195697_unified,,
"Saganerstr., Güterbahn",tram,13,195698_unified,,
"Klingenberg, Hauptstr.",tram,13,195699_unified,,
Holteistr.,tram,13,1956100_unified,,
Boxhagenerstr.,tram,13,1956101_unified,,
Frankfurter Tor/Stalinallee,tram,13,1956102_unified,,
Bersarinplatz,tram,13,1956103_unified,,
Leninallee,tram,13,1956104_unified,,
Paul-Heysestr.,tram,13,1956105_unified,,
Arnswalderplatz,tram,13,1956106_unified,,
Greifswalderstr.,tram,13,1956107_unified,,
Prenzlauerallee,tram,13,1956108_unified,,
U-Bhf. Dimitroffstr.,tram,13,1956109_unified,,
Oderbergerstr.,tram,13,1956110_unified,,
Daimlerstr.,tram,15,1956111_unified,,
Bhf. Marienfelde,tram,15,1956112_unified,,
Mariendorferdamm Ecke Alt-Mariendorf,tram,15,1956113_unified,,
Imbrosweg,tram,15,1956114_unified,,
Mariendorfer Friedhof,tram,15,1956115_unified,,
Industriestr.,tram,15,1956116_unified,,
Germaniastr. Ecke Gottlieb-Dunkelstr.,tram,15,1956117_unified,,
Frauenklinik,tram,15,1956118_unified,,
Hermannstr. Ecke Hertastr.,tram,15,1956119_unified,,
U-Bhf. Neukölln,tram,15,1956120_unified,,
Richardstr.,tram,15,1956121_unified,,
Bhf. Sonnenallee,tram,15,1956122_unified,,
Dammweg,tram,15,1956123_unified,,
Schulenburgpark,tram,15,1956124_unified,,
Bhf. Rosenthal,tram,22,1956125_unified,,
"Rosenthal, Siedlung",tram,22,1956126_unified,,
Nordendstr.,tram,22,1956127_unified,,
Kurt-Fischer-Platz,tram,22,1956128_unified,,
"Breitestr., Pankow, Rathaus",tram,22,1956129_unified,,
"Pankow, Kirche",tram,22,1956130_unified,,
"S-Bhf. Pankow, Florastr.",tram,22,1956131_unified,,
U-Bhf. Vinetastr.,tram,22,1956132_unified,,
S-Bhf. Schönhauserallee,tram,22,1956133_unified,,
"Eberswalderstr., U-Bhf. Dimitroffstr.",tram,22,1956134_unified,,
Zionskirchstr.,tram,22,1956135_unified,,
Rosenthalerplatz,tram,22,1956136_unified,,
Memhardtstr. Ecke Liebknechtstr.,tram,22,1956137_unified,,
"Alexanderplatz, Grunerstr.",tram,22,1956138_unified,,
Elisabethstr.,tram,22,1956139_unified,,
Bhf. Wollankstr.,tram,23,1956140_unified,,
Osloerstr. Ecke Prinzenallee,tram,23,1956141_unified,,
Badstr. Ecke Prinzenallee,tram,23,1956142_unified,,
Nettelbeckplatz,tram,23,1956143_unified,,
Weddingplatz,tram,23,1956144_unified,,
Fennbrücke,tram,23,1956145_unified,,
Augustenburgerplatz,tram,23,1956146_unified,,
Birkenstr. Ecke Pulitzstr.,tram,23,1956147_unified,,
Stromstrase Ecke Turmstr.,tram,23,1956148_unified,,
Turmstr. Ecke Gotzkowskystr.,tram,23,1956149_unified,,
"Moabit, Zwinglistr.",tram,23,1956150_unified,,
Bhf. Wollankstr.,tram,24,1956151_unified,,
Osloerstr. Ecke Prinzenallee,tram,24,1956152_unified,,
Prinzenallee Ecke Badstr.,tram,24,1956153_unified,,
Bhf. Gesundbrunnen,tram,24,1956154_unified,,
Rügenerstr. Ecke Brunnenstr.,tram,24,1956155_unified,,
Brunnenstr. Ecke Bernauerstr.,tram,24,1956156_unified,,
Bernauerstr. Ecke Wollinerstr.,tram,24,1956157_unified,,
"Tegel, Alt-Tegel",tram,25,1956158_unified,,
Bernauerstr. Ecke Berlinerstr.,tram,25,1956159_unified,,
Eichborndamm Ecke Scharnweberstr.,tram,25,1956160_unified,,
Kurt-Schuhmacher-Platz,tram,25,1956161_unified,,
"Londonerstr., Strassenbahnhof",tram,25,1956162_unified,,
Seestr. Ecke Müllerstr.,tram,25,1956163_unified,,
Weddingplatz,tram,25,1956164_unified,,
Kriminalgericht,tram,25,1956165_unified,,
Stromstr. Ecke Turmstr.,tram,25,1956166_unified,,
Turmstr. Ecke Gotzkowskystr.,tram,25,1956167_unified,,
U-Bhf. Ernst-Reuter-Platz,tram,25,1956168_unified,,
Bhf. Zoo,tram,25,1956169_unified,,
Wittenbergplatz,tram,25,1956170_unified,,
Grunewaldstr. Ecke Martin-Lutherstr.,tram,25,1956171_unified,,
Badenschestr. Ecke Martin-Lutherstr.,tram,25,1956172_unified,,
Rathaus Schöneberg (Belzigerstr.),tram,25,1956173_unified,,
Dominicusstr. Ecke Hauptstr.,tram,25,1956174_unified,,
Kaiser-Wilhelm-Platz,tram,25,1956175_unified,,
"Schöneberg, Gotenstr.",tram,25,1956176_unified,,
Spreewaldplatz,tram,26,1956177_unified,,
Reichenbergerstr.,tram,26,1956178_unified,,
Glogauerstr.,tram,26,1956179_unified,,
Sonnenallee,tram,26,1956180_unified,,
Hermannplatz,tram,26,1956181_unified,,
Weichselstr.,tram,26,1956182_unified,,
Rathaus Neukölln,tram,26,1956183_unified,,
Karl-Marxstr.-Station,tram,26,1956184_unified,,
U-Bhf. Neukölln,tram,26,1956185_unified,,
Hermannstr. Ecke Hertastr.,tram,26,1956186_unified,,
Germaniastr. Ecke Gottlieb-Dunkelstr.,tram,26,1956187_unified,,
"Tempelhof, Industriestr.",tram,26,1956188_unified,,
"Neukölln, Hermannplatz",tram,27,1956189_unified,,
U-Bhf. Boddinstr.,tram,27,1956190_unified,,
Bhf. Hermannstr.,tram,27,1956191_unified,,
Gradestr.,tram,27,1956192_unified,,
Mariendorferallee,tram,27,1956193_unified,,
"Buckow, Alt-Buckow",tram,27,1956194_unified,,
"Tegelort, Kurzestr.",tram,28,1956195_unified,,
Falkenplatz,tram,28,1956196_unified,,
Gabelung,tram,28,1956197_unified,,
Ruppinerchaussee Ecke Karolinenstr.,tram,28,1956198_unified,,
Alt-Tegel Ecke Schloßstr.,tram,28,1956199_unified,,
Bernauerstr. Ecke Berlinerstr.,tram,28,1956200_unified,,
"Eichenborndamm, Sportplatz Reinickendorf",tram,28,1956201_unified,,
Kurt-Schumacher-Platz,tram,28,1956202_unified,,
Londonerstr. Ecke Müllerstr.,tram,28,1956203_unified,,
Seestr. Ecke Müllerstr.,tram,28,1956204_unified,,
Müllerstr. Ecke Schulstr.,tram,28,1956205_unified,,
Reinickendorferstr. Ecke Schulstr.,tram,28,1956206_unified,,
Uferstr. Ecke Exerzierstr.,tram,28,1956207_unified,,
Pankstr./Prinzenallee,tram,28,1956208_unified,,
Bhf. Gesundbrunnen,tram,28,1956209_unified,,
Rügenesrstr. Ecke Brunnenstr.,tram,28,1956210_unified,,
"Heiligensee, Dorfaue",tram,29,1956211_unified,,
Hennigsdorferstr. Ecke Heiligensee,tram,29,1956212_unified,,
Gabelung,tram,29,1956213_unified,,
Ruppinerchaussee Ecke Karolinenstr.,tram,29,1956214_unified,,
Alt-Tegel Ecke Schloßstr.,tram,29,1956215_unified,,
Bernauerstr. Ecke Berlinerstr.,tram,29,1956216_unified,,
"Eichborndamm, Sportplatz Reinickendorf",tram,29,1956217_unified,,
Kurt-Schumacher-Platz,tram,29,1956218_unified,,
Londonerstr. Ecke Müllerstr.,tram,29,1956219_unified,,
Seestr. Ecke Müllerstr.,tram,29,1956220_unified,,
Müllerstr. Ecke Schulstr.,tram,29,1956221_unified,,
Reinickendorferstr. Ecke Schulstr.,tram,29,1956222_unified,,
Uferstr. Ekce Exerziestr.,tram,29,1956223_unified,,
Pankstr./Prinzenallee,tram,29,1956224_unified,,
Bhf. Gesundbrunnen,tram,29,1956225_unified,,
Rügenerstr. Ecke Brunnenstr.,tram,29,1956226_unified,,
"Siemensstradt, Nonnendammallee",tram,35,1956227_unified,,
Wernerwerk,tram,35,1956228_unified,,
Bhf. Jungfernheide,tram,35,1956229_unified,,
Tauroggenerstr. Ecke Osnabrückerstr.,tram,35,1956230_unified,,
Wiebestr. Ecke Huttenstr.,tram,35,1956231_unified,,
Gotzkowskystr. Ecke Turmstr.,tram,35,1956232_unified,,
Turmstr. Ecke Stromstr.,tram,35,1956233_unified,,
Rathenowerstr. Ecke Perlebergstr.,tram,35,1956234_unified,,
"Weddingplatz, Müllerstr.",tram,35,1956235_unified,,
Nettelbeckplatz,tram,35,1956236_unified,,
Schulstr. Ecke Reinickendorferstr.,tram,35,1956237_unified,,
Oskarplatz,tram,35,1956238_unified,,
Pankowerallee Ecke Residenzstr.,tram,35,1956239_unified,,
Residenzstr. Ecke Alt-Reinickendorf,tram,35,1956240_unified,,
Graf-Roedern-Allee Ecke Alt-Reinickendorf,tram,35,1956241_unified,,
"Reinickendorf, Teichstr. Ecke Humboldtstr.",tram,35,1956242_unified,,
Bhf. Wilhelmsruh,tram,36,1956243_unified,,
Residenzstr. Ecke Alt-Reinickendorf,tram,36,1956244_unified,,
"Pankowerallee, Schäfersee",tram,36,1956245_unified,,
"Pankowerallee, Strassenbahnhof",tram,36,1956246_unified,,
Pankowerallee Ecke Provinzstr.,tram,36,1956247_unified,,
Osloerstr. Ecke Kolonie-Drontheim,tram,36,1956248_unified,,
Schwedenstr./Uferstr.,tram,36,1956249_unified,,
Pankstr. Ecke Badstr.,tram,36,1956250_unified,,
Bhf. Gesundbrunnen,tram,36,1956251_unified,,
Rügenerstr. Ecke Brunnenstr.,tram,36,1956252_unified,,
"Dahlem, Clayallee",tram,40,1956253_unified,,
Pacelliallee/Thielallee,tram,40,1956254_unified,,
U-Bhf. Dahlem-Dorf,tram,40,1956255_unified,,
Podbielskiallee (Botanischer Garten),tram,40,1956256_unified,,
Rathaus Steglitz,tram,40,1956257_unified,,
Bhf. Steglitz,tram,40,1956258_unified,,
Klingsorstr. Ecke Birkbuschstr.,tram,40,1956259_unified,,
"Steglitz, Birkbuschstr. Ecke Siemensstr.",tram,40,1956260_unified,,
"Tegel, Alt-Tegel",tram,41,1956261_unified,,
Bernauerstr. Ecke Berlinerstr.,tram,41,1956262_unified,,
Eichborndamm Ecke Scharnweberstr.,tram,41,1956263_unified,,
Kurt-Schuhmacher-Platz,tram,41,1956264_unified,,
Graf-Roedernallee Ecke Reinickendorferstr.,tram,41,1956265_unified,,
Aroserallee Ecke Reinickendorferstr.,tram,41,1956266_unified,,
Residenzstr. Ecke Alt-Reinickendorf,tram,41,1956267_unified,,
Pankowerallee (Schäfersee),tram,41,1956268_unified,,
Osloerstr. Ecke Schwedenstr.,tram,41,1956269_unified,,
Uferstr. Ecke Badstr.,tram,41,1956270_unified,,
Pankstr./Prinzenallee,tram,41,1956271_unified,,
U-Bhf. Gesundbrunnen,tram,41,1956272_unified,,
Usedomerstr.,tram,41,1956273_unified,,
Brunnenstr. Ecke Bernauerstr.,tram,41,1956274_unified,,
Bernauerstr. Ecke Wollinerstr.,tram,41,1956275_unified,,
"Sandkrugbrücke, Lehrter Bahnhof",tram,44,1956276_unified,,
Rathenowerstr. Ecke Invalidenstr.,tram,44,1956277_unified,,
Stromstr. Ecke Alt-Moabit,tram,44,1956278_unified,,
Gotzkowskystr. Ecke Alt-Moabit,tram,44,1956279_unified,,
U-Bhf. Ernst-Reuter-Platz,tram,44,1956280_unified,,
Wilmersdorferstr. Ecke Berlinerstr.,tram,44,1956281_unified,,
Kantstr. Ecke Wilmersdorferstr.,tram,44,1956282_unified,,
Kurfürstendamm Ecke Wilmersdorferstr.,tram,44,1956283_unified,,
Fehrbellinerplatz,tram,44,1956284_unified,,
Berlinerstr. Ecke Blissestr.,tram,44,1956285_unified,,
Hildegardstr. Ecke Bundesallee,tram,44,1956286_unified,,
Bundesplatz,tram,44,1956287_unified,,
Friedrich-Wilhelm-Platz,tram,44,1956288_unified,,
Titania-Palast,tram,44,1956289_unified,,
Bhf. Steglitz,tram,44,1956290_unified,,
Schloßstr. Ecke Albrechtstr.,tram,44,1956291_unified,,
Birkbuschstr. Ecke Siemensstr.,tram,44,1956292_unified,,
"Niederschönhausen, Schillerstr.",tram,46,1956293_unified,,
"Nordend, Dietzgenstr.",tram,46,1956294_unified,,
Ossietzkyplatz,tram,46,1956295_unified,,
Kurt-Fischer-Platz,tram,46,1956296_unified,,
"Breitestr., Pankow, Rathaus",tram,46,1956297_unified,,
"Pankow, Kirche",tram,46,1956298_unified,,
"S-Bhf. Pankow, Florastr.",tram,46,1956299_unified,,
U-Bhf. Vinetastr.,tram,46,1956300_unified,,
S-Bhf. Schönhauserallee,tram,46,1956301_unified,,
"Eberswalderstr., U-Bhf. Dimitroffstr.",tram,46,1956302_unified,,
Zionskirchstr.,tram,46,1956303_unified,,
Veteranenstr. Ecke Brunnenstr.,tram,46,1956304_unified,,
Invalidenstr. Ecke Chausseestr.,tram,46,1956305_unified,,
Oranienburger Tor,tram,46,1956306_unified,,
"Weidendammbrücke, Bhf. Friedrichstr.",tram,46,1956307_unified,,
Am Kupfergraben,tram,46,1956308_unified,,
Hermannplatz,tram,47,1956309_unified,,
"Erkstr., Rathaus Neukölln",tram,47,1956310_unified,,
Karl-Marxstr. Station,tram,47,1956311_unified,,
U-Bhf. Neukölln,tram,47,1956312_unified,,
U-Bhf. Grenzallee,tram,47,1956313_unified,,
Buschkrug,tram,47,1956314_unified,,
Parchimerallee Ecke Rudowerstr.,tram,47,1956315_unified,,
Krankenhaus Neukölln,tram,47,1956316_unified,,
Johannisthalerchaussee Ecke Rudowerstr.,tram,47,1956317_unified,,
Wildmeisterdamm,tram,47,1956318_unified,,
"Rudow, Bahnhofstr.",tram,47,1956319_unified,,
Buchholz,tram,49,1956320_unified,,
Eweststr.,tram,49,1956321_unified,,
"Galenusstr., Pankow, Krankenhaus",tram,49,1956322_unified,,
S-Bhf. Pankow-Heinersdorf,tram,49,1956323_unified,,
"Pankow, Kirche",tram,49,1956324_unified,,
"S-Bhf. Pankow, Florastr.",tram,49,1956325_unified,,
U-Bhf. Vinetastr.,tram,49,1956326_unified,,
S-Bhf. Schönhauserallee,tram,49,1956327_unified,,
"Eberswalderstr., U-Bhf. Dimitroffstr.",tram,49,1956328_unified,,
Zionskirchstr.,tram,49,1956329_unified,,
Rosenthalerplatz,tram,49,1956330_unified,,
Hackescher Markt,tram,49,1956331_unified,,
Große Präsidentenstr.,tram,49,1956332_unified,,
"Roseneck, Grunewald",tram,51,1956333_unified,,
U-Bhf. Heidelbergerplatz,tram,51,1956334_unified,,
Berlinerstr. Ecke Uhlandstr.,tram,51,1956335_unified,,
U-Bhf. Hohenzollernplatz,tram,51,1956336_unified,,
U-Bhf. Uhlandstr.,tram,51,1956337_unified,,
Bhf. Zoo,tram,51,1956338_unified,,
"Spandau, Johannesstift",tram,54,1956339_unified,,
"Spandau, Stadtpark",tram,54,1956340_unified,,
Fehrbelliner Tor,tram,54,1956341_unified,,
Hafenplatz,tram,54,1956342_unified,,
"Spandau, Markt",tram,54,1956343_unified,,
Bhf. Spandau,tram,54,1956344_unified,,
Teltowerstr. Ecke Charlottenburgerstr.,tram,54,1956345_unified,,
U-Bhf. Ruhleben,tram,54,1956346_unified,,
Schloß Ruhwald,tram,54,1956347_unified,,
Königin-Elisabethstr. Ecke Spandauerdamm,tram,54,1956348_unified,,
Schloßstr. Ecke Spandauerdamm,tram,54,1956349_unified,,
Luisenplatz,tram,54,1956350_unified,,
Wilmersdorferstr. Ecke Berlinerstr.,tram,54,1956351_unified,,
U-Bhf. Richard-Wagner-Platz,tram,54,1956352_unified,,
Leibnizstr. Ecke Berlinerstr.,tram,54,1956353_unified,,
U-Bhf. Ernst-Reuter-Platz,tram,54,1956354_unified,,
Kantstr. Ecke Hardenburgerstr.,tram,54,1956355_unified,,
Bhf. Zoo,tram,54,1956356_unified,,
"Spandau, Nauenerstr.",tram,55,1956357_unified,,
"Spandau, Markt",tram,55,1956358_unified,,
Siedlung Haselhorst,tram,55,1956359_unified,,
Gartenfelderstr. Ecke Paulsternstr.,tram,55,1956360_unified,,
Verwaltungsgebäude,tram,55,1956361_unified,,
Bhf. Jungfernheide,tram,55,1956362_unified,,
Luisenplatz,tram,55,1956363_unified,,
U-Bhf. Richard-Wagner-Platz,tram,55,1956364_unified,,
Knie,tram,55,1956365_unified,,
Bhf. Zoo,tram,55,1956366_unified,,
Königin-Elisabethstr. Ecke Kaiserdamm,tram,60,1956367_unified,,
Spandauerdamm Königin-Elisabethstr.,tram,60,1956368_unified,,
Klausenerplatz,tram,60,1956369_unified,,
Schlossstr. Ecke Suarezstr.,tram,60,1956370_unified,,
Kaiser-Friedrichstr. Ecke Kantstr.,tram,60,1956371_unified,,
Stuttgarterplatz,tram,60,1956372_unified,,
Kurfürstendamm Ecke Wilmersdorferstr.,tram,60,1956373_unified,,
Konstanzerstr. Ecke Brandenburgischestr.,tram,60,1956374_unified,,
Westfälischestr. Ecke Brandenburgischestr.,tram,60,1956375_unified,,
Fehrbellinerplatz,tram,60,1956376_unified,,
Blissestr. Ecke Berlinerstr.,tram,60,1956377_unified,,
Uhlandstr. Ecke Berlinerstr.,tram,60,1956378_unified,,
Badenschestr. Ecke Berlinerstr.,tram,60,1956379_unified,,
Bundesallee Ecke Berlinerstr.,tram,60,1956380_unified,,
Martin-Lutherstr. Ecke Grunewaldstr.,tram,60,1956381_unified,,
Hauptstr. Ecke Dominicusstr.,tram,60,1956382_unified,,
Bhf. Papestr.,tram,60,1956383_unified,,
Sachsendamm Ecke Alboinstr.,tram,60,1956384_unified,,
Lindenhof Eythstr.,tram,60,1956385_unified,,
"Hohenschönhausen, Gartenstadt",tram,63,1956386_unified,,
Falkenbergerstr. Ecke Wartenbergerstr.,tram,63,1956387_unified,,
Freienwalderstr. Ecke Orankestr.,tram,63,1956388_unified,,
Weißenseerweg,tram,63,1956389_unified,,
Steuerhaus,tram,63,1956390_unified,,
S-Bhf. Leninallee,tram,63,1956391_unified,,
"Leninallee, Dimitroffstr.",tram,63,1956392_unified,,
Leninplatz,tram,63,1956393_unified,,
Kleine Frankfurterstr.,tram,63,1956394_unified,,
"Alexanderplatz, Memhardstr.",tram,63,1956395_unified,,
U-Bhf. Weinmeisterstr.,tram,63,1956396_unified,,
Hackescher Markt,tram,63,1956397_unified,,
Große Präsidentenstr.,tram,63,1956398_unified,,
"Hohenschönhausen, Falkenbergerstr.",tram,64,1956399_unified,,
Orankestr.,tram,64,1956400_unified,,
Weißenseerweg,tram,64,1956401_unified,,
Steuerhaus,tram,64,1956402_unified,,
S-Bhf. Leninallee,tram,64,1956403_unified,,
Leninallee Ecke Dimitroffstr.,tram,64,1956404_unified,,
Leninplatz,tram,64,1956405_unified,,
Kleine Frankfurterstr.,tram,64,1956406_unified,,
"Alexanderplatz, Grunestr.",tram,64,1956407_unified,,
Bhf. Jannowitzbrücke,tram,64,1956408_unified,,
U-Bhf. Neanderstr.,tram,64,1956409_unified,,
Spittelmarkt,tram,64,1956410_unified,,
"Dönhoffplatz, Krausenstr.",tram,64,1956411_unified,,
Belzigerstr. Ecke Martin-Lutherstr.,tram,66,1956412_unified,,
Hauptstr. Ecke Dominicusstr.,tram,66,1956413_unified,,
Innsbruckerplatz,tram,66,1956414_unified,,
Traegerstr.,tram,66,1956415_unified,,
Ceciliengärten,tram,66,1956416_unified,,
Beckerstr. Ecke Rubensstr.,tram,66,1956417_unified,,
Canovastr. (Krankenhaus),tram,66,1956418_unified,,
Thorwaldsenstr. Ecke Grazerdamm,tram,66,1956419_unified,,
"Bhf. Wittenau, Nordbahn, Cyclopstr.",tram,68,1956420_unified,,
Alt-Wittenau Ecke Oranienburgerstr.,tram,68,1956421_unified,,
Heilanstalt,tram,68,1956422_unified,,
Kurt-Schuhmacher-Platz,tram,68,1956423_unified,,
Londonerstr. Ecke Müllerstr.,tram,68,1956424_unified,,
Seestr. Ecke Müllerstr.,tram,68,1956425_unified,,
Schulstr. Ecke Müllerstr.,tram,68,1956426_unified,,
Nettelbeckplatz,tram,68,1956427_unified,,
"Johannisthal, Haeckelstr.",tram,69,1956428_unified,,
Königsweide,tram,69,1956429_unified,,
Bhf. Schöneweide,tram,69,1956430_unified,,
Oberschöneweide Ecke Wilhelminenhofstr.,tram,69,1956431_unified,,
"Hegemeisterweg, Rennbahn",tram,69,1956432_unified,,
S-Bhf. Karlshorst,tram,69,1956433_unified,,
Tierpark Berlin,tram,69,1956434_unified,,
Schlossstr. Ecke Alt-Friedrichsfelde,tram,69,1956435_unified,,
Bhf. Lichtenberg,tram,69,1956436_unified,,
"BVG-Bf. Lichtenberg, Siegfriedstr.",tram,69,1956437_unified,,
Roederplatz,tram,69,1956438_unified,,
Steuerhaus,tram,69,1956439_unified,,
Leninallee Ecke Dimitroffstr.,tram,69,1956440_unified,,
Leninplatz,tram,69,1956441_unified,,
"Alexanderplatz, Memhardstr.",tram,69,1956442_unified,,
Hackescher Markt,tram,69,1956443_unified,,
Oranienburger Tor,tram,69,1956444_unified,,
Walter-Ulbricht-Stadion,tram,69,1956445_unified,,
"Hohenschönhausen, Falkenbergerstr.",tram,70,1956446_unified,,
Suermondtstr. Ecke Hauptstr.,tram,70,1956447_unified,,
Stadion Buschallee,tram,70,1956448_unified,,
Buschallee Ecke Klement-Gottwald-Allee,tram,70,1956449_unified,,
Antonplatz,tram,70,1956450_unified,,
Prenzlauer Promenade Ecke Gustav-Adolfstr.,tram,70,1956451_unified,,
"Wichertstr., Humannplatz",tram,70,1956452_unified,,
Schönhauserallee,tram,70,1956453_unified,,
Zionskirchstr.,tram,70,1956454_unified,,
Invalidenstr. Ecke Brunnenstr.,tram,70,1956455_unified,,
Invalidenstr. Ecke Chausseestr.,tram,70,1956456_unified,,
Oranienburger Tor,tram,70,1956457_unified,,
"Weidendammbrücke, Bhf. Friedrichstr.",tram,70,1956458_unified,,
Clara-Zetkinstr. Ecke Neue Wilhelmstr.,tram,70,1956459_unified,,
"Heinersdorf, Romain-Rollandstr.",tram,71,1956460_unified,,
"Heinersdorf, Kirche",tram,71,1956461_unified,,
"Am Steinberg, Thulestr.",tram,71,1956462_unified,,
Prenzlauer Promenade Ecke Wisbyerstr.,tram,71,1956463_unified,,
S-Bhf. Prenzlauerallee,tram,71,1956464_unified,,
Dimitroffstr. Ecke Prenzlauerallee,tram,71,1956465_unified,,
Saarbrückerstr. Ecke Prenzlauer Tor,tram,71,1956466_unified,,
"Alexanderplatz, Grunerstr.",tram,71,1956467_unified,,
"Jüdenstr., Berliner Rathaus",tram,71,1956468_unified,,
"Weißensee, Rennbahnstr. Ecke Parkstr.",tram,72,1956469_unified,,
Klement-Gottwald-Allee Ecke Bernkastelerstr.,tram,72,1956470_unified,,
Antonplatz,tram,72,1956471_unified,,
Gustav-Adolfstr. Ecke Prenzlauer Promenade,tram,72,1956472_unified,,
S-Bhf. Prenzlauerallee,tram,72,1956473_unified,,
Dimitroffstr. Ecke Prenzlauerallee,tram,72,1956474_unified,,
"Saarbrückerstr., Prenzlauer Tor",tram,72,1956475_unified,,
"Alexanderplatz, Grunerstr.",tram,72,1956476_unified,,
Molkenmarkt,tram,72,1956477_unified,,
Roßstr. Ecke Breitestr.,tram,72,1956478_unified,,
Charlottenstr. Ecke Taubenstr.,tram,72,1956479_unified,,
Bhf. Lichterfelde-Ost,tram,73,1956480_unified,,
"Wiesenbaude, Giesendorferstr.",tram,73,1956481_unified,,
Hindenburgdamm Ecke Schloßstr.,tram,73,1956482_unified,,
Rathaus Steglitz,tram,73,1956483_unified,,
Schloßstr. Ecke Bundesallee,tram,73,1956484_unified,,
Kaisereiche,tram,73,1956485_unified,,
Lauterplatz,tram,73,1956486_unified,,
Innsbruckerplatz,tram,73,1956487_unified,,
Dominicusstr. Ecke Hauptstr.,tram,73,1956488_unified,,
Eisenacherstr. Ecke Hauptstr.,tram,73,1956489_unified,,
Pallasstr. Ecke Potsdamerstr.,tram,73,1956490_unified,,
U-Bhf. Bülowstr.,tram,73,1956491_unified,,
Lützowstr. Ecke Potdamerstr.,tram,73,1956492_unified,,
"Potsdamerplatz, Linkstr.",tram,73,1956493_unified,,
"Lichtefelde, Finckensteinallee",tram,74,1956494_unified,,
Wiesenbaude,tram,74,1956495_unified,,
Hindenburgdamm Ecke Schloßstr.,tram,74,1956496_unified,,
Rathaus Steglitz,tram,74,1956497_unified,,
Bundesallee,tram,74,1956498_unified,,
Innsbruckerplatz,tram,74,1956499_unified,,
Dominicusstr.,tram,74,1956500_unified,,
Pallasstr.,tram,74,1956501_unified,,
Bülowstr.,tram,74,1956502_unified,,
"Potsdamerplatz, Linkstr.",tram,74,1956503_unified,,
"Wießensee, Rennbahnstr. Ecke Parkstr.",tram,74,1956504_unified,,
Klement-Gottwald-Allee Ecke Bernkastelerstr.,tram,74,1956505_unified,,
Antonplatz,tram,74,1956506_unified,,
S-Bhf. Greifswalderstr.,tram,74,1956507_unified,,
Dimitroffstr. Ecke Greifswalderstr.,tram,74,1956508_unified,,
Königstor,tram,74,1956509_unified,,
"Alexanderplatz, Grunerstr.",tram,74,1956510_unified,,
Molkenmarkt,tram,74,1956511_unified,,
Spittelmarkt,tram,74,1956512_unified,,
Charlottenstr. Ecke Taubenstr.,tram,74,1956513_unified,,
"Bhf. Zoo, Kantstr.",tram,75,1956514_unified,,
Leibnizstr. Ecke Kantstr.,tram,75,1956515_unified,,
Wilmersdorferstr. Ecke Kantstr.,tram,75,1956516_unified,,
Kaiser-Friedrichstr. Ecke Kantstr.,tram,75,1956517_unified,,
Amtsgericht,tram,75,1956518_unified,,
Messedamm,tram,75,1956519_unified,,
Reichskanzlerplatz,tram,75,1956520_unified,,
Bhf. Heerstr.,tram,75,1956521_unified,,
Scholzplatz,tram,75,1956522_unified,,
Stößenseebrücke,tram,75,1956523_unified,,
Pichelsdorferstr. Ecke Heerstr.,tram,75,1956524_unified,,
"Weverstr., Strassenbahnhof",tram,75,1956525_unified,,
Seeburgerstr. Ecke Klosterstr.,tram,75,1956526_unified,,
Rathaus Spandau,tram,75,1956527_unified,,
"Spandau, Markt",tram,75,1956528_unified,,
Hafenplatz,tram,75,1956529_unified,,
Hohenzollernring Ecke Streitstr.,tram,75,1956530_unified,,
Hakenfelde,tram,75,1956531_unified,,
Bhf. Zoo,tram,77,1956532_unified,,
Wittenbergplatz,tram,77,1956533_unified,,
Pariserstr. Ecke Bundesallee,tram,77,1956534_unified,,
Bundesallee Ecke Berlinerstr.,tram,77,1956535_unified,,
Bundesplatz,tram,77,1956536_unified,,
Friedrich-Wilhelm-Platz,tram,77,1956537_unified,,
Schloßstr. Ecke Bundesallee,tram,77,1956538_unified,,
Rathaus Steglitz,tram,77,1956539_unified,,
Hindenburgdamm Ecke Schloßstr.,tram,77,1956540_unified,,
Händelplatz,tram,77,1956541_unified,,
Bhf. Botanischer Garten,tram,77,1956542_unified,,
Bhf. Lichterfelde-West,tram,77,1956543_unified,,
Baselerstr.,tram,77,1956544_unified,,
Rittberg-Krankenhaus,tram,77,1956545_unified,,
Goerzallee Ecke Wismarerstr.,tram,77,1956546_unified,,
"Lichterfelde, Goerzallee",tram,77,1956547_unified,,
Bhf. Zoo,tram,78,1956548_unified,,
Wittenbergplatz,tram,78,1956549_unified,,
Pariserstr. Ecke Bundesallee,tram,78,1956550_unified,,
Bundesallee Ecke Berlinerstr.,tram,78,1956551_unified,,
Bundesplatz,tram,78,1956552_unified,,
Friedrich-Wilhelm-Platz,tram,78,1956553_unified,,
Schloßstr. Ecke Bundesallee,tram,78,1956554_unified,,
Rathaus Steglitz,tram,78,1956555_unified,,
Hindenburgdamm Ecke Schloßstr.,tram,78,1956556_unified,,
Händelplatz,tram,78,1956557_unified,,
Bhf. Botanischer Garten,tram,78,1956558_unified,,
Bhf. Lichterfelde-West,tram,78,1956559_unified,,
Baselerstr.,tram,78,1956560_unified,,
Rittberg-Krankenhaus,tram,78,1956561_unified,,
Wismarerstr. Ecke Goerzallee,tram,78,1956562_unified,,
Lindenstr.,tram,78,1956563_unified,,
"Dönhoffplatz, Krausenstr.",tram,82,1956564_unified,,
Spittelmarkt,tram,82,1956565_unified,,
Molkenmarkt,tram,82,1956566_unified,,
Ostbahnhof,tram,82,1956567_unified,,
Warschauerstr.,tram,82,1956568_unified,,
Markgrafendamm,tram,82,1956569_unified,,
S-Bhf. Ostkreuz,tram,82,1956570_unified,,
Kraftwerk Klingenberg,tram,82,1956571_unified,,
"Karlshorst, Treskowallee",tram,82,1956572_unified,,
"Hegemeisterweg, Rennbahn",tram,82,1956573_unified,,
Edisonstr. Ecke Wilhelminenhofstr.,tram,82,1956574_unified,,
"Oberschöneweide, Parkstr.",tram,82,1956575_unified,,
Pionierrepublik,tram,82,1956576_unified,,
Lindenstr. Ecke Bahnhofstr.,tram,82,1956577_unified,,
S-Bhf. Köpenick,tram,82,1956578_unified,,
"Köpenick, Hirtestr.",tram,82,1956579_unified,,
Wendenschloß Ecke Ekhofstr.,tram,83,1956580_unified,,
Strassenbahnhof Köpenick,tram,83,1956581_unified,,
Schüßlerplatz,tram,83,1956582_unified,,
Lindenstr. Ecke Bahnhofstr.,tram,83,1956583_unified,,
S-Bhf. Köpenick,tram,83,1956584_unified,,
Uhlenhorst,tram,83,1956585_unified,,
"Mahlsdorf-Süd, Hubertus",tram,83,1956586_unified,,
Bütowerstr.,tram,83,1956587_unified,,
Rahnsdorferstr.,tram,83,1956588_unified,,
S-Bhf. Mahlsdorf,tram,83,1956589_unified,,
"Altglienicke, Am Falkenberg",tram,84,1956590_unified,,
Köpenickerstr.,tram,84,1956591_unified,,
Benzolwerk,tram,84,1956592_unified,,
S-Bhf. Adlershof,tram,84,1956593_unified,,
Marktplatz,tram,84,1956594_unified,,
S-Bhf. Spindlersfeld,tram,84,1956595_unified,,
Köllnischerplatz,tram,84,1956596_unified,,
Schüßlerplatz,tram,84,1956597_unified,,
Lindenstr. Ecke Bahnhofstr.,tram,84,1956598_unified,,
Seelenbinderstr.,tram,84,1956599_unified,,
"Hirschgarten, Fürstenwalderdamm",tram,84,1956600_unified,,
S-Bhf. Friedrichshagen,tram,84,1956601_unified,,
Brauerei,tram,84,1956602_unified,,
"Friedrichshagen, Wasserwerk",tram,84,1956603_unified,,
Alt-Schmöckwitz,tram,86,1956604_unified,,
Vetschauerallee,tram,86,1956605_unified,,
Richtershorn,tram,86,1956606_unified,,
Regattahäuser,tram,86,1956607_unified,,
Bhf. Grünau,tram,86,1956608_unified,,
Chemische Fabrik,tram,86,1956609_unified,,
Vollkropfgraben,tram,86,1956610_unified,,
Köllnischerplatz,tram,86,1956611_unified,,
Schüßlerplatz,tram,86,1956612_unified,,
Lindenstr. Ecke Bahnhofstr.,tram,86,1956613_unified,,
S-Bhf. Köpenick,tram,86,1956614_unified,,
Uhlenhorst,tram,86,1956615_unified,,
"Mahlsdorf-Süd, Hubertus",tram,86,1956616_unified,,
Rahnsdorf,tram,87,1956617_unified,,
Müggelseedamm,tram,87,1956618_unified,,
S-Bhf. Friedrichshagen,tram,87,1956619_unified,,
Brauerei,tram,87,1956620_unified,,
Hirschgartenm Fürstenwalderdamm,tram,87,1956621_unified,,
Seelenbinderstr.,tram,87,1956622_unified,,
Bahnhofstr. Ecke Lindenstr.,tram,87,1956623_unified,,
Pionierrepublik,tram,87,1956624_unified,,
Parkstr.,tram,87,1956625_unified,,
Wilhelminenhofstr. Ecke Edisonstr.,tram,87,1956626_unified,,
"Brückenstr., Bhf. Schöneweide",tram,87,1956627_unified,,
Köpenicker Landstr. Ecke Baumschulenstr.,tram,87,1956628_unified,,
Bulgarischestr.,tram,87,1956629_unified,,
Elsenstr. Ecke Am Treptower Park,tram,87,1956630_unified,,
Wiener Brücke,tram,87,1956631_unified,,
Stadtpark,tram,88,1956632_unified,,
Feuerbachstr. Ecke Knausstr.,tram,88,1956633_unified,,
Kaisereiche Ecke Rheinstr.,tram,88,1956634_unified,,
Innsbruckerplatz,tram,88,1956635_unified,,
Dominicusstr. Ecke Hauptstr.,tram,88,1956636_unified,,
Eisenacherstr. Ecke Hauptstr.,tram,88,1956637_unified,,
Pallasstr. Ecke Potsdamerstr.,tram,88,1956638_unified,,
Bülowstr. Ecke Potsdamerstr.,tram,88,1956639_unified,,
Potsdamerstr. Ecke Lützowstr.,tram,88,1956640_unified,,
Anhalter Bahnhof,tram,88,1956641_unified,,
U-Bhf. Kochstr.,tram,88,1956642_unified,,
Jerusalemerstr. Ecke Oranienstr.,tram,88,1956643_unified,,
U-Bhf. Moritzplatz,tram,88,1956644_unified,,
U-Bhf. Görlitzer Bahnhof,tram,88,1956645_unified,,
Spreewaldplatz,tram,88,1956646_unified,,
Wiener Brücke,tram,88,1956647_unified,,
"Treptow, Spreeterrassen",tram,91,1956648_unified,,
"Treptow, Rathaus",tram,91,1956649_unified,,
Bulgarischestr. Ecke Köpenicker Landstr.,tram,91,1956650_unified,,
Baumschulenstr.,tram,91,1956651_unified,,
"Grünauerstr., Bhf. Schöneweide",tram,91,1956652_unified,,
Königsheideweg,tram,91,1956653_unified,,
"Johannisthal, Haeckelstr.",tram,91,1956654_unified,,
"Treptow, Flutgraben",tram,92,1956655_unified,,
"Elsenstr., S-Bhf. Treptow",tram,92,1956656_unified,,
Bulgarischestr.,tram,92,1956657_unified,,
Baumschulenstr.,tram,92,1956658_unified,,
"Grünauerstr., Bhf. Schöneweide",tram,92,1956659_unified,,
Britzerstr.,tram,92,1956660_unified,,
Oberspree,tram,92,1956661_unified,,
"Oranienplatz, Dresdenerstr.",tram,94,1956662_unified,,
Kottbusser Tor,tram,94,1956663_unified,,
U-Bhf. Kottbusserdamm,tram,94,1956664_unified,,
Hermannplatz,tram,94,1956665_unified,,
Erkstr. Ecke Sonnenallee,tram,94,1956666_unified,,
Bhf. Sonnenallee,tram,94,1956667_unified,,
Dammweg Ecke Sonnenallee,tram,94,1956668_unified,,
"Neukölln, Schulenburgpark",tram,94,1956669_unified,,
Attilaplatz,tram,95,1956670_unified,,
Berlinickeplatz,tram,95,1956671_unified,,
Hoeppnerstr. Ecke Boelckestr.,tram,95,1956672_unified,,
Adolf-Scheidt-Platz,tram,95,1956673_unified,,
U-Bhf. Flughafen,tram,95,1956674_unified,,
Gneisenaustr./Yorckstr.,tram,95,1956675_unified,,
Hallesches Tor,tram,95,1956676_unified,,
Zossenerstr. Ecke Blücherstr.,tram,95,1956677_unified,,
Baerwaldstr. Ecke Urbanstr.,tram,95,1956678_unified,,
Urban-Krankenhaus,tram,95,1956679_unified,,
Hermannplatz,tram,95,1956680_unified,,
Erkstr. Ecke Sonnenallee,tram,95,1956681_unified,,
Hertzbergplatz,tram,95,1956682_unified,,
Bhf. Sonnenallee,tram,95,1956683_unified,,
Schulenburgpark,tram,95,1956684_unified,,
Sonnenallee Ecke Schwarzerweg,tram,95,1956685_unified,,
"Baumschulenweg, Sonnenallee",tram,95,1956686_unified,,
Köpenicker Landstr.,tram,95,1956687_unified,,
S-Bhf. Schöneweide,tram,95,1956688_unified,,
Wilhelminenhofstr. Ecke Edisonstr.,tram,95,1956689_unified,,
Pionierrepublik,tram,95,1956690_unified,,
"Köpenick, Lindenstr. Ecke Bahnhofstr.",tram,95,1956691_unified,,
Grünstr.,tram,95,1956692_unified,,
"Köpenick, Krankenhaus",tram,95,1956693_unified,,
U-Bhf. Tempelhof,tram,96,1956694_unified,,
Alt-Tempelhof Ecke Tempelhoferdamm,tram,96,1956695_unified,,
Kaiserin-Augustastr. Ecke Tempelhoferdamm,tram,96,1956696_unified,,
Attilaplatz,tram,96,1956697_unified,,
Bhf. Mariendorf,tram,96,1956698_unified,,
"Lankwitz, Kirche",tram,96,1956699_unified,,
Bhf. Lichtefelde-Ost,tram,96,1956700_unified,,
Bismarckstr. Ecke Wilhelmstr.,tram,96,1956701_unified,,
Lindenstr. Ecke Berlinerstr.,tram,96,1956702_unified,,
"Lichterfelde-Süd, Schwelmerstr.",tram,96,1956703_unified,,
Machnower Schleuse,tram,96,1956704_unified,,
Zehlendorferdamm,tram,96,1956705_unified,,
"Neue Wagenhalle, Kleiststr.",tram,96,1956706_unified,,
"Teltow, Hamburgerplatz",tram,96,1956707_unified,,
Stadthaus Teltow,tram,96,1956708_unified,,
Ruhlsdorferplatz,tram,96,1956709_unified,,
"Teltow, Paul-Gerhardtstr.",tram,96,1956710_unified,,
Mehringplatz (Hallesches Tor),tram,98,1956711_unified,,
Yorckstr./Gneisenaustr.,tram,98,1956712_unified,,
U-Bhf. Flughafen,tram,98,1956713_unified,,
U-Bhf. Paradestr.,tram,98,1956714_unified,,
Bahnhof Tempelhof,tram,98,1956715_unified,,
Alt-Tempelhof,tram,98,1956716_unified,,
Kaiserin-Augustastr.,tram,98,1956717_unified,,
Friedrich-Karlstr.,tram,98,1956718_unified,,
Kaiserstr.,tram,98,1956719_unified,,
Prühßstr.,tram,98,1956720_unified,,
Mariendorferdamm Ecke Alt-Mariendorf,tram,98,1956721_unified,,
Grossbeerenstr. Ecke Daimlerstr.,tram,98,1956722_unified,,
Daimlerstr. Ecke Birnhornweg,tram,98,1956723_unified,,
"Lindenstr., Jerusalemer Kirche",tram,99,1956724_unified,,
Mehringplatz,tram,99,1956725_unified,,
Yorckstr./Gneisenaustr.,tram,99,1956726_unified,,
U-Bhf. Flughafen,tram,99,1956727_unified,,
Bhf. Tempelhof,tram,99,1956728_unified,,
Alt-Tempelhof,tram,99,1956729_unified,,
Kaiserin-Augustastr.,tram,99,1956730_unified,,
Friedrich-Karlstr.,tram,99,1956731_unified,,
Kaiserstr.,tram,99,1956732_unified,,
Alt-Mariendorf,tram,99,1956733_unified,,
Rennbahn,tram,99,1956734_unified,,
Marienfelderchaussee,tram,99,1956735_unified,,
Marienfelderstr.,tram,99,1956736_unified,,
Bhf. Lichtenrade,tram,99,1956737_unified,,
Pankow (Vinetastr.),u-bahn,A I,1956738_unified,,
Schönhauserallee,u-bahn,A I,1956739_unified,,
Dimitroffstr.,u-bahn,A I,1956740_unified,,
Senefelderplatz,u-bahn,A I,1956741_unified,,
Luxemburgplatz,u-bahn,A I,1956742_unified,,
Alexanderplatz,u-bahn,A I,1956743_unified,,
Klosterstr.,u-bahn,A I,1956744_unified,,
Märkisches Museum,u-bahn,A I,1956745_unified,,
Spittelmarkt,u-bahn,A I,1956746_unified,,
Hausvogteiplatz,u-bahn,A I,1956747_unified,,
Stadtmitte (Mohrenstr.),u-bahn,A I,1956748_unified,,
Thälmannplatz,u-bahn,A I,1956749_unified,,
Potsdamerplatz,u-bahn,A I,1956750_unified,,
Gleisdreieck,u-bahn,A I,1956751_unified,,
Bülowstr.,u-bahn,A I,1956752_unified,,
Nollendorfplatz,u-bahn,A I,1956753_unified,,
Wittenbergplatz,u-bahn,A I,1956754_unified,,
Zoologischer Garten,u-bahn,A I,1956755_unified,,
Ernst-Reuter-Platz,u-bahn,A I,1956756_unified,,
Deutsches Opernhaus (Bismarckstr.),u-bahn,A I,1956757_unified,,
Sophie-Charlotte-Platz,u-bahn,A I,1956758_unified,,
Kaiserdamm (Messedamm),u-bahn,A I,1956759_unified,,
Reichskanzlerplatz,u-bahn,A I,1956760_unified,,
Neu-Westend,u-bahn,A I,1956761_unified,,
Olympia-Stadion,u-bahn,A I,1956762_unified,,
Ruhleben,u-bahn,A I,1956763_unified,,
Kottbusser Tor,u-bahn,A II,1956764_unified,,
Prinzenstr.,u-bahn,A II,1956765_unified,,
Hallesches Tor,u-bahn,A II,1956766_unified,,
Möckernbrücke,u-bahn,A II,1956767_unified,,
Gleisdreieck,u-bahn,A II,1956768_unified,,
Kurfürstenstr.,u-bahn,A II,1956769_unified,,
Nollendorfplatz,u-bahn,A II,1956770_unified,,
Hohenzollernplatz,u-bahn,A II,1956771_unified,,
Fehrbellinerplatz,u-bahn,A II,1956772_unified,,
Heidelbergerplatz,u-bahn,A II,1956773_unified,,
Rüdesheimerplatz,u-bahn,A II,1956774_unified,,
Breitenbachplatz,u-bahn,A II,1956775_unified,,
Podbielskiallee,u-bahn,A II,1956776_unified,,
Dahlem-Dorf,u-bahn,A II,1956777_unified,,
Thielplatz,u-bahn,A II,1956778_unified,,
Oskar-Helene-Heim,u-bahn,A II,1956779_unified,,
Onkel Toms Hütte,u-bahn,A II,1956780_unified,,
Krumme Lanke,u-bahn,A II,1956781_unified,,
Deutsches Opernhaus (Bismarckstr.),u-bahn,A III,1956782_unified,,
Richard-Wagner-Platz,u-bahn,A III,1956783_unified,,
"Moabit, Waldstr.",autobus,A1,1956784_unified,,
"Heimholtzstr., Autobusbahnhof",autobus,A1,1956785_unified,,
Bismarckstr. Ecke Leibnizstr.,autobus,A1,1956786_unified,,
Kurfürstendamm Ecke Konstanzerstr.,autobus,A1,1956787_unified,,
U-Bhf. Fehrbellinerplatz,autobus,A1,1956788_unified,,
Detmolderstr. Ecke Blissestr.,autobus,A1,1956789_unified,,
Breitenbachplatz,autobus,A1,1956790_unified,,
Botanischer Garten,autobus,A1,1956791_unified,,
U-Bhf. Oskar-Helene-Heim,autobus,A1,1956792_unified,,
Potsdamerstr. Ecke Clayallee,autobus,A1,1956793_unified,,
Bhf. Zehlendorf,autobus,A1,1956794_unified,,
Teltowerdamm Ecke Beeskowdamm,autobus,A1,1956795_unified,,
Goerzallee Ecke Wismarerstr.,autobus,A1,1956796_unified,,
"Haselhorst, Kirche",autobus,A10,1956797_unified,,
Gartenfelderstr. Ecke Paulsternstr.,autobus,A10,1956798_unified,,
Verwaltungs-Gebäude,autobus,A10,1956799_unified,,
"Rohrdammbrücke (Bhf. Siemensstadt, Fürstenbrunn)",autobus,A10,1956800_unified,,
Spandauerdamm Ecke Königin-Elisabethstr.,autobus,A10,1956801_unified,,
U-Bhf. Kaiserdamm,autobus,A10,1956802_unified,,
Bhf. Witzleben,autobus,A10,1956803_unified,,
Amtsgerichsplatz,autobus,A10,1956804_unified,,
Joachim-Friedrichstr. Ecke Kurfürstendamm,autobus,A10,1956805_unified,,
Bhf. Halensee,autobus,A10,1956806_unified,,
Elsterplatz,autobus,A10,1956807_unified,,
Am Wilden Eber,autobus,A10,1956808_unified,,
"Königin-Luisestr., Dahlem-Dorf",autobus,A10,1956809_unified,,
U-Bhf. Thielplatz,autobus,A10,1956810_unified,,
Corrensplatz,autobus,A10,1956811_unified,,
Berlinerstr. Ecke Thielallee,autobus,A10,1956812_unified,,
Winfriedstr. Ecke Berlinerstr.,autobus,A10,1956813_unified,,
Clayallee Ecke Teltowerdamm,autobus,A10,1956814_unified,,
Bhf. Zehlendorf,autobus,A10,1956815_unified,,
Behring-Krankenhaus,autobus,A10,1956816_unified,,
"Zehlendorf, Andreezeile Ecke Sachtlebenstr.",autobus,A10,1956817_unified,,
Saargemünderstr.,autobus,A11,1956818_unified,,
U-Bhf. Oskar-Helene-Heim,autobus,A11,1956819_unified,,
Ihnestr.,autobus,A11,1956820_unified,,
Corrensplatz,autobus,A11,1956821_unified,,
Unter den Eichen Ecke Habelschwerdterallee,autobus,A11,1956822_unified,,
Bhf. Lichterfelde-West,autobus,A11,1956823_unified,,
Ringstr. Ecke Drakestr.,autobus,A11,1956824_unified,,
Wiesenbaude,autobus,A11,1956825_unified,,
Berlinerstr. Ecke Wilhelmstr.,autobus,A11,1956826_unified,,
Marienstr. Ecke Wilhelmstr.,autobus,A11,1956827_unified,,
Bismarckstr. Ecke Wilhelmstr.,autobus,A11,1956828_unified,,
Bhf. Lichterfelde-Ost,autobus,A11,1956829_unified,,
Langestr. Ecke Lorenzstr.,autobus,A11,1956830_unified,,
Hildburghauserstr. Ecke Sonderhauserstr.,autobus,A11,1956831_unified,,
U-Bhf. Seestr.,autobus,A12,1956832_unified,,
Emmentalerstr. Ecke Aroserallee,autobus,A12,1956833_unified,,
Alt-Reinickendorf Ecke Roedernstr.,autobus,A12,1956834_unified,,
Oranienburgerstr. Ecke Alt-Wittenau,autobus,A12,1956835_unified,,
Holzhauserstr. Ecke Alt-Wittenau,autobus,A12,1956836_unified,,
Cyclopstr. Ecke Hermsdorferstr.,autobus,A12,1956837_unified,,
Waidmannslusterdamm Ecke Oraniendamm,autobus,A12,1956838_unified,,
Hermsdorferdamm Ecke Hohefeldstr.,autobus,A12,1956839_unified,,
Bhf. Frohnau,autobus,A12,1956840_unified,,
"Frohnau, Invalidensiedlung",autobus,A12,1956841_unified,,
U-Bhf. Seestr.,autobus,A12S,1956842_unified,,
Emmentalerstr. Ecke Aroserallee,autobus,A12S,1956843_unified,,
Alt-Reinickendorf Ecke Roedernstr.,autobus,A12S,1956844_unified,,
Oranienburgerstr. Ecke Alt-Wittenau,autobus,A12S,1956845_unified,,
Holzhauserstr. Ecke Alt-Wittenau,autobus,A12S,1956846_unified,,
Cyclopstr. Ecke Hermsdorferstr.,autobus,A12S,1956847_unified,,
Waidmannslusterdamm Ecke Oraniendamm,autobus,A12S,1956848_unified,,
Hermsdorferdamm Ecke Hohefeldstr.,autobus,A12S,1956849_unified,,
Bhf. Frohnau,autobus,A12S,1956850_unified,,
"Spandau, Weinmeisterhornweg",autobus,A13,1956851_unified,,
Heerstr. Ecke Wilhelmstr.,autobus,A13,1956852_unified,,
Adamstr. Ecke Wilhelmstr.,autobus,A13,1956853_unified,,
Päwesinerweg Ecke Seeburgerstr.,autobus,A13,1956854_unified,,
Rathaus Spandau,autobus,A13,1956855_unified,,
Gartenfelderstr. Ecke Nonnendammallee,autobus,A13,1956856_unified,,
Gartenfelderstr. Ecke Paulsternstr.,autobus,A13,1956857_unified,,
Kabelwerk,autobus,A13,1956858_unified,,
Weg nach Saatwinkel,autobus,A13,1956859_unified,,
Wasserwerk,autobus,A13,1956860_unified,,
Krankenhaus Tegel-Süd,autobus,A13,1956861_unified,,
Berlinerstr. Ecke Bernauerstr.,autobus,A13,1956862_unified,,
Alt-Tegel/Gorkistr.,autobus,A13,1956863_unified,,
Bhf. Tegel,autobus,A13,1956864_unified,,
Osloerstr. Ecke Schwedenstr.,autobus,A14,1956865_unified,,
Koloniestr. Ecke Drontheimerstr.,autobus,A14,1956866_unified,,
Pankowerallee Ecke Provinzstr.,autobus,A14,1956867_unified,,
"Herbstr., Bhf. Schönholz",autobus,A14,1956868_unified,,
Residenzstr./Kopenhagenerstr.,autobus,A14,1956869_unified,,
Roedernallee Ecke Reinickdorferstr.,autobus,A14,1956870_unified,,
Lindenweg Ecke Roedernallee,autobus,A14,1956871_unified,,
Oranienburgerstr. Ecke Alt-Wittenau,autobus,A14,1956872_unified,,
"Holszhauserstr., Rathaus Reinickendorf",autobus,A14,1956873_unified,,
Hermsdorferstr. Ecke Alt-Wittenau,autobus,A14,1956874_unified,,
Ziekowstr. Ecke Gorkistr.,autobus,A14,1956875_unified,,
Berlinerstr./Alt-Tegel,autobus,A14,1956876_unified,,
Heiligenseestr. Ecke Karolinenstr.,autobus,A14,1956877_unified,,
Bhf. Schulzendorf,autobus,A14,1956878_unified,,
Kaserne,autobus,A14,1956879_unified,,
Bhf. Heiligensee,autobus,A14,1956880_unified,,
"Heiligensee, Hennigsdorferstr. Ecke Mattenbuder Pfad",autobus,A14,1956881_unified,,
Bhf. Wittenau,autobus,A15,1956882_unified,,
Alt-Wittenau Ecke Holzhauserstr.,autobus,A15,1956883_unified,,
Bhf. Eichbornstr.,autobus,A15,1956884_unified,,
Borsigwalderweg Ecke Conradstr.,autobus,A15,1956885_unified,,
Alt-Tegel,autobus,A15,1956886_unified,,
Hermsdorferdamm Ecke Karolinenstr.,autobus,A15,1956887_unified,,
Bhf. Hermsdorf,autobus,A15,1956888_unified,,
Dominikus-Krankenhaus,autobus,A15,1956889_unified,,
Donnersmarckplatz,autobus,A15,1956890_unified,,
Bhf. Frohnau,autobus,A15,1956891_unified,,
U-Bhf. Seestr.,autobus,A16,1956892_unified,,
Seestr. Ecke Amrumerstr.,autobus,A16,1956893_unified,,
Augustenburgerplatz,autobus,A16,1956894_unified,,
Bhf. Pulitzstr.,autobus,A16,1956895_unified,,
Turmstr. Ecke Stromstr.,autobus,A16,1956896_unified,,
Hansaplatz,autobus,A16,1956897_unified,,
Großer Stern,autobus,A16,1956898_unified,,
Lützowplatz,autobus,A16,1956899_unified,,
"Nollendorfplatz, Einemstr.",autobus,A16,1956900_unified,,
Martin-Lutherstr. Ecke Motzstr.,autobus,A16,1956901_unified,,
Grunewaldstr. Ecke Martin-Lutherstr.,autobus,A16,1956902_unified,,
Rathaus Schöneberg,autobus,A16,1956903_unified,,
Innsbruckerplatz,autobus,A16,1956904_unified,,
Kufsteinerstr. Ecke Wexstr.,autobus,A16,1956905_unified,,
Bundesplatz,autobus,A16,1956906_unified,,
Wiesbadenerstr. Ecke Süd-West-Korso,autobus,A16,1956907_unified,,
Breitenbachplatz,autobus,A16,1956908_unified,,
"Englerallee, Breitenbachplatz",autobus,A16,1956909_unified,,
Bhf. Grunewald,autobus,A17,1956910_unified,,
Hagenplatz,autobus,A17,1956911_unified,,
Roseneck,autobus,A17,1956912_unified,,
U-Bhf. Rüdesheimerplatz,autobus,A17,1956913_unified,,
Kaisereiche,autobus,A17,1956914_unified,,
Bundesallee,autobus,A17,1956915_unified,,
Rathaus Steglitz,autobus,A17,1956916_unified,,
Stadtpark Steglitz,autobus,A17,1956917_unified,,
Leonorenstr.,autobus,A17,1956918_unified,,
Stadion Lichterfelde-Ost,autobus,A17,1956919_unified,,
Wilhelmstr.,autobus,A17,1956920_unified,,
"Lichterfelde, Saaleckplatz",autobus,A17,1956921_unified,,
Saargemünderstr.,autobus,A18,1956922_unified,,
U-Bhf. Oskar-Helene-Heim,autobus,A18,1956923_unified,,
Sophie-Charlottenstr.,autobus,A18,1956924_unified,,
Potsdamerstr. Ecke Clayallee,autobus,A18,1956925_unified,,
Spanischeallee Ecke Potsdamerchaussee,autobus,A18,1956926_unified,,
Quantzstr. Ecke Potsdamerchaussee,autobus,A18,1956927_unified,,
"Bahnhofstr., Bhf. Wannsee",autobus,A18,1956928_unified,,
Rathaus Wannsee,autobus,A18,1956929_unified,,
Stölpchensee,autobus,A18,1956930_unified,,
Kohlhasenbrück,autobus,A18,1956931_unified,,
"Roseneck, Grunewald",autobus,A19,1956932_unified,,
Hagenplatz,autobus,A19,1956933_unified,,
Bhf. Halensee,autobus,A19,1956934_unified,,
Joachimthalerstr. Ecke Kurfürstendamm,autobus,A19,1956935_unified,,
Wilmersdorferstr. Ecke Kurfürstendamm,autobus,A19,1956936_unified,,
Leinbnizstr. Ecke Kurfürstendamm,autobus,A19,1956937_unified,,
Uhlandstr. Ecke Kurfürstendamm,autobus,A19,1956938_unified,,
Breitscheidplatz,autobus,A19,1956939_unified,,
Wittenbergplatz,autobus,A19,1956940_unified,,
Nollendorfplatz,autobus,A19,1956941_unified,,
Potsdamerstr. Ecke Bülowstr.,autobus,A19,1956942_unified,,
Bhf. Yorckstr.,autobus,A19,1956943_unified,,
Katzbachstr.,autobus,A19,1956944_unified,,
Yorckstr. Ecke Mehringdamm,autobus,A19,1956945_unified,,
Dudenstr. Ecke Mehringdamm,autobus,A19,1956946_unified,,
"Tempelhof, Flughafen",autobus,A19,1956947_unified,,
Am Knie,autobus,A2,1956948_unified,,
Bhf. Zoo,autobus,A2,1956949_unified,,
Berlinerstr. Ecke Bundesallee,autobus,A2,1956950_unified,,
Bundesplatz,autobus,A2,1956951_unified,,
Schloßstr. Ecke Bundesallee,autobus,A2,1956952_unified,,
Feuerbachstr. Ecke Bismarckstr.,autobus,A2,1956953_unified,,
Stadtpark Steglitz,autobus,A2,1956954_unified,,
Siemensstr. Ecke Leonorenstr.,autobus,A2,1956955_unified,,
"Lankwitz, Kirche",autobus,A2,1956956_unified,,
"Lankwitz, Trippsteinstr.",autobus,A2,1956957_unified,,
Bhf. Tegel,autobus,A20,1956958_unified,,
Berlinerstr./Alt-Tegel,autobus,A20,1956959_unified,,
Kettelerpfad,autobus,A20,1956960_unified,,
Freie Scholle,autobus,A20,1956961_unified,,
Bhf. Waidmannslust,autobus,A20,1956962_unified,,
Oraniendamm Ecke Waidmannslusterdamm,autobus,A20,1956963_unified,,
Am Vierrutenberg,autobus,A20,1956964_unified,,
"Lübars, Alt-Lübars",autobus,A20,1956965_unified,,
Wentowsteig Ecke Wilhelmsruherdamm,autobus,A21,1956966_unified,,
Oranienburgerstr. Ecke Eichborndamm,autobus,A21,1956967_unified,,
Alt-Wittenau Ecke Holzhauserstr.,autobus,A21,1956968_unified,,
Bhf. Eichbornstr.,autobus,A21,1956969_unified,,
Sportplatz Reinickendorf,autobus,A21,1956970_unified,,
Kurt-Schumacher-Platz,autobus,A21,1956971_unified,,
Saatwinklerdamm,autobus,A21,1956972_unified,,
Bhf. Jungfernheide,autobus,A21,1956973_unified,,
Luisenplatz,autobus,A21,1956974_unified,,
Stuttgarterplatz,autobus,A21,1956975_unified,,
Amtsgericht Charlottenburg,autobus,A21,1956976_unified,,
Kurfürstendamm Ecke Joachim-Friedrichstr.,autobus,A21,1956977_unified,,
Bhf. Hohenzollerndamm,autobus,A21,1956978_unified,,
U-Bhf. Fehrbellinerplatz,autobus,A21,1956979_unified,,
"Hessenwinkel, Lindenstr.",autobus,A22,1956980_unified,,
S-Bhf. Wilhelmshagen,autobus,A22,1956981_unified,,
Zentralschule,autobus,A22,1956982_unified,,
Paradiesgarten,autobus,A22,1956983_unified,,
S-Bhf. Rahnsdorf,autobus,A22,1956984_unified,,
"Fichtenau, Stadtgrenze",autobus,A22,1956985_unified,,
"Altglienicke, Kirche",autobus,A23,1956986_unified,,
Dankmarsteig,autobus,A23,1956987_unified,,
Wolfmarsteig,autobus,A23,1956988_unified,,
"Moabit, Wiebestr. Strassenbahnhof",autobus,A24,1956989_unified,,
Gotzkowskystr. Ecke Turmstr.,autobus,A24,1956990_unified,,
Stromstr. Ecke Turmstr.,autobus,A24,1956991_unified,,
Rathenowerstr. Ecke Turmstr.,autobus,A24,1956992_unified,,
Alt-Moabit/Paulstr.,autobus,A24,1956993_unified,,
Brückenallee Ecke Altonaerstr.,autobus,A24,1956994_unified,,
Großer Stern,autobus,A24,1956995_unified,,
Lützowplatz,autobus,A24,1956996_unified,,
Potsdamerstr. Ecke Lützowstr.,autobus,A24,1956997_unified,,
Anhalter Bhf.,autobus,A24,1956998_unified,,
U-Bhf. Hallesches Tor,autobus,A24,1956999_unified,,
U-Bhf. Gneisenaustr.,autobus,A24,19561000_unified,,
Friesenstr. Ecke Columbiadamm,autobus,A24,19561001_unified,,
"Tempelhof, Flughafen",autobus,A24,19561002_unified,,
Unionplatz,autobus,A25,19561003_unified,,
Turmstr. Ecke Huttenstr.,autobus,A25,19561004_unified,,
Gotzkowskybrücke Ecke Alt-Moabit,autobus,A25,19561005_unified,,
Hansaplatz,autobus,A25,19561006_unified,,
U-Bhf. Ernst-Reuter-Platz,autobus,A25,19561007_unified,,
Bhf. Zoo,autobus,A25,19561008_unified,,
Kurfürstendamm Ecke Joachimstalerstr.,autobus,A25,19561009_unified,,
Berlinerstr. Ecke Bundesallee,autobus,A25,19561010_unified,,
Badenschestr. Ecke Bundeasallee,autobus,A25,19561011_unified,,
Hildegardstr. Ecke Bundesallee,autobus,A25,19561012_unified,,
Süd-West-Korso Ecke Bundesallee,autobus,A25,19561013_unified,,
Wiesbadenerstr. Ecke Bundesallee,autobus,A25,19561014_unified,,
Kaisereiche,autobus,A25,19561015_unified,,
Bismarckstr. Ecke Beckerstr.,autobus,A25,19561016_unified,,
Rubensstr. Ecke Grazerplatz,autobus,A25,19561017_unified,,
Grazerdamm Ecke Prellerweg,autobus,A25,19561018_unified,,
Röblingstr. Ecke Arnulfstr.,autobus,A25,19561019_unified,,
Attilaplatz,autobus,A25,19561020_unified,,
Tempelhoferdamm Ecke Friedrich-Karlstr.,autobus,A25,19561021_unified,,
Gottlieb-Dunkelstr. Ecke Germaniastr.,autobus,A25,19561022_unified,,
Gradestr. (51) Ecke Tempelhoferweg,autobus,A25,19561023_unified,,
Britzerdamm Ecke Tempelhoferweg,autobus,A25,19561024_unified,,
Fritz-Reuter-Allee Ecke Parchimerallee,autobus,A25,19561025_unified,,
Grünerweg Ecke Buschkrugallee,autobus,A25,19561026_unified,,
"S-Bhf. Kaulsdorf, Planitzstr.",autobus,A27,19561027_unified,,
Chemnitzerstr.,autobus,A27,19561028_unified,,
Ulmenstr.,autobus,A27,19561029_unified,,
Gehsenerstr.,autobus,A27,19561030_unified,,
S-Bhf. Köpenick,autobus,A27,19561031_unified,,
Bahnhofstr. Ecke Lindenstr.,autobus,A27,19561032_unified,,
"Köpenick, Krankenhaus",autobus,A27,19561033_unified,,
Chausseehaus,autobus,A27,19561034_unified,,
Alt-Müggelheim,autobus,A27,19561035_unified,,
Loewenhardtdamm Ecke Boelckestr.,autobus,A28,19561036_unified,,
Dudenstr. Ecke Katzbachstr.,autobus,A28,19561037_unified,,
Monumentenstr. Ecke Katzbachstr.,autobus,A28,19561038_unified,,
Yorckstr. Ecke Großbeerenstr.,autobus,A28,19561039_unified,,
Mehringdamm Ecke Gneisenaustr.,autobus,A28,19561040_unified,,
U-Bhf. Gneisenaustr.,autobus,A28,19561041_unified,,
Urbanstr. Ecke Baerwaldstr.,autobus,A28,19561042_unified,,
U-Bhf. Prinzenstr.,autobus,A28,19561043_unified,,
U-Bhf Kottbusser Tor,autobus,A28,19561044_unified,,
Manteuffelstr. Ecke Köpenickerstr.,autobus,A28,19561045_unified,,
U-Bhf. Schlesisches Tor,autobus,A28,19561046_unified,,
Schlesischestr. Ecke Heckmannufer,autobus,A28,19561047_unified,,
Roseneck,autobus,A29,19561048_unified,,
Hubertussportplatz,autobus,A29,19561049_unified,,
Bismarckplatz,autobus,A29,19561050_unified,,
Bhf. Halensee,autobus,A29,19561051_unified,,
Joachim-Friedrichstr. Ecke Kurfürstendamm,autobus,A29,19561052_unified,,
Wilmersdorferstr. Ecke Kurfürstendamm,autobus,A29,19561053_unified,,
Uhlandstr. Ecke Kurfürstendamm,autobus,A29,19561054_unified,,
Breitscheidplatz,autobus,A29,19561055_unified,,
Wittenbergplatz,autobus,A29,19561056_unified,,
Lützowplatz Ecke Lützowstr.,autobus,A29,19561057_unified,,
Potsdamerstr. Ecke Lützowstr.,autobus,A29,19561058_unified,,
Anhalter Bhf.,autobus,A29,19561059_unified,,
Rathaus Zehlendorf,autobus,A3,19561060_unified,,
U-Bhf. Oskar-Helene-Heim,autobus,A3,19561061_unified,,
U-Bhf. Onkel-Toms-Hütte,autobus,A3,19561062_unified,,
U-Bhf. Krumme Lanke,autobus,A3,19561063_unified,,
Bhf. Zehlendorf-West,autobus,A3,19561064_unified,,
Potsdamerchaussee Ecke Spanischeallee,autobus,A3,19561065_unified,,
Bhf. Nikolassee,autobus,A3,19561066_unified,,
Bhf. Wannsee,autobus,A3,19561067_unified,,
Rathaus Wannsee,autobus,A3,19561068_unified,,
"Stölpchensee, Wilhelmplatz",autobus,A3,19561069_unified,,
Saargemünderstr.,autobus,A3E,19561070_unified,,
U-Bhf. Oskar-Helene-Heim,autobus,A3E,19561071_unified,,
Sophie-Charlottestr.,autobus,A3E,19561072_unified,,
Potsdamerstr. Ecke Berlinerstr.,autobus,A3E,19561073_unified,,
Bhf. Zehlendorf,autobus,A3E,19561074_unified,,
Jänickestr.,autobus,A3E,19561075_unified,,
"Lichterfelde, Osteweg",autobus,A3E,19561076_unified,,
"Gartenstadt, Staaken, Heidelbergplan",autobus,A31,19561077_unified,,
Eichholzbahn,autobus,A31,19561078_unified,,
Magistratsweg Ecke Brunsbüttelerdamm,autobus,A31,19561079_unified,,
Egelpfuhlstr. Ecke Brunsbüttelerdamm,autobus,A31,19561080_unified,,
Brunsbüttelerdamm Ecke Klosterstr.,autobus,A31,19561081_unified,,
Rathaus Spandau,autobus,A31,19561082_unified,,
Breitestr. Ecke Charlottenstr.,autobus,A31,19561083_unified,,
Bhf. Spandau,autobus,A31,19561084_unified,,
Breitenbachplatz,autobus,A32 (Obus),19561085_unified,,
Rathaus Steglitz,autobus,A32 (Obus),19561086_unified,,
Stadtpark Steglitz,autobus,A32 (Obus),19561087_unified,,
"Lankwitz, Kirche",autobus,A32 (Obus),19561088_unified,,
Marchandstr./Lankwitzer Ring,autobus,A32 (Obus),19561089_unified,,
Marienfelderallee Ecke Lankwitzstr.,autobus,A32 (Obus),19561090_unified,,
Bhf. Marienfelde,autobus,A32 (Obus),19561091_unified,,
Bhf. Steglitz,autobus,A33 (Obus),19561092_unified,,
Stadtpark Steglitz,autobus,A33 (Obus),19561093_unified,,
Bhf. Südende,autobus,A33 (Obus),19561094_unified,,
Bhf. Mariendorf,autobus,A33 (Obus),19561095_unified,,
Kaiserstr./Ringstr.,autobus,A33 (Obus),19561096_unified,,
"Mariendorf, Kaiserstr. Ecke Mariendorferdamm",autobus,A33 (Obus),19561097_unified,,
"Spandau, Friedhof",autobus,A34,19561098_unified,,
Hafenplatz,autobus,A34,19561099_unified,,
Rathaus Spandau,autobus,A34,19561100_unified,,
Heerstr. Ecke Pichelsdorferstr.,autobus,A34,19561101_unified,,
"Gatow, Kirche",autobus,A34,19561102_unified,,
Badewiese Ecke Kladowerdamm,autobus,A34,19561103_unified,,
"Gatow, Flugplatz",autobus,A34,19561104_unified,,
Neukladowerallee Ecke Kladowerdamm,autobus,A34,19561105_unified,,
Alt-Kladow,autobus,A34,19561106_unified,,
"Groß-Glienicke, Gutshof",autobus,A34,19561107_unified,,
Germersheimerplatz,autobus,A35,19561108_unified,,
Rathaus Spandau,autobus,A35,19561109_unified,,
Heerstr. Ecke Pichelsdorferstr.,autobus,A35,19561110_unified,,
Weinmeisterhornweg,autobus,A35,19561111_unified,,
"Gatow, Kirche",autobus,A35,19561112_unified,,
Badewiese Ecke Kladowerdamm,autobus,A35,19561113_unified,,
Flugplatz,autobus,A35,19561114_unified,,
Neukladowerallee Ecke Kladowerdamm,autobus,A35,19561115_unified,,
Alt-Kladow Ecke Kladowerdamm,autobus,A35,19561116_unified,,
"Kladow, Hottengrund (Stadtgrenze)",autobus,A35,19561117_unified,,
S-Bhf. Grünau,autobus,A36,19561118_unified,,
"Bohnsdorf, Kirche",autobus,A36,19561119_unified,,
Falkenhöhe,autobus,A36,19561120_unified,,
Waltersdorferchaussee (Spinne),autobus,A36,19561121_unified,,
"Schönefeld, Dorfplatz",autobus,A36,19561122_unified,,
Bhf. Lichtenberg,autobus,A37,19561123_unified,,
"Friedrichsfelde, Schloßstr.",autobus,A37,19561124_unified,,
S-Bhf. Biesdorf,autobus,A37,19561125_unified,,
Cäcilienstr.,autobus,A37,19561126_unified,,
"Geißenweide, Elisabethstr.",autobus,A37,19561127_unified,,
"Alt-Marzahn, Kirche",autobus,A37,19561128_unified,,
Waltersdorf,autobus,A38,19561129_unified,,
"Bohnsdorf, Waldstr.",autobus,A38,19561130_unified,,
Lindenstr. Ecke Waltersdorferstr.,autobus,A38,19561131_unified,,
Merkurstr. Ecke Schulzendorferstr.,autobus,A38,19561132_unified,,
S-Bhf. Grünau,autobus,A38,19561133_unified,,
"Wartenberg, Siedlung",autobus,A39,19561134_unified,,
Birkholzerweg,autobus,A39,19561135_unified,,
Falkenbergerchaussee,autobus,A39,19561136_unified,,
"Hohenschönhausen, Falkenbergerstr.",autobus,A39,19561137_unified,,
Brixplatz,autobus,A4,19561138_unified,,
Reichskanzlerplatz,autobus,A4,19561139_unified,,
Masurenallee Ecke Messedamm,autobus,A4,19561140_unified,,
Halenseestr. Ecke Kurfürstendamm,autobus,A4,19561141_unified,,
Bhf. Halensee,autobus,A4,19561142_unified,,
Hochmeisterplatz,autobus,A4,19561143_unified,,
U-Bhf. Fehrbellinerplatz,autobus,A4,19561144_unified,,
Bundesallee Ecke Badenschestr.,autobus,A4,19561145_unified,,
Rathaus Schöneberg,autobus,A4,19561146_unified,,
Innsbruckerplatz,autobus,A4,19561147_unified,,
Dominicusstr. Ecke Hauptstr.,autobus,A4,19561148_unified,,
Kaiser-Wilhelm-Platz,autobus,A4,19561149_unified,,
Katzbachstr. Ecke Dudenstr.,autobus,A4,19561150_unified,,
U-Bhf. Flughafen,autobus,A4,19561151_unified,,
Friesenstr. Ecke Columbiadamm,autobus,A4,19561152_unified,,
U-Bhf. Boddinstr.,autobus,A4,19561153_unified,,
Rathaus Neukölln,autobus,A4,19561154_unified,,
Finowstr. Ecke Sonnenallee,autobus,A4,19561155_unified,,
Leninallee Ecke Dimitroffstr.,autobus,A41,19561156_unified,,
Steuerhaus,autobus,A41,19561157_unified,,
Weißenseerweg,autobus,A41,19561158_unified,,
Genslerstr.,autobus,A41,19561159_unified,,
Dingelstädterstr.,autobus,A41,19561160_unified,,
"Marzahn, Bürknersfelde",autobus,A41,19561161_unified,,
"Buch, Zepernickerstr.",autobus,A42,19561162_unified,,
Lindenbergerweg,autobus,A42,19561163_unified,,
"Karow, Kirche",autobus,A42,19561164_unified,,
"Strasse 46, Güteraußenring",autobus,A42,19561165_unified,,
"Blankenburg, Bahnhofstr.",autobus,A42,19561166_unified,,
"Heinersdorf, Kirche",autobus,A42,19561167_unified,,
Gustav-Adolfstr. Ecke Rennbahnstr.,autobus,A42,19561168_unified,,
Ostseestr. Ecke Prenzlauerallee,autobus,A42,19561169_unified,,
Bürknersfelde,autobus,A43,19561170_unified,,
"Marzahn, Pekrunstr.",autobus,A43,19561171_unified,,
Güterbahnhof Springpfuhl,autobus,A43,19561172_unified,,
S-Bhf. Friedrichsfelde-Ost,autobus,A43,19561173_unified,,
U-Bhf. Friedrichsfelde,autobus,A43,19561174_unified,,
"Hönow, Dorfstr.",autobus,A44,19561175_unified,,
Hönowerstr. Ecke Greifswalderstr.,autobus,A44,19561176_unified,,
Am Rosenhag,autobus,A44,19561177_unified,,
S-Bhf. Mahlsdorf,autobus,A44,19561178_unified,,
Greifswalderstr.,autobus,A44E,19561179_unified,,
Am Rosenhag,autobus,A44E,19561180_unified,,
S-Bhf. Mahlsdorf,autobus,A44E,19561181_unified,,
"Wilhelmsruh, Fontanestr.",autobus,A45,19561182_unified,,
Hauptstr. Ecke Edelweißstr.,autobus,A45,19561183_unified,,
Provinzstr.,autobus,A45,19561184_unified,,
Heinrich-Mann-Platz,autobus,A45,19561185_unified,,
"Florastr., S-Bhf. Pankow",autobus,A45,19561186_unified,,
Kissingenplatz,autobus,A45,19561187_unified,,
Prenzlauer Promenade Ecke Thulestr.,autobus,A45,19561188_unified,,
Mirbachplatz,autobus,A45,19561189_unified,,
Rennbahnstr.,autobus,A45,19561190_unified,,
"Weißensee, Feldmannstr.",autobus,A45,19561191_unified,,
"Ahrensfeld, Lindenbergerstr.",autobus,A46,19561192_unified,,
Bhf. Ahrensfelde,autobus,A46,19561193_unified,,
"Falkenberg, Schule",autobus,A46,19561194_unified,,
Strasse nach Wartenberg,autobus,A46,19561195_unified,,
Malchowerweg,autobus,A46,19561196_unified,,
Klement-Gottwald-Allee Ecke Falkenbergerstr.,autobus,A46,19561197_unified,,
"Weißensee, Feldtmannstr.",autobus,A46,19561198_unified,,
"Malchow, Dorfstr.",autobus,A46,19561199_unified,,
Bhf. Schöneweide,autobus,A47,19561200_unified,,
Sterndamm Ecke Königsheideweg,autobus,A47,19561201_unified,,
Baumschulenstr. Ecke Südostallee,autobus,A47,19561202_unified,,
"S-Bhf. Baumschulenweg, Glanzstr.",autobus,A47,19561203_unified,,
Potsdamerstr. Ecke Fischerhüttenstr.,autobus,A48,19561204_unified,,
Berlinerstr. Ecke Teltowerdamm,autobus,A48,19561205_unified,,
Sundgauerstr. Ecke Berlinerstr.,autobus,A48,19561206_unified,,
Thielallee Ecke Berlinerstr.,autobus,A48,19561207_unified,,
Drakestr. Ecke Unter den Eichen,autobus,A48,19561208_unified,,
Asternplatz,autobus,A48,19561209_unified,,
Hindenburgdamm Ecke Schloßstr.,autobus,A48,19561210_unified,,
Rathaus Steglitz,autobus,A48,19561211_unified,,
"Bundesallee, Titaniapalast",autobus,A48,19561212_unified,,
Kaisereiche,autobus,A48,19561213_unified,,
Innsbruckerplatz,autobus,A48,19561214_unified,,
Dominicusstr. Ecke Hauptstr.,autobus,A48,19561215_unified,,
Kaiser-Wilhelm-Platz,autobus,A48,19561216_unified,,
Bülowstr. Ecke Potsdamerstr.,autobus,A48,19561217_unified,,
Lützowstr. Ecke Potsdamerstr.,autobus,A48,19561218_unified,,
"Potsdamer Brücke, Am Karlsbad",autobus,A48,19561219_unified,,
"Kaulsdorf, Bausdorfstr.",autobus,A49,19561220_unified,,
Ridbacherstr.,autobus,A49,19561221_unified,,
Baltenring,autobus,A49,19561222_unified,,
Uckermarkstr.,autobus,A49,19561223_unified,,
"Kaulsdorf, Hönowerstr. Ecke Bausdorfstr.",autobus,A49,19561224_unified,,
Machandelweg Ecke Charlottenburgerchaussee,autobus,A5,19561225_unified,,
U-Bhf. Ruhleben,autobus,A5,19561226_unified,,
Teltowerstr. Ecke Charlottenburgerstr.,autobus,A5,19561227_unified,,
"Spandau, Markt",autobus,A5,19561228_unified,,
Rathaus Spandau,autobus,A5,19561229_unified,,
Bhf. Spandau-West,autobus,A5,19561230_unified,,
Hochgerichtstr. Ecke Seegefelderstr.,autobus,A5,19561231_unified,,
Zeppelinstr. Ecke Falkenhagenerchaussee,autobus,A5,19561232_unified,,
"Beerwinkel, Wasserwerk",autobus,A5,19561233_unified,,
"Spandau, Waldkrankenhaus",autobus,A5,19561234_unified,,
"Emserplatz, Pfalzburgerstr.",autobus,A50,19561235_unified,,
Fehrbellinerplatz,autobus,A50,19561236_unified,,
Konstanzerstr. Ecke Hohenzollerndamm,autobus,A50,19561237_unified,,
Bhf. Hohenzollerndamm,autobus,A50,19561238_unified,,
Flinsbergerplatz,autobus,A50,19561239_unified,,
Elsterplatz,autobus,A50,19561240_unified,,
"Roseneck, Rheinbabenallee, Grunewald",autobus,A50,19561241_unified,,
Bhf. Wannsee,autobus,A51,19561242_unified,,
Bahnhofstr. Ecke Königstr.,autobus,A51,19561243_unified,,
Königstr. Ecke Am Grossen Wannsee,autobus,A51,19561244_unified,,
Koblanckstr.,autobus,A51,19561245_unified,,
Colomierstr.,autobus,A51,19561246_unified,,
Krankenhaus Wannsee,autobus,A51,19561247_unified,,
Zum Heckeshorn,autobus,A51,19561248_unified,,
Krankenhaus Heckeshorn,autobus,A51,19561249_unified,,
Alt-Marienfelde Ecke Marienfelderallee,autobus,A52,19561250_unified,,
Gutshof Marienfelde,autobus,A52,19561251_unified,,
Bhf. Buckowerchaussee,autobus,A52,19561252_unified,,
Lichtenraderdamm Ecke Buckowerchaussee,autobus,A52,19561253_unified,,
Buckowerdamm Ecke Alt-Buckow,autobus,A52,19561254_unified,,
Johannisthalerchaussee Ecke Rudowerstr.,autobus,A52,19561255_unified,,
Wildmeisterdamm Ecke Neuköllnerstr.,autobus,A52,19561256_unified,,
Neuköllnerstr. Ecke Köpenickerstr.,autobus,A52,19561257_unified,,
"Rudow, Kanalstr. Ecke Mimosenweg",autobus,A52,19561258_unified,,
"Wilhelmsruh, Fontanestr.",autobus,A55,19561259_unified,,
Hauptstr. Ecke Edelweißstr.,autobus,A55,19561260_unified,,
Provinzstr.,autobus,A55,19561261_unified,,
"Schulzestr., S-Bhf. Wollkanstr.",autobus,A55,19561262_unified,,
"Florastr., S-Bhf. Pankow",autobus,A55,19561263_unified,,
Prenzlauerstr. Ecke Granitzstr.,autobus,A55,19561264_unified,,
"Heinersdorf, Kirche",autobus,A55,19561265_unified,,
"Weißensee, Rennbahnstr. Ecke Gustav-Adolfstr.",autobus,A55,19561266_unified,,
"Weißensee, Schwarzelfenweg",autobus,A55,19561267_unified,,
Bhf. Wannsee,autobus,A6,19561268_unified,,
Königstr. Ecke Bahnhofstr.,autobus,A6,19561269_unified,,
Am Grossen Wannsee,autobus,A6,19561270_unified,,
Pfaueninselchaussee,autobus,A6,19561271_unified,,
Rathaus Wannsee,autobus,A6,19561272_unified,,
Friedenstr.,autobus,A6,19561273_unified,,
Golfplatz,autobus,A6,19561274_unified,,
Nikolskoerweg,autobus,A6,19561275_unified,,
Glienicker Brücke,autobus,A6,19561276_unified,,
"Glienicke, Kirche",autobus,A7,19561277_unified,,
Sophienstr.,autobus,A7,19561278_unified,,
"Glienicke, Pilz",autobus,A7,19561279_unified,,
"Schildow, Kirche",autobus,A7,19561280_unified,,
"Blankenfelde, Hauptstr.",autobus,A7,19561281_unified,,
Industriebahn,autobus,A7,19561282_unified,,
"Nordend, Schillerstr.",autobus,A7,19561283_unified,,
Ossietzkyplatz,autobus,A7,19561284_unified,,
Kurt-Fischer-Platz,autobus,A7,19561285_unified,,
"Pankow, Rathaus",autobus,A7,19561286_unified,,
U-Bhf. Vinetastr.,autobus,A7,19561287_unified,,
Waldesruh,autobus,A8,19561288_unified,,
Summterstr.,autobus,A8,19561289_unified,,
Hultschinerdamm,autobus,A8,19561290_unified,,
Chemnitzer Ecke Ulmenstr.,autobus,A8,19561291_unified,,
Zimmermannstr.,autobus,A8,19561292_unified,,
Glewitzerstr.,autobus,A8,19561293_unified,,
"Alt-Biesdorf, Oberfeldstr.",autobus,A8,19561294_unified,,
Schloßstr. Ecke Alt-Friedrichsfelde,autobus,A8,19561295_unified,,
U-Bhf. Friedrichsfelde,autobus,A8,19561296_unified,,
Kinderheim,autobus,A82P,19561297_unified,,
Friedrich-Jungestr.,autobus,A82P,19561298_unified,,
Markgrafendamm,autobus,A82P,19561299_unified,,
"Scharnhorststr., Volkspolizeikrankenhaus",autobus,A9,19561300_unified,,
Invalidenstr. Ecke Chausseestr.,autobus,A9,19561301_unified,,
Oranienburger Tor,autobus,A9,19561302_unified,,
S-Bhf. Friedrichstr.,autobus,A9,19561303_unified,,
Unter den Linden Ecke Friedrichstr.,autobus,A9,19561304_unified,,
"Spandauerstr., Rathaus",autobus,A9,19561305_unified,,
Bhf. Alexanderplatz,autobus,A9,19561306_unified,,
Königstor,autobus,A9,19561307_unified,,
"Arnsalderplatz, Dimitroffstr.",autobus,A9,19561308_unified,,
Lindenberg,autobus,AL,19561309_unified,,
"Malchow, Dorfstr.",autobus,AL,19561310_unified,,
Bhf. Hohen Neuendorf,autobus,AN,19561311_unified,,
"Bergfelde, Karl-Marxstr.",autobus,AN,19561312_unified,,
"Schönfließ , Kirche",autobus,AN,19561313_unified,,
Leninplatz,autobus,AN,19561314_unified,,
"Glienicke, Elsässerstr.",autobus,AN,19561315_unified,,
Warschauer Brücke,u-bahn,B I,19561316_unified,,
Schlesisches Tor,u-bahn,B I,19561317_unified,,
Görlitzer Bahnhof (Oranienstr.),u-bahn,B I,19561318_unified,,
Kottbusser Tor,u-bahn,B I,19561319_unified,,
Prinzenstr.,u-bahn,B I,19561320_unified,,
Hallesches Tor,u-bahn,B I,19561321_unified,,
Möckernbrücke,u-bahn,B I,19561322_unified,,
Gleisdreieck,u-bahn,B I,19561323_unified,,
Kurfürstenstr.,u-bahn,B I,19561324_unified,,
Nollendorfplatz,u-bahn,B I,19561325_unified,,
Wittenbergplatz,u-bahn,B I,19561326_unified,,
Uhlandstr.,u-bahn,B I,19561327_unified,,
Nollendorfplatz,u-bahn,B II,19561328_unified,,
Viktoria-Luise-Platz,u-bahn,B II,19561329_unified,,
Bayerischerplatz,u-bahn,B II,19561330_unified,,
Rathaus Schöneberg,u-bahn,B II,19561331_unified,,
Innsbruckerplatz (Hauptstr.),u-bahn,B II,19561332_unified,,
Kurt-Schumacher-Platz,u-bahn,C I,19561333_unified,,
Afrikanischestr.,u-bahn,C I,19561334_unified,,
Rehberge,u-bahn,C I,19561335_unified,,
Seestr.,u-bahn,C I,19561336_unified,,
Leopoldplatz,u-bahn,C I,19561337_unified,,
Bahnhof Wedding,u-bahn,C I,19561338_unified,,
Reinickendorferstr.,u-bahn,C I,19561339_unified,,
Schwartzkopffstr.,u-bahn,C I,19561340_unified,,
Nordbahnhof,u-bahn,C I,19561341_unified,,
Oranienburger Tor,u-bahn,C I,19561342_unified,,
Bahnhof Friedrichstr. (Stadtbahn),u-bahn,C I,19561343_unified,,
Französischestr.,u-bahn,C I,19561344_unified,,
Stadtmitte (Leipzigerstr.),u-bahn,C I,19561345_unified,,
Kochstr.,u-bahn,C I,19561346_unified,,
Hallesches Tor,u-bahn,C I,19561347_unified,,
Mehringdamm,u-bahn,C I,19561348_unified,,
Gneisenaustr.,u-bahn,C I,19561349_unified,,
Südstern,u-bahn,C I,19561350_unified,,
Hermannplatz,u-bahn,C I,19561351_unified,,
Rathaus Neukölln,u-bahn,C I,19561352_unified,,
Karl-Marxstr.,u-bahn,C I,19561353_unified,,
Neukölln (Südring),u-bahn,C I,19561354_unified,,
Grenzallee,u-bahn,C I,19561355_unified,,
Mehringdamm,u-bahn,C II,19561356_unified,,
Flughafen,u-bahn,C II,19561357_unified,,
Paradestr.,u-bahn,C II,19561358_unified,,
Tempelhof (Südring),u-bahn,C II,19561359_unified,,
Gesundbrunnen,u-bahn,D,19561360_unified,,
Voltastr.,u-bahn,D,19561361_unified,,
Bernauerstr.,u-bahn,D,19561362_unified,,
Rosenthalerplatz,u-bahn,D,19561363_unified,,
Weinmeisterstr.,u-bahn,D,19561364_unified,,
Alexanderplatz,u-bahn,D,19561365_unified,,
Jannowitzbrücke,u-bahn,D,19561366_unified,,
Neanderstr.,u-bahn,D,19561367_unified,,
Moritzplatz,u-bahn,D,19561368_unified,,
Kottbusser Tor,u-bahn,D,19561369_unified,,
Kottbusserdamm (Schönleinstr.),u-bahn,D,19561370_unified,,
Hermannplatz,u-bahn,D,19561371_unified,,
Boddinstr.,u-bahn,D,19561372_unified,,
Leinestr.,u-bahn,D,19561373_unified,,
Alexanderplatz,u-bahn,E,19561374_unified,,
Schillingstr.,u-bahn,E,19561375_unified,,
Strausbergerplatz,u-bahn,E,19561376_unified,,
Marchlewskistr.,u-bahn,E,19561377_unified,,
Bersarinstr. (Frankfurter Tor),u-bahn,E,19561378_unified,,
Samariterstr.,u-bahn,E,19561379_unified,,
Stalinallee,u-bahn,E,19561380_unified,,
Magdalenenstr.,u-bahn,E,19561381_unified,,
Bahnhof Lichtenberg (Zentralfriedhof),u-bahn,E,19561382_unified,,
Friedrichsfelde (Tierpark),u-bahn,E,19561383_unified,,
Gesundbrunnen,s-bahn,KBS 100,19561384_unified,,
Schönhauserallee,s-bahn,KBS 100,19561385_unified,,
Prenzlauerallee,s-bahn,KBS 100,19561386_unified,,
Greifswalderstr.,s-bahn,KBS 100,19561387_unified,,
Leninallee,s-bahn,KBS 100,19561388_unified,,
Zentralviehhof,s-bahn,KBS 100,19561389_unified,,
Stalinallee,s-bahn,KBS 100,19561390_unified,,
Ostkreuz,s-bahn,KBS 100,19561391_unified,,
Treptower Park,s-bahn,KBS 100,19561392_unified,,
Sonnenallee,s-bahn,KBS 100,19561393_unified,,
Neukölln,s-bahn,KBS 100,19561394_unified,,
Hermannstr.,s-bahn,KBS 100,19561395_unified,,
Tempelhof,s-bahn,KBS 100,19561396_unified,,
Papestr.,s-bahn,KBS 100,19561397_unified,,
Schöneberg,s-bahn,KBS 100,19561398_unified,,
Innsbruckerplatz,s-bahn,KBS 100,19561399_unified,,
Wilmersdorf,s-bahn,KBS 100,19561400_unified,,
Schmargendorf,s-bahn,KBS 100,19561401_unified,,
Hohenzollerndamm,s-bahn,KBS 100,19561402_unified,,
Halensee,s-bahn,KBS 100,19561403_unified,,
Westkreuz,s-bahn,KBS 100,19561404_unified,,
Witzleben,s-bahn,KBS 100,19561405_unified,,
Westend,s-bahn,KBS 100,19561406_unified,,
Jungfernheide,s-bahn,KBS 100,19561407_unified,,
Beusselstr.,s-bahn,KBS 100,19561408_unified,,
Putlitzstr.,s-bahn,KBS 100,19561409_unified,,
Wedding,s-bahn,KBS 100,19561410_unified,,
Westend,s-bahn,KBS 100a,19561411_unified,,
Witzleben,s-bahn,KBS 100a,19561412_unified,,
Westkreuz,s-bahn,KBS 100a,19561413_unified,,
Halensee,s-bahn,KBS 100a,19561414_unified,,
Hohenzollerndamm,s-bahn,KBS 100a,19561415_unified,,
Schmargendorf,s-bahn,KBS 100a,19561416_unified,,
Wilmersdorf,s-bahn,KBS 100a,19561417_unified,,
Innsbruckerplatz,s-bahn,KBS 100a,19561418_unified,,
Schöneberg,s-bahn,KBS 100a,19561419_unified,,
Papestr.,s-bahn,KBS 100a,19561420_unified,,
Tempelhof,s-bahn,KBS 100a,19561421_unified,,
Hermannstr.,s-bahn,KBS 100a,19561422_unified,,
Neukölln,s-bahn,KBS 100a,19561423_unified,,
Köllnische Heide,s-bahn,KBS 100a,19561424_unified,,
Baumschulenweg,s-bahn,KBS 100a,19561425_unified,,
Schöneweide,s-bahn,KBS 100a,19561426_unified,,
Betriebsbahnhof Schöneweide,s-bahn,KBS 100a,19561427_unified,,
Adlershof,s-bahn,KBS 100a,19561428_unified,,
Grünau,s-bahn,KBS 100a,19561429_unified,,
Blankenburg,s-bahn,KBS 100b,19561430_unified,,
Pankow-Heinersdorf,s-bahn,KBS 100b,19561431_unified,,
Pankow,s-bahn,KBS 100b,19561432_unified,,
Schönhauserallee,s-bahn,KBS 100b,19561433_unified,,
Prenzlauerallee,s-bahn,KBS 100b,19561434_unified,,
Greifswalderstr.,s-bahn,KBS 100b,19561435_unified,,
Leninallee,s-bahn,KBS 100b,19561436_unified,,
Zentralviehhof,s-bahn,KBS 100b,19561437_unified,,
Stalinallee,s-bahn,KBS 100b,19561438_unified,,
Ostkreuz,s-bahn,KBS 100b,19561439_unified,,
Warschauerstr.,s-bahn,KBS 100b,19561440_unified,,
Gesundbrunnen,s-bahn,KBS 100c,19561441_unified,,
Schönhauserallee,s-bahn,KBS 100c,19561442_unified,,
Prenzlauerallee,s-bahn,KBS 100c,19561443_unified,,
Greifswalderstr.,s-bahn,KBS 100c,19561444_unified,,
Leninallee,s-bahn,KBS 100c,19561445_unified,,
Zentralviehhof,s-bahn,KBS 100c,19561446_unified,,
Stalinallee,s-bahn,KBS 100c,19561447_unified,,
Ostkreuz,s-bahn,KBS 100c,19561448_unified,,
Warschauerstr.,s-bahn,KBS 100c,19561449_unified,,
Jungfernheide,s-bahn,KBS 100d,19561450_unified,,
Wernerwerk,s-bahn,KBS 100d,19561451_unified,,
Siemensstadt,s-bahn,KBS 100d,19561452_unified,,
Gartenfeld,s-bahn,KBS 100d,19561453_unified,,
Staaken,s-bahn,KBS 101,19561454_unified,,
Spandau West,s-bahn,KBS 101,19561455_unified,,
Spandau,s-bahn,KBS 101,19561456_unified,,
Pichelsberg,s-bahn,KBS 101,19561457_unified,,
Reichssportfeld,s-bahn,KBS 101,19561458_unified,,
Heerstr.,s-bahn,KBS 101,19561459_unified,,
Eichkamp,s-bahn,KBS 101,19561460_unified,,
Westkreuz,s-bahn,KBS 101,19561461_unified,,
Charlottenburg,s-bahn,KBS 101,19561462_unified,,
Savignyplatz,s-bahn,KBS 101,19561463_unified,,
Zoologischer Garten,s-bahn,KBS 101,19561464_unified,,
Tiergarten,s-bahn,KBS 101,19561465_unified,,
Bellevue,s-bahn,KBS 101,19561466_unified,,
Lehrter Stadtbahnhof,s-bahn,KBS 101,19561467_unified,,
Friedrichstr.,s-bahn,KBS 101,19561468_unified,,
Marx-Engels-Platz,s-bahn,KBS 101,19561469_unified,,
Alexanderplatz,s-bahn,KBS 101,19561470_unified,,
Jannowitzbrücke,s-bahn,KBS 101,19561471_unified,,
Ostbahnhof,s-bahn,KBS 101,19561472_unified,,
Warschauerstr.,s-bahn,KBS 101,19561473_unified,,
Ostkreuz,s-bahn,KBS 101,19561474_unified,,
Nöldnerplatz,s-bahn,KBS 101,19561475_unified,,
Lichtenberg,s-bahn,KBS 101,19561476_unified,,
Friedrichsfelde Ost,s-bahn,KBS 101,19561477_unified,,
Biesdorf,s-bahn,KBS 101,19561478_unified,,
Kaulsdorf,s-bahn,KBS 101,19561479_unified,,
Mahlsdorf,s-bahn,KBS 101,19561480_unified,,
Hoppegarten (Mark),s-bahn,KBS 101,19561481_unified,,
Neuenhagen (b Bln),s-bahn,KBS 101,19561482_unified,,
Fredersdorf (b Bln),s-bahn,KBS 101,19561483_unified,,
Giebelsee,s-bahn,KBS 101,19561484_unified,,
Strausberg,s-bahn,KBS 101,19561485_unified,,
Strausberg,s-bahn,KBS 101a,19561486_unified,,
Strausberg Stadt,s-bahn,KBS 101a,19561487_unified,,
Strausberg Nord,s-bahn,KBS 101a,19561488_unified,,
Potsdam,s-bahn,KBS 102,19561489_unified,,
Babelsberg,s-bahn,KBS 102,19561490_unified,,
Griebnitzsee,s-bahn,KBS 102,19561491_unified,,
Wannsee,s-bahn,KBS 102,19561492_unified,,
Nikolassee,s-bahn,KBS 102,19561493_unified,,
Grunewald,s-bahn,KBS 102,19561494_unified,,
Westkreuz,s-bahn,KBS 102,19561495_unified,,
Charlottenburg,s-bahn,KBS 102,19561496_unified,,
Savignyplatz,s-bahn,KBS 102,19561497_unified,,
Zoologischer Garten,s-bahn,KBS 102,19561498_unified,,
Tiergarten,s-bahn,KBS 102,19561499_unified,,
Bellevue,s-bahn,KBS 102,19561500_unified,,
Lehrter Stadtbahnhof,s-bahn,KBS 102,19561501_unified,,
Friedrichstr.,s-bahn,KBS 102,19561502_unified,,
Marx-Engels-Platz,s-bahn,KBS 102,19561503_unified,,
Alexanderplatz,s-bahn,KBS 102,19561504_unified,,
Jannowitzbrücke,s-bahn,KBS 102,19561505_unified,,
Ostbahnhof,s-bahn,KBS 102,19561506_unified,,
Warschauerstr.,s-bahn,KBS 102,19561507_unified,,
Ostkreuz,s-bahn,KBS 102,19561508_unified,,
Rummelsburg,s-bahn,KBS 102,19561509_unified,,
Betriebsbahnhof Rummelsburg,s-bahn,KBS 102,19561510_unified,,
Karlshorst,s-bahn,KBS 102,19561511_unified,,
Wuhlheide,s-bahn,KBS 102,19561512_unified,,
Köpenick,s-bahn,KBS 102,19561513_unified,,
Hirschgarten,s-bahn,KBS 102,19561514_unified,,
Friedrichshagen,s-bahn,KBS 102,19561515_unified,,
Rahnsdorf,s-bahn,KBS 102,19561516_unified,,
Wilhelmshagen,s-bahn,KBS 102,19561517_unified,,
Erkner,s-bahn,KBS 102,19561518_unified,,
Falkensee,s-bahn,KBS 103,19561519_unified,,
Albrechtshof,s-bahn,KBS 103,19561520_unified,,
Spandau West,s-bahn,KBS 103,19561521_unified,,
Spandau,s-bahn,KBS 103,19561522_unified,,
Pichelsberg,s-bahn,KBS 103,19561523_unified,,
Reichssportfeld,s-bahn,KBS 103,19561524_unified,,
Heerstr.,s-bahn,KBS 103,19561525_unified,,
Eichkamp,s-bahn,KBS 103,19561526_unified,,
Westkreuz,s-bahn,KBS 103,19561527_unified,,
Charlottenburg,s-bahn,KBS 103,19561528_unified,,
Savignyplatz,s-bahn,KBS 103,19561529_unified,,
Zoologischer Garten,s-bahn,KBS 103,19561530_unified,,
Tiergarten,s-bahn,KBS 103,19561531_unified,,
Bellevue,s-bahn,KBS 103,19561532_unified,,
Lehrter Stadtbahnhof,s-bahn,KBS 103,19561533_unified,,
Friedrichstr.,s-bahn,KBS 103,19561534_unified,,
Marx-Engels-Platz,s-bahn,KBS 103,19561535_unified,,
Alexanderplatz,s-bahn,KBS 103,19561536_unified,,
Jannowitzbrücke,s-bahn,KBS 103,19561537_unified,,
Ostbahnhof,s-bahn,KBS 103,19561538_unified,,
Warschauerstr.,s-bahn,KBS 103,19561539_unified,,
Ostkreuz,s-bahn,KBS 103,19561540_unified,,
Treptower Park,s-bahn,KBS 103,19561541_unified,,
Plänterwald,s-bahn,KBS 103,19561542_unified,,
Baumschulenweg,s-bahn,KBS 103,19561543_unified,,
Schöneweide,s-bahn,KBS 103,19561544_unified,,
Betriebsbahnhof Schöneweide,s-bahn,KBS 103,19561545_unified,,
Adlershof,s-bahn,KBS 103,19561546_unified,,
Grünau,s-bahn,KBS 103,19561547_unified,,
Eichwalde,s-bahn,KBS 103,19561548_unified,,
Zeuthen,s-bahn,KBS 103,19561549_unified,,
Wildau,s-bahn,KBS 103,19561550_unified,,
Königs Wusterhausen,s-bahn,KBS 103,19561551_unified,,
Spandau West,s-bahn,KBS 103a,19561552_unified,,
Spandau,s-bahn,KBS 103a,19561553_unified,,
Siemensstadt-Fürstenbrunn,s-bahn,KBS 103a,19561554_unified,,
Jungfernheide,s-bahn,KBS 103a,19561555_unified,,
Beusselstr.,s-bahn,KBS 103a,19561556_unified,,
Putlitzstr.,s-bahn,KBS 103a,19561557_unified,,
Wedding,s-bahn,KBS 103a,19561558_unified,,
Gesundbrunnen,s-bahn,KBS 103a,19561559_unified,,
Schönhauserallee,s-bahn,KBS 103a,19561560_unified,,
Prenzlauerallee,s-bahn,KBS 103a,19561561_unified,,
Greifswalderstr.,s-bahn,KBS 103a,19561562_unified,,
Leninallee,s-bahn,KBS 103a,19561563_unified,,
Zentralviehhof,s-bahn,KBS 103a,19561564_unified,,
Stalinallee,s-bahn,KBS 103a,19561565_unified,,
Ostkreuz,s-bahn,KBS 103a,19561566_unified,,
Treptower Park,s-bahn,KBS 103a,19561567_unified,,
Plänterwald,s-bahn,KBS 103a,19561568_unified,,
Baumschulenweg,s-bahn,KBS 103a,19561569_unified,,
Schöneweide,s-bahn,KBS 103a,19561570_unified,,
Oberspree,s-bahn,KBS 103a,19561571_unified,,
Spindlersfeld,s-bahn,KBS 103a,19561572_unified,,
Oranienburg,s-bahn,KBS 104,19561573_unified,,
Lehnitz,s-bahn,KBS 104,19561574_unified,,
Borgsdorf,s-bahn,KBS 104,19561575_unified,,
Birkenwerder,s-bahn,KBS 104,19561576_unified,,
Hohen-Neuendorf (b Bln),s-bahn,KBS 104,19561577_unified,,
Frohnau,s-bahn,KBS 104,19561578_unified,,
Hermsdorf,s-bahn,KBS 104,19561579_unified,,
Waidmannslust,s-bahn,KBS 104,19561580_unified,,
Wittenau (Nordbahn),s-bahn,KBS 104,19561581_unified,,
Wilhelmsruh,s-bahn,KBS 104,19561582_unified,,
Schönholz,s-bahn,KBS 104,19561583_unified,,
Wollankstr.,s-bahn,KBS 104,19561584_unified,,
Bornholmerstr.,s-bahn,KBS 104,19561585_unified,,
Gesundbrunnen,s-bahn,KBS 104,19561586_unified,,
Humboldthain,s-bahn,KBS 104,19561587_unified,,
Nordbahnhof,s-bahn,KBS 104,19561588_unified,,
Oranienburgerstr.,s-bahn,KBS 104,19561589_unified,,
Friedrichstr.,s-bahn,KBS 104,19561590_unified,,
Unter den Linden,s-bahn,KBS 104,19561591_unified,,
Potsdamerplatz,s-bahn,KBS 104,19561592_unified,,
Anhalter Bahnhof,s-bahn,KBS 104,19561593_unified,,
Großgörschenstr.,s-bahn,KBS 104,19561594_unified,,
Schöneberg,s-bahn,KBS 104,19561595_unified,,
Friedenau,s-bahn,KBS 104,19561596_unified,,
Feuerbachstr.,s-bahn,KBS 104,19561597_unified,,
Steglitz,s-bahn,KBS 104,19561598_unified,,
Botanischer Garten,s-bahn,KBS 104,19561599_unified,,
Lichterfelde West,s-bahn,KBS 104,19561600_unified,,
Sundgauerstr.,s-bahn,KBS 104,19561601_unified,,
Zehlendorf,s-bahn,KBS 104,19561602_unified,,
Zehlendorf West,s-bahn,KBS 104,19561603_unified,,
Schlachtensee,s-bahn,KBS 104,19561604_unified,,
Nikolassee,s-bahn,KBS 104,19561605_unified,,
Wannsee,s-bahn,KBS 104,19561606_unified,,
Zehlendorf,s-bahn,KBS 104a,19561607_unified,,
Düppel-Kleinmachnow,s-bahn,KBS 104a,19561608_unified,,
Wannsee,s-bahn,KBS 104b,19561609_unified,,
Dreilinden,s-bahn,KBS 104b,19561610_unified,,
Stahnsdorf,s-bahn,KBS 104b,19561611_unified,,
Velten (Mark),s-bahn,KBS 105,19561612_unified,,
Hohenschöpping,s-bahn,KBS 105,19561613_unified,,
Hennigsdorf (b Bln),s-bahn,KBS 105,19561614_unified,,
Heiligensee,s-bahn,KBS 105,19561615_unified,,
Schulzendorf (b Tegel),s-bahn,KBS 105,19561616_unified,,
Tegel,s-bahn,KBS 105,19561617_unified,,
Eichbornstr.,s-bahn,KBS 105,19561618_unified,,
Wittenau (Kremmener Bahn),s-bahn,KBS 105,19561619_unified,,
Reinickendorf,s-bahn,KBS 105,19561620_unified,,
Schönholz,s-bahn,KBS 105,19561621_unified,,
Wollankstr.,s-bahn,KBS 105,19561622_unified,,
Bornholmerstr.,s-bahn,KBS 105,19561623_unified,,
Gesundbrunnen,s-bahn,KBS 105,19561624_unified,,
Humboldthain,s-bahn,KBS 105,19561625_unified,,
Nordbahnhof,s-bahn,KBS 105,19561626_unified,,
Oranienburgerstr.,s-bahn,KBS 105,19561627_unified,,
Friedrichstr.,s-bahn,KBS 105,19561628_unified,,
Unter den Linden,s-bahn,KBS 105,19561629_unified,,
Potsdamerplatz,s-bahn,KBS 105,19561630_unified,,
Anhalter Bahnhof,s-bahn,KBS 105,19561631_unified,,
Yorckstr.,s-bahn,KBS 105,19561632_unified,,
Papestr.,s-bahn,KBS 105,19561633_unified,,
Priesterweg,s-bahn,KBS 105,19561634_unified,,
Mariendorf,s-bahn,KBS 105,19561635_unified,,
Marienfelde,s-bahn,KBS 105,19561636_unified,,
Buckower Ch.,s-bahn,KBS 105,19561637_unified,,
Lichtenrade,s-bahn,KBS 105,19561638_unified,,
Mahlow,s-bahn,KBS 105,19561639_unified,,
Blankenfelde (Kr. Zossen),s-bahn,KBS 105,19561640_unified,,
Dahlewitz,s-bahn,KBS 105,19561641_unified,,
Rangsdorf,s-bahn,KBS 105,19561642_unified,,
Bernau (b Bln),s-bahn,KBS 106,19561643_unified,,
Zepernick (Kr. Niederbarnim),s-bahn,KBS 106,19561644_unified,,
Röntgental,s-bahn,KBS 106,19561645_unified,,
Buch,s-bahn,KBS 106,19561646_unified,,
Karow,s-bahn,KBS 106,19561647_unified,,
Blankenburg,s-bahn,KBS 106,19561648_unified,,
Pankow-Heinersdorf,s-bahn,KBS 106,19561649_unified,,
Pankow,s-bahn,KBS 106,19561650_unified,,
Bornholmerstr.,s-bahn,KBS 106,19561651_unified,,
Gesundbrunnen,s-bahn,KBS 106,19561652_unified,,
Humboldthain,s-bahn,KBS 106,19561653_unified,,
Nordbahnhof,s-bahn,KBS 106,19561654_unified,,
Oranienburgerstr.,s-bahn,KBS 106,19561655_unified,,
Friedrichstr.,s-bahn,KBS 106,19561656_unified,,
Unter den Linden,s-bahn,KBS 106,19561657_unified,,
Potsdamerplatz,s-bahn,KBS 106,19561658_unified,,
Anhalter Bahnhof,s-bahn,KBS 106,19561659_unified,,
Yorckstr.,s-bahn,KBS 106,19561660_unified,,
Papestr.,s-bahn,KBS 106,19561661_unified,,
Priesterweg,s-bahn,KBS 106,19561662_unified,,
Südende,s-bahn,KBS 106,19561663_unified,,
Lankwitz,s-bahn,KBS 106,19561664_unified,,
Lichterfelde Ost,s-bahn,KBS 106,19561665_unified,,
Lichterfelde Süd,s-bahn,KBS 106,19561666_unified,,
Teltow,s-bahn,KBS 106,19561667_unified,,
Klosterstr.,omnibus,O30,19561668_unified,,
Andreasstr.,omnibus,O30,19561669_unified,,
Küstrinerplatz,omnibus,O30,19561670_unified,,
Warschauerstr.,omnibus,O30,19561671_unified,,
Neue Bahnhofstr.,omnibus,O30,19561672_unified,,
S-Bhf. Rummelsburg,omnibus,O30,19561673_unified,,
Münsterlandstr.,omnibus,O30,19561674_unified,,
Bhf. Lichtenberg,omnibus,O30,19561675_unified,,
Stalinallee,omnibus,O30,19561676_unified,,
"BVG-Bf. Lichtenberg, Siegfriedstr.",omnibus,O30,19561677_unified,,
Roederplatz,omnibus,O30,19561678_unified,,
Proskauer Ecke Dolzigerstr.,omnibus,O30,19561679_unified,,
Leninallee Ecke Dimitroffstr.,omnibus,O30,19561680_unified,,
Dimitroffstr. Ecke Greifswalderstr.,omnibus,O30,19561681_unified,,
Königstor,omnibus,O30,19561682_unified,,
U-Bhf. Alexanderplatz,omnibus,O30,19561683_unified,,
Bürknersfelde,omnibus,O37,19561684_unified,,
"Alt-Marzahn, Kirche",omnibus,O37,19561685_unified,,
Elisabethstr.,omnibus,O37,19561686_unified,,
Cecilienstr.,omnibus,O37,19561687_unified,,
S-Bhf. Biesdorf,omnibus,O37,19561688_unified,,
Schlossstr. Ecke Alt-Friedrichsfelde,omnibus,O37,19561689_unified,,
Bhf. Lichtenberg,omnibus,O37,19561690_unified,,
Ostbahnhof,omnibus,O40,19561691_unified,,
Küstrinerplatz,omnibus,O40,19561692_unified,,
Stalinallee,omnibus,O40,19561693_unified,,
Leninplatz,omnibus,O40,19561694_unified,,
Königstor,omnibus,O40,19561695_unified,,
Prenzlauer Tor,omnibus,O40,19561696_unified,,
Rosenthalerplatz,omnibus,O40,19561697_unified,,
Oranienburger Tor,omnibus,O40,19561698_unified,,
Robert-Koch-Platz,omnibus,O40,19561699_unified,,
Bürknersfelde,omnibus,O41,19561700_unified,,
Dingelstädterstr.,omnibus,O41,19561701_unified,,
Siegfriedstr.,omnibus,O41,19561702_unified,,
Weißenseerweg,omnibus,O41,19561703_unified,,
Oderbruchstr.,omnibus,O41,19561704_unified,,
Dimitroffstr.,omnibus,O41,19561705_unified,,
Kladow,ferry,Wannsee<>Kladow (Betrieb durch Stern und Kreisschiffahrt),19561706_unified,,
Wannsee,ferry,Wannsee<>Kladow (Betrieb durch Stern und Kreisschiffahrt),19561707_unified,,
Wendenschloß,ferry,Wendenschloß<>Grünau,19561708_unified,,
Grünau,ferry,Wendenschloß<>Grünau,19561709_unified,,
