stop_name,type,line_name,stop_id,location,identifier
"Glienicke, Kirche",autobus,7,19710_east,,
Elsässerstr.,autobus,7,19711_east,,
"Schildow, Kirche",autobus,7,19712_east,,
"Blankenfelde, Hauptstr.",autobus,7,19713_east,,
Industriebahn,autobus,7,19714_east,,
Nordend,autobus,7,19715_east,,
Kurt-Fischer-Platz,autobus,7,19716_east,,
"Pankow, Rathaus",autobus,7,19717_east,,
U-Bhf. Pankow,autobus,7,19718_east,,
Mahlsdorferallee,autobus,8,19719_east,,
Hultschinerdamm,autobus,8,197110_east,,
Sadowastr.,autobus,8,197111_east,,
Köpenickerstr.,autobus,8,197112_east,,
Oberfeldstr.,autobus,8,197113_east,,
Am Tierpark,autobus,8,197114_east,,
U-Bhf. Friedrichsfelde,autobus,8,197115_east,,
Kurischestr.,autobus,9,197116_east,,
Hufelandstr.,autobus,9,197117_east,,
Königstor,autobus,9,197118_east,,
Hans-Beimlerstr.,autobus,9,197119_east,,
Breitestr.,autobus,9,197120_east,,
Charlottenstr.,autobus,9,197121_east,,
Otto-Grotewohlstr.,autobus,9,197122_east,,
Arkonaplatz,autobus,16,197123_east,,
Brunnenstr.,autobus,16,197124_east,,
Rosenthalerplatz,autobus,16,197125_east,,
Alexanderplatz,autobus,16,197126_east,,
S-Bhf. Jannowitzbr.,autobus,16,197127_east,,
Annenstr.,autobus,16,197128_east,,
Adalbertstr.,autobus,16,197129_east,,
Adalbertstr.,autobus,18,197130_east,,
S-Bhf. Jannowitzbrücke,autobus,18,197131_east,,
Alexanderplatz,autobus,18,197132_east,,
Charlottenstr. Ecke Französischestr.,autobus,18,197133_east,,
Bhf. Friedrichstr.,autobus,18,197134_east,,
Schumannstr. Ecke Reinhardtstr.,autobus,18,197135_east,,
Robert-Koch-Platz,autobus,18,197136_east,,
"Hessenwinkel, Lutherstr.",autobus,22,197137_east,,
Fahlenbergstr.,autobus,22,197138_east,,
S-Bhf. Wilhelmshagen,autobus,22,197139_east,,
Zentralschule,autobus,22,197140_east,,
Waldschänke,autobus,22,197141_east,,
S-Bhf. Rahnsdorf,autobus,22,197142_east,,
Hamburgerstr.,autobus,22,197143_east,,
"Fichtenau, Post",autobus,22,197144_east,,
Falkenhöhe,autobus,23,197145_east,,
S-Bhf. Grünbergallee,autobus,23,197146_east,,
S-Bhf. Altglienicke,autobus,23,197147_east,,
Wolfmarsteig,autobus,23,197148_east,,
Schönefelderchaussee,autobus,23,197149_east,,
"Altglienicke, Kirche",autobus,23,197150_east,,
Kanalbrücke,autobus,23,197151_east,,
VEB Bautransporte,autobus,26,197152_east,,
Bhf. Schöneweide,autobus,26,197153_east,,
S-Bhf. Kaulsdorf,autobus,27,197154_east,,
Chemnitzerstr.,autobus,27,197155_east,,
Jägerstr.,autobus,27,197156_east,,
Gehsenerstr.,autobus,27,197157_east,,
S-Bhf. Köpenick,autobus,27,197158_east,,
Lindenstr. Ecke Bahnhofstr.,autobus,27,197159_east,,
Schloßplatz,autobus,27,197160_east,,
Wendenschloßstr.,autobus,27,197161_east,,
"Krankenhaus, Köpenick",autobus,27,197162_east,,
Müggelturm,autobus,27,197163_east,,
Müggelheim,autobus,27,197164_east,,
Chemnitzerstr.,autobus,27E,197165_east,,
Jägerstr.,autobus,27E,197166_east,,
S-Bhf. Köpenick,autobus,27E,197167_east,,
Lindenstr. Ecke Bahnhofstr.,autobus,27E,197168_east,,
Schloßplatz,autobus,27E,197169_east,,
"Krankenhaus, Köpenick",autobus,27E,197170_east,,
Müggelturm,autobus,27E,197171_east,,
Müggelheim,autobus,27E,197172_east,,
Ostbahnhof,autobus,30,197173_east,,
Warschauerstr.,autobus,30,197174_east,,
Holteistr.,autobus,30,197175_east,,
S-Bhf. Rummelsburg,autobus,30,197176_east,,
Schlichtallee,autobus,30,197177_east,,
Bhf. Lichtenberg,autobus,30,197178_east,,
Obus-Betriebshof,autobus,30,197179_east,,
VEB Elektrokohle,autobus,30,197180_east,,
Roederplatz,autobus,30,197181_east,,
Leninallee Ecke Greifswalderstr.,autobus,30,197182_east,,
Dimitroffstr.,autobus,30,197183_east,,
U-Bhf. Luxemburgplatz,autobus,30,197184_east,,
Rosenthalerplatz,autobus,30,197185_east,,
Robert-Koch-Platz,autobus,30,197186_east,,
S-Bhf. Buch,autobus,31,197187_east,,
Karowerstr.,autobus,31,197188_east,,
Alt-Karow,autobus,31,197189_east,,
Blankenburg,autobus,31,197190_east,,
"Heinersdorf, Kirche",autobus,31,197191_east,,
Prenzlauer Promenade,autobus,31,197192_east,,
Ostseestr.,autobus,31,197193_east,,
Hans-Beimlerstr.,autobus,32,197194_east,,
Leninplatz,autobus,32,197195_east,,
Karl-Marx-Allee,autobus,32,197196_east,,
Ostbahnhof,autobus,32,197197_east,,
S-Bhf. Jannowitzbrücke,autobus,32,197198_east,,
Spittelmarkt,autobus,32,197199_east,,
U-Bhf. Thälmannplatz,autobus,32,1971100_east,,
Alt-Stralau,autobus,34,1971101_east,,
Friedrich-Jungestr.,autobus,34,1971102_east,,
Corinthstr.,autobus,34,1971103_east,,
Modersohnstr.,autobus,34,1971104_east,,
Warschauerstr.,autobus,34,1971105_east,,
Grünbergerstr.,autobus,34,1971106_east,,
U-Bhf. Marchlewskistr.,autobus,34,1971107_east,,
Pirolstr.,autobus,35,1971108_east,,
Dohlengrund,autobus,35,1971109_east,,
Oberfeldstr.,autobus,35,1971110_east,,
Am Tierpark,autobus,35,1971111_east,,
U-Bhf. Friedrichsfelde,autobus,35,1971112_east,,
Lincolnstr.,autobus,35,1971113_east,,
S-Bhf. Nöldnerplatz,autobus,35,1971114_east,,
Zentralflughafen,autobus,36,1971115_east,,
Bhf. Schönefeld,autobus,36,1971116_east,,
S-Bhf. Grünbergallee,autobus,36,1971117_east,,
"Bohnsdorf, Kirche",autobus,36,1971118_east,,
Gartenstadtweg,autobus,36,1971119_east,,
S-Bhf. Grünau,autobus,36,1971120_east,,
Bhf. Lichtenberg,autobus,37,1971121_east,,
Am Tierpark,autobus,37,1971122_east,,
S-Bhf. Biesdorf,autobus,37,1971123_east,,
Boschpolerstr.,autobus,37,1971124_east,,
Alt-Marzahn,autobus,37,1971125_east,,
Marzahnerchaussee,autobus,37,1971126_east,,
Bürknersfelde,autobus,37,1971127_east,,
Dingelstädterstr.,autobus,37,1971128_east,,
Weißenseerweg,autobus,37,1971129_east,,
S-Bhf. Leninallee,autobus,37,1971130_east,,
Dimitroffstr. (Cotheniusstr.),autobus,37,1971131_east,,
"Wartenberg, Siedlung",autobus,39,1971132_east,,
Lindenbergerstr.,autobus,39,1971133_east,,
Falkenbergerchaussee,autobus,39,1971134_east,,
Falkenbergerstr.,autobus,39,1971135_east,,
Ostbahnhof,autobus,40,1971136_east,,
Karl-Marx-Allee,autobus,40,1971137_east,,
Leninplatz,autobus,40,1971138_east,,
U-Bhf. Luxemburgplatz,autobus,40,1971139_east,,
Rosenthalerplatz,autobus,40,1971140_east,,
Robert-Koch-Platz,autobus,40,1971141_east,,
Buch,autobus,42,1971142_east,,
Karowerstr.,autobus,42,1971143_east,,
Alt-Karow,autobus,42,1971144_east,,
Blankenburg,autobus,42,1971145_east,,
"Heinersdorf, Kirche",autobus,42,1971146_east,,
Prenzlauer Promenade,autobus,42,1971147_east,,
Ostseestr.,autobus,42,1971148_east,,
"Marzahnerchaussee, Springpfuhl",autobus,43,1971149_east,,
Stadtberg,autobus,43,1971150_east,,
Dingelstädterstr.,autobus,43,1971151_east,,
S-Bhf. Friedrichsf.-Ost,autobus,43,1971152_east,,
Am Tierpark,autobus,43,1971153_east,,
U-Bhf. Friedrichsf.,autobus,43,1971154_east,,
S-Bhf. Nöldnerplatz,autobus,43,1971155_east,,
"Hönow, Dorfstr.",autobus,44,1971156_east,,
Greifswalderstr.,autobus,44,1971157_east,,
S-Bhf. Mahlsdorf,autobus,44,1971158_east,,
"Wilhelmsruh, Schillerstr.",autobus,45,1971159_east,,
Hauptstr. Ecke Edelweißstr.,autobus,45,1971160_east,,
Heinrich-Mann-Platz,autobus,45,1971161_east,,
"Pankow, Rathaus",autobus,45,1971162_east,,
"Pankow, Kirche",autobus,45,1971163_east,,
Prenzlauer Promenade Ecke Kissingenstr.,autobus,45,1971164_east,,
Am Steinberg,autobus,45,1971165_east,,
Hamburgerplatz,autobus,45,1971166_east,,
Lichtenbergerstr. Ecke Klement-Gottwald-Allee,autobus,45,1971167_east,,
Klement-Gottwald-Allee Ecke Rennbahnstr.,autobus,45,1971168_east,,
"Weißensee, Schwarzelfenweg",autobus,45,1971169_east,,
Bhf. Schöneweide,autobus,47,1971170_east,,
Johannisthalerchaussee,autobus,47,1971171_east,,
S-Bhf. Baumschulenweg,autobus,47,1971172_east,,
"Treptow, Rathaus",autobus,47,1971173_east,,
Sowjetisches Ehrenmal,autobus,47,1971174_east,,
S-Bhf. Treptower Park,autobus,47,1971175_east,,
"Treptow, Eichenstr.",autobus,47,1971176_east,,
Bhf. Schöneweide,autobus,48,1971177_east,,
Lindhorstweg,autobus,48,1971178_east,,
Stubenrauchstr.,autobus,48,1971179_east,,
"Bhf. Kaulsdorf, Bausdorfstr.",autobus,49,1971180_east,,
Wernerbad,autobus,49,1971181_east,,
Grottkauerstr.,autobus,49,1971182_east,,
"Niederschönhausen, Rolandstr.",autobus,50,1971183_east,,
Kurt-Fischer-Platz,autobus,50,1971184_east,,
Bürgerpark,autobus,50,1971185_east,,
Mühlenstr. Ecke Florastr.,autobus,50,1971186_east,,
U-Bhf. Pankow (Vinetastr.),autobus,50,1971187_east,,
"Pankow, Achtermannstr.",autobus,52,1971188_east,,
Galenusstr.,autobus,52,1971189_east,,
Prenzlauerchaussee,autobus,52,1971190_east,,
Granitzstr.,autobus,52,1971191_east,,
Kissingenstr.,autobus,52,1971192_east,,
U-Bhf. Pankow,autobus,52,1971193_east,,
"Hohenschönhausen, Marzahnerstr.",autobus,53,1971194_east,,
Landsbergerchaussee,autobus,53,1971195_east,,
Marzahnerchaussee,autobus,53,1971196_east,,
S-Bhf. Friedrichsfelde Ost,autobus,53,1971197_east,,
Alt-Friedrichsfelde,autobus,53,1971198_east,,
U-Bhf. Friedrichsfelde,autobus,53,1971199_east,,
"Wilhelmsruhe, Fontanestr.",autobus,55,1971200_east,,
Edelweißstr.,autobus,55,1971201_east,,
Bürgerpark,autobus,55,1971202_east,,
"Pankow, Rathaus",autobus,55,1971203_east,,
"Pankow, Kirche",autobus,55,1971204_east,,
Prenzlauer Promenade,autobus,55,1971205_east,,
"Heinersdorf, Kirche",autobus,55,1971206_east,,
Pasedagplatz,autobus,55,1971207_east,,
Liebermannstr.,autobus,55,1971208_east,,
Piesporterstr.,autobus,55,1971209_east,,
"Weißensee, Nüßlerstr.",autobus,56,1971210_east,,
Gehringstr. Ecke Gustav-Adolfstr.,autobus,56,1971211_east,,
Hamburgerplatz,autobus,56,1971212_east,,
Grellstr.,autobus,56,1971213_east,,
Hosemannstr.,autobus,56,1971214_east,,
Ostseeplatz,autobus,56,1971215_east,,
Greifswalderstr.,autobus,56,1971216_east,,
Funk- W.fernmeld,autobus,56,1971217_east,,
S-Bhf. Leninallee,autobus,56,1971218_east,,
Dimitroffstr.,autobus,56,1971219_east,,
Kniprodestr.,autobus,57,1971220_east,,
Königstor,autobus,57,1971221_east,,
Alexanderplatz,autobus,57,1971222_east,,
Marx-Engels-Platz,autobus,57,1971223_east,,
Bhf. Friedrichstr.,autobus,57,1971224_east,,
Oranienburger Tor,autobus,57,1971225_east,,
Platz vor dem Neuen Tor,autobus,57,1971226_east,,
Scharnhorststr.,autobus,57,1971227_east,,
Fontanestr.,autobus,58,1971228_east,,
Hauptstr.,autobus,58,1971229_east,,
Heinrich-Mann-Platz,autobus,58,1971230_east,,
"Pankow, Rathaus",autobus,58,1971231_east,,
"Pankow, Kirche",autobus,58,1971232_east,,
S-Bhf. Pankow,autobus,58,1971233_east,,
U-Bhf. Pankow (Vinetastr.),autobus,58,1971234_east,,
Walther-Ulbricht-Stadion,autobus,59,1971235_east,,
Oranienburger Tor,autobus,59,1971236_east,,
Bhf. Friedrichstr.,autobus,59,1971237_east,,
U-Bhf. Stadtmitte,autobus,59,1971238_east,,
U-Bhf. Thälmannplatz,autobus,59,1971239_east,,
Oberspree,autobus,65,1971240_east,,
Britzerstr.,autobus,65,1971241_east,,
Bhf. Schöneweide,autobus,65,1971242_east,,
VEB Autotrans,autobus,65,1971243_east,,
S-Bhf. Mahlsdorf,autobus,44E,1971244_east,,
Am Rosenhag,autobus,44E,1971245_east,,
Hönowerstr. Ecke Greifswalderstr.,autobus,44E,1971246_east,,
S-Bhf. Buch,autobus,51/B,1971247_east,,
Karowerstr.,autobus,51/B,1971248_east,,
Akademie der Wissenschaften,autobus,51/B,1971249_east,,
Diepensee,autobus,D/38,1971250_east,,
Mitschurinweg,autobus,D/38,1971251_east,,
Kienberg,autobus,D/38,1971252_east,,
Waltersdorf,autobus,D/38,1971253_east,,
"Bohnsdorf, Waldstr.",autobus,D/38,1971254_east,,
"Ahrensfeld, Kirche",autobus,L/41,1971255_east,,
LPG Falkenberg,autobus,L/41,1971256_east,,
Malchowerweg,autobus,L/41,1971257_east,,
Buschallee Ecke Klement-Gottwald-Allee,autobus,L/41,1971258_east,,
Rennbahnstr.,autobus,L/41,1971259_east,,
Feldtmannstr.,autobus,L/41,1971260_east,,
"Malchow, Dorfstr.",autobus,L/41,1971261_east,,
Wilhelmstrand,ferry,291,1971262_east,,
Baumschulenweg,ferry,291,1971263_east,,
Wendenschloß,ferry,292,1971264_east,,
Grünau,ferry,292,1971265_east,,
Schmöckwitz,ferry,293,1971266_east,,
Große Krampe,ferry,293,1971267_east,,
Krampenburg,ferry,293,1971268_east,,
Rahnsdorf,ferry,294,1971269_east,,
Müggelhort,ferry,294,1971270_east,,
Müggelheim,ferry,295,1971271_east,,
Rahnsdorf,ferry,295,1971272_east,,
Friedrichstr.,s-bahn,KBS 100,1971273_east,,
Marx-Engels-Platz,s-bahn,KBS 100,1971274_east,,
Alexanderplatz,s-bahn,KBS 100,1971275_east,,
Jannowitzbrücke,s-bahn,KBS 100,1971276_east,,
Ostbahnhof,s-bahn,KBS 100,1971277_east,,
Warschauerstr.,s-bahn,KBS 100,1971278_east,,
Ostkreuz,s-bahn,KBS 100,1971279_east,,
Nöldnerplatz,s-bahn,KBS 100,1971280_east,,
Lichtenberg,s-bahn,KBS 100,1971281_east,,
Friedrichsfelde Ost,s-bahn,KBS 100,1971282_east,,
Biesdorf,s-bahn,KBS 100,1971283_east,,
Kaulsdorf,s-bahn,KBS 100,1971284_east,,
Mahlsdorf,s-bahn,KBS 100,1971285_east,,
Hoppegarten (Mark),s-bahn,KBS 100,1971286_east,,
Neuenhagen (b Bln),s-bahn,KBS 100,1971287_east,,
Fredersdorf (b Bln),s-bahn,KBS 100,1971288_east,,
Petershagen Nord,s-bahn,KBS 100,1971289_east,,
Strausberg,s-bahn,KBS 100,1971290_east,,
Strausberg Stadt,s-bahn,KBS 100,1971291_east,,
Strausberg Nord,s-bahn,KBS 100,1971292_east,,
Friedrichstr.,s-bahn,KBS 105,1971293_east,,
Marx-Engels-Platz,s-bahn,KBS 105,1971294_east,,
Alexanderplatz,s-bahn,KBS 105,1971295_east,,
Jannowitzbrücke,s-bahn,KBS 105,1971296_east,,
Ostbahnhof,s-bahn,KBS 105,1971297_east,,
Warschauerstr.,s-bahn,KBS 105,1971298_east,,
Ostkreuz,s-bahn,KBS 105,1971299_east,,
Rummelsburg,s-bahn,KBS 105,1971300_east,,
Betriebsbhf. Rummelsburg,s-bahn,KBS 105,1971301_east,,
Karlshorst,s-bahn,KBS 105,1971302_east,,
Wuhlheide,s-bahn,KBS 105,1971303_east,,
Köpenick,s-bahn,KBS 105,1971304_east,,
Hirschgarten,s-bahn,KBS 105,1971305_east,,
Friedrichshagen,s-bahn,KBS 105,1971306_east,,
Rahnsdorf,s-bahn,KBS 105,1971307_east,,
Wilhelmshagen,s-bahn,KBS 105,1971308_east,,
Erkner,s-bahn,KBS 105,1971309_east,,
Friedrichstr.,s-bahn,KBS 110,1971310_east,,
Marx-Engels-Platz,s-bahn,KBS 110,1971311_east,,
Alexanderplatz,s-bahn,KBS 110,1971312_east,,
Jannowitzbrücke,s-bahn,KBS 110,1971313_east,,
Ostbahnhof,s-bahn,KBS 110,1971314_east,,
Warschauerstr. (< Ostkreuz),s-bahn,KBS 110,1971315_east,,
Treptower Park,s-bahn,KBS 110,1971316_east,,
Plänterwald,s-bahn,KBS 110,1971317_east,,
Baumschulenweg,s-bahn,KBS 110,1971318_east,,
Schöneweide,s-bahn,KBS 110,1971319_east,,
Betriebsbhf. Schöneweide,s-bahn,KBS 110,1971320_east,,
Adlershof,s-bahn,KBS 110,1971321_east,,
Grünau,s-bahn,KBS 110,1971322_east,,
Eichwalde,s-bahn,KBS 110,1971323_east,,
Zeuthen,s-bahn,KBS 110,1971324_east,,
Wildau,s-bahn,KBS 110,1971325_east,,
Königs Wusterhausen,s-bahn,KBS 110,1971326_east,,
Friedrichstr.,s-bahn,KBS 115,1971327_east,,
Marx-Engels-Platz,s-bahn,KBS 115,1971328_east,,
Alexanderplatz,s-bahn,KBS 115,1971329_east,,
Jannowitzbrücke,s-bahn,KBS 115,1971330_east,,
Ostbahnhof,s-bahn,KBS 115,1971331_east,,
Warschauerstr. (< Ostkreuz),s-bahn,KBS 115,1971332_east,,
Treptower Park,s-bahn,KBS 115,1971333_east,,
Plänterwald,s-bahn,KBS 115,1971334_east,,
Baumschulenweg,s-bahn,KBS 115,1971335_east,,
Schöneweide,s-bahn,KBS 115,1971336_east,,
Betriebsbhf. Schöneweide,s-bahn,KBS 115,1971337_east,,
Adlershof,s-bahn,KBS 115,1971338_east,,
Altglienicke,s-bahn,KBS 115,1971339_east,,
Grünbergallee,s-bahn,KBS 115,1971340_east,,
Zentralflughafen Berlin-Schönefeld,s-bahn,KBS 115,1971341_east,,
Hennigsdorf (b Bln),s-bahn,KBS 135,1971342_east,,
Hennigsdorf Nord,s-bahn,KBS 135,1971343_east,,
Hohenschöpping,s-bahn,KBS 135,1971344_east,,
Velten (Mark),s-bahn,KBS 135,1971345_east,,
Oranienburg,s-bahn,KBS 140,1971346_east,,
Lehnitz,s-bahn,KBS 140,1971347_east,,
Borgsdorf,s-bahn,KBS 140,1971348_east,,
Birkenwerder,s-bahn,KBS 140,1971349_east,,
Hohen Neuendorf (b Bln),s-bahn,KBS 140,1971350_east,,
Bergfelde (b Bln),s-bahn,KBS 140,1971351_east,,
Schönfließ,s-bahn,KBS 140,1971352_east,,
Blankenburg,s-bahn,KBS 140,1971353_east,,
Pankow-Heinersdorf,s-bahn,KBS 140,1971354_east,,
Pankow,s-bahn,KBS 140,1971355_east,,
Schönhauserallee,s-bahn,KBS 140,1971356_east,,
Prenzlauerallee,s-bahn,KBS 140,1971357_east,,
Greifswalderstr.,s-bahn,KBS 140,1971358_east,,
Leninallee,s-bahn,KBS 140,1971359_east,,
Zentralviehhof,s-bahn,KBS 140,1971360_east,,
Frankfurterallee,s-bahn,KBS 140,1971361_east,,
Ostkreuz,s-bahn,KBS 140,1971362_east,,
Treptower Park,s-bahn,KBS 140,1971363_east,,
Plänterwald,s-bahn,KBS 140,1971364_east,,
Baumschulenweg,s-bahn,KBS 140,1971365_east,,
Schöneweide,s-bahn,KBS 140,1971366_east,,
Betriebsbhf. Schöneweide,s-bahn,KBS 140,1971367_east,,
Adlershof,s-bahn,KBS 140,1971368_east,,
Altglienicke,s-bahn,KBS 140,1971369_east,,
Grünbergallee,s-bahn,KBS 140,1971370_east,,
Zentralflughafen Berlin-Schönefeld,s-bahn,KBS 140,1971371_east,,
Bernau (b Bln),s-bahn,KBS 141,1971372_east,,
Zepernick (b Bernau),s-bahn,KBS 141,1971373_east,,
Röntgental,s-bahn,KBS 141,1971374_east,,
Buch,s-bahn,KBS 141,1971375_east,,
Karow,s-bahn,KBS 141,1971376_east,,
Blankenburg,s-bahn,KBS 141,1971377_east,,
Pankow-Heinersdorf,s-bahn,KBS 141,1971378_east,,
Pankow,s-bahn,KBS 141,1971379_east,,
Schönhauserallee,s-bahn,KBS 141,1971380_east,,
Prenzlauerallee,s-bahn,KBS 141,1971381_east,,
Greifswalderstr.,s-bahn,KBS 141,1971382_east,,
Leninallee,s-bahn,KBS 141,1971383_east,,
Zentralviehhof,s-bahn,KBS 141,1971384_east,,
Frankfurterallee,s-bahn,KBS 141,1971385_east,,
Ostkreuz,s-bahn,KBS 141,1971386_east,,
Treptower Park,s-bahn,KBS 141,1971387_east,,
Plänterwald,s-bahn,KBS 141,1971388_east,,
Baumschulenweg,s-bahn,KBS 141,1971389_east,,
Schöneweide,s-bahn,KBS 141,1971390_east,,
Betriebsbhf. Schöneweide,s-bahn,KBS 141,1971391_east,,
Adlershof,s-bahn,KBS 141,1971392_east,,
Grünau,s-bahn,KBS 141,1971393_east,,
Eichwalde,s-bahn,KBS 141,1971394_east,,
Zeuthen,s-bahn,KBS 141,1971395_east,,
Blankenburg,s-bahn,KBS 142,1971396_east,,
Pankow-Heinersdorf,s-bahn,KBS 142,1971397_east,,
Pankow,s-bahn,KBS 142,1971398_east,,
Schönhauserallee,s-bahn,KBS 142,1971399_east,,
Prenzlauerallee,s-bahn,KBS 142,1971400_east,,
Greifswalderstr.,s-bahn,KBS 142,1971401_east,,
Leninallee,s-bahn,KBS 142,1971402_east,,
Zentralviehhof,s-bahn,KBS 142,1971403_east,,
Frankfurterallee,s-bahn,KBS 142,1971404_east,,
Ostkreuz,s-bahn,KBS 142,1971405_east,,
Treptower Park,s-bahn,KBS 142,1971406_east,,
Plänterwald,s-bahn,KBS 142,1971407_east,,
Baumschulenweg,s-bahn,KBS 142,1971408_east,,
Schöneweide,s-bahn,KBS 142,1971409_east,,
Oberspree,s-bahn,KBS 142,1971410_east,,
Spindlersfeld,s-bahn,KBS 142,1971411_east,,
Alexanderplatz,s-bahn,KBS 143,1971412_east,,
Jannowitzbrücke,s-bahn,KBS 143,1971413_east,,
Ostbahnhof,s-bahn,KBS 143,1971414_east,,
Warschauerstr. (> Ostkreuz),s-bahn,KBS 143,1971415_east,,
Frankfurterallee,s-bahn,KBS 143,1971416_east,,
Zentralviehhof,s-bahn,KBS 143,1971417_east,,
Leninallee,s-bahn,KBS 143,1971418_east,,
Greifswalderstr.,s-bahn,KBS 143,1971419_east,,
Prenzlauerallee,s-bahn,KBS 143,1971420_east,,
Schönhauserallee,s-bahn,KBS 143,1971421_east,,
Pankow,s-bahn,KBS 143,1971422_east,,
Pankow-Heinersdorf,s-bahn,KBS 143,1971423_east,,
Blankenburg,s-bahn,KBS 143,1971424_east,,
Björnsonstr.,tram,3,1971425_east,,
Schönhauserallee,tram,3,1971426_east,,
Stahlheimerstr.,tram,3,1971427_east,,
Prenzlauer Promenade,tram,3,1971428_east,,
Antonplatz,tram,3,1971429_east,,
Lichtenbergerstr.,tram,3,1971430_east,,
Omnibus Betriebshof,tram,3,1971431_east,,
Hohenschönhauserstr.,tram,3,1971432_east,,
Landsberger Ch.,tram,3,1971433_east,,
Roederplatz,tram,3,1971434_east,,
Josef-Orloppstr.,tram,3,1971435_east,,
Frankfurterallee,tram,3,1971436_east,,
Holteistr. Ecke Boxhagenerstr.,tram,3,1971437_east,,
Warschauerstr.,tram,3,1971438_east,,
Revalerstr.,tram,3,1971439_east,,
Eberswalderstr. Ecke Oderbergerstr.,tram,4,1971440_east,,
U-Bhf. Dimitroffstr.,tram,4,1971441_east,,
Prenzlauerallee,tram,4,1971442_east,,
Greifswalderstr.,tram,4,1971443_east,,
Arnswalderplatz,tram,4,1971444_east,,
Kniprodestr.,tram,4,1971445_east,,
Leninallee,tram,4,1971446_east,,
Frankfurter Tor,tram,4,1971447_east,,
Grünbergerstr.,tram,4,1971448_east,,
Revalerstr.,tram,4,1971449_east,,
Oderbergerstr. Ecke Eberswalderstr.,tram,13,1971450_east,,
U-Bhf. Dimitroffstr.,tram,13,1971451_east,,
Prenzlauerallee,tram,13,1971452_east,,
Greifswalderstr.,tram,13,1971453_east,,
Arnswalderplatz,tram,13,1971454_east,,
Kniprodestr.,tram,13,1971455_east,,
Leninallee,tram,13,1971456_east,,
Frankfurter Tor,tram,13,1971457_east,,
Holteistr. Ecke Boxhagenerstr.,tram,13,1971458_east,,
Hauptstr.,tram,13,1971459_east,,
Kraftwerk Klingenberg,tram,13,1971460_east,,
Hönower Wiesenweg Ecke Blockdammweg,tram,13,1971461_east,,
Haeckelstr.,tram,17,1971462_east,,
Bhf. Schöneweide,tram,17,1971463_east,,
Wilhelminenhofstr.,tram,17,1971464_east,,
Bhf. Karlshorst,tram,17,1971465_east,,
Hochschule für Ökonomie,tram,17,1971466_east,,
Tierpark Berlin,tram,17,1971467_east,,
Bhf. Lichtenberg,tram,17,1971468_east,,
Strab.-Betriebshof,tram,17,1971469_east,,
VEB Elektrokohle,tram,17,1971470_east,,
Roederplatz,tram,17,1971471_east,,
S-Bhf. Leninallee,tram,17,1971472_east,,
Dimitroffstr.,tram,17,1971473_east,,
Kniprodestr.,tram,17,1971474_east,,
Mahlsdorferstr.,tram,19,1971475_east,,
S-Bhf. Köpenick,tram,19,1971476_east,,
Hegelschule,tram,19,1971477_east,,
Pionierpark,tram,19,1971478_east,,
Edisonstr.,tram,19,1971479_east,,
Bhf. Karlshorst,tram,19,1971480_east,,
Hochschule für Ökonomie,tram,19,1971481_east,,
Tierpark Berlin,tram,19,1971482_east,,
Bhf. Lichtenberg,tram,19,1971483_east,,
Strab.-Betriebshof,tram,19,1971484_east,,
VEB Elektrokohle,tram,19,1971485_east,,
Roederplatz,tram,19,1971486_east,,
S-Bhf. Leninallee,tram,19,1971487_east,,
Dimitroffstr.,tram,19,1971488_east,,
Kniprodestr.,tram,19,1971489_east,,
S-Bhf. Ostkreuz,tram,21,1971490_east,,
Kraftwerk Klingenberg,tram,21,1971491_east,,
"Hönow, Wiesenweg",tram,21,1971492_east,,
Hermann-Dunckerstr.,tram,21,1971493_east,,
Wilhelminenhofstr.,tram,21,1971494_east,,
Bhf. Schöneweide,tram,21,1971495_east,,
Kali-Chemie,tram,21,1971496_east,,
S-Bhf. Baumschulenweg,tram,21,1971497_east,,
Hauptstr.,tram,22,1971498_east,,
Nordendstr.,tram,22,1971499_east,,
Kurt-Fischer-Platz,tram,22,1971500_east,,
"Pankow, Rathaus",tram,22,1971501_east,,
"Pankow, Kirche",tram,22,1971502_east,,
U-Bhf. Pankow,tram,22,1971503_east,,
S-Bhf. Schönhauserallee,tram,22,1971504_east,,
U-Bhf. Dimitroffstr.,tram,22,1971505_east,,
Brunnenstr.,tram,22,1971506_east,,
Oranienburgerstr.,tram,22,1971507_east,,
Bhf. Friedrichstr.,tram,22,1971508_east,,
Am Kupfergraben,tram,22,1971509_east,,
Nordend,tram,46,1971510_east,,
Kurt-Fischer-Platz,tram,46,1971511_east,,
"Pankow, Rathaus",tram,46,1971512_east,,
"Pankow, Kirche",tram,46,1971513_east,,
U-Bhf. Pankow,tram,46,1971514_east,,
S-Bhf. Schönhauserallee,tram,46,1971515_east,,
Vinetastr.,tram,46,1971516_east,,
U-Bhf. Dimitroffstr.,tram,46,1971517_east,,
Brunnenstr.,tram,46,1971518_east,,
Oranienburger Tor,tram,46,1971519_east,,
Bhf. Friedrichstr.,tram,46,1971520_east,,
Am Kupfergraben,tram,46,1971521_east,,
Hauptstr.,tram,49,1971522_east,,
Rosenthalerstr.,tram,49,1971523_east,,
Galenusstr.,tram,49,1971524_east,,
S-Bhf. Pankow-Heinersdorf,tram,49,1971525_east,,
"Pankow, Kirche",tram,49,1971526_east,,
U-Bhf- Pankow,tram,49,1971527_east,,
S-Bhf. Schönhauserallee,tram,49,1971528_east,,
U-Bhf. Dimitroffstr.,tram,49,1971529_east,,
Rosenthalerplatz,tram,49,1971530_east,,
Hackescher Markt,tram,49,1971531_east,,
"Hohenschönhausen, Gartenstadt",tram,63,1971532_east,,
Falkenbergerstr. Ecke Wartenbergerstr.,tram,63,1971533_east,,
Suermondtstr.,tram,63,1971534_east,,
Oberseestr.,tram,63,1971535_east,,
Weißenseerweg,tram,63,1971536_east,,
S-Bhf. Leninallee,tram,63,1971537_east,,
Dimitroffstr.,tram,63,1971538_east,,
Leninplatz,tram,63,1971539_east,,
Prenzlauer Tor,tram,63,1971540_east,,
U-Bhf. Luxemburgplatz,tram,63,1971541_east,,
Hackescher Markt,tram,63,1971542_east,,
Oranienburger Tor,tram,63,1971543_east,,
Walter-Ulbricht-Stadion,tram,63,1971544_east,,
"Johannisthal, Haeckelstr.",tram,69,1971545_east,,
Bhf. Schöneweide,tram,69,1971546_east,,
Wilhelminenhofstr.,tram,69,1971547_east,,
S-Bhf. Karlshorst,tram,69,1971548_east,,
Hochschule für Ökonomie,tram,69,1971549_east,,
Tierpark Berlin,tram,69,1971550_east,,
Alt-Friedrichsfelde Ecke Am Tierpark,tram,69,1971551_east,,
Bhf. Lichtenberg,tram,69,1971552_east,,
Strab. Bhf. Siegfriedstr.,tram,69,1971553_east,,
Herzbergstr.,tram,69,1971554_east,,
Roederplatz,tram,69,1971555_east,,
Steuerhaus,tram,69,1971556_east,,
Dimitroffstr.,tram,69,1971557_east,,
Leninplatz,tram,69,1971558_east,,
"Alexanderplatz, Memhardstr.",tram,69,1971559_east,,
Hackescher Markt,tram,69,1971560_east,,
Oranienburger Tor,tram,69,1971561_east,,
Walter-Ulbricht-Stadion,tram,69,1971562_east,,
"Hohenschönhausen, Falkenbergerstr.",tram,70,1971563_east,,
Berlinerstr. Ecke Suermondtstr.,tram,70,1971564_east,,
Stadion Buschallee,tram,70,1971565_east,,
Kniprodeallee,tram,70,1971566_east,,
Buschallee Ecke Klement-Gottwald-Allee,tram,70,1971567_east,,
Lichtenbergerstr.,tram,70,1971568_east,,
Antonplatz,tram,70,1971569_east,,
Prenzlauer Promenade,tram,70,1971570_east,,
Humannplatz,tram,70,1971571_east,,
U-Bhf. Dimitroffstr.,tram,70,1971572_east,,
Brunnenstr.,tram,70,1971573_east,,
Chausseestr.,tram,70,1971574_east,,
Oranienburger Tor,tram,70,1971575_east,,
Bhf. Friedrichstr.,tram,70,1971576_east,,
Am Kupfergraben,tram,70,1971577_east,,
"Romain-Rollandstr., Heinersdorf",tram,71,1971578_east,,
"Heinersdorf, Kirche",tram,71,1971579_east,,
Grüne Wiese,tram,71,1971580_east,,
Prenzlauer Promenade,tram,71,1971581_east,,
S-Bhf. Prenzlauerallee,tram,71,1971582_east,,
Dimitroffstr.,tram,71,1971583_east,,
Knaackstr.,tram,71,1971584_east,,
Wilhelm-Piekstr.,tram,71,1971585_east,,
U-Bhf. Luxemburgplatz,tram,71,1971586_east,,
Hackescher Markt,tram,71,1971587_east,,
Oranienburger Tor,tram,71,1971588_east,,
Am Kupfergraben,tram,71,1971589_east,,
"Weißensee, Pasedagplatz",tram,72,1971590_east,,
Buschallee,tram,72,1971591_east,,
Antonplatz,tram,72,1971592_east,,
Prenzlauer Promenade,tram,72,1971593_east,,
S-Bhf. Prenzlauerallee,tram,72,1971594_east,,
Dimitroffstr.,tram,72,1971595_east,,
Knaackstr.,tram,72,1971596_east,,
Wilhelm-Piekstr.,tram,72,1971597_east,,
U-Bhf. Luxemburgplatz,tram,72,1971598_east,,
Hackescher Markt,tram,72,1971599_east,,
"Weißensee, Pasedagplatz",tram,73,1971600_east,,
Buschallee,tram,73,1971601_east,,
Antonplatz,tram,73,1971602_east,,
S-Bhf. Greifswalderstr.,tram,73,1971603_east,,
Dimitroffstr.,tram,73,1971604_east,,
U-Bhf. Luxemburgplatz,tram,73,1971605_east,,
Hackescher Markt,tram,73,1971606_east,,
Oranienburger Tor,tram,73,1971607_east,,
Walter-Ulbricht-Stadion über Greifswalderstr.,tram,73,1971608_east,,
"Wießensee, Bernkastelerstr.",tram,74,1971609_east,,
Buschallee,tram,74,1971610_east,,
Antonplatz,tram,74,1971611_east,,
S-Bhf. Greifswalderstr.,tram,74,1971612_east,,
Dimitroffstr.,tram,74,1971613_east,,
Mollstr. Ecke Hans-Beimlerstr.,tram,74,1971614_east,,
Leninplatz,tram,74,1971615_east,,
Bersarinstr.,tram,74,1971616_east,,
S-Bhf. Leninallee,tram,74,1971617_east,,
Weißenseerweg,tram,74,1971618_east,,
Hauptstr.,tram,74,1971619_east,,
Falkenbergerstr.,tram,74,1971620_east,,
Bernkastelerstr.,tram,75,1971621_east,,
Buschallee,tram,75,1971622_east,,
Antonplatz,tram,75,1971623_east,,
S-Bhf. Greifswalderstr.,tram,75,1971624_east,,
Dimitroffstr.,tram,75,1971625_east,,
Mollstr.,tram,75,1971626_east,,
U-Bhf. Luxemburgplatz,tram,75,1971627_east,,
Hackescher Markt,tram,75,1971628_east,,
"Mahlsdorf-Süd, Hubertus",tram,82,1971629_east,,
Uhlenhorst,tram,82,1971630_east,,
S-Bhf. Köpenick,tram,82,1971631_east,,
Hegelschule,tram,82,1971632_east,,
E.-Weinert-Klubh.,tram,82,1971633_east,,
Pionierpark,tram,82,1971634_east,,
Wilhelminenhofstr. Ecke Edisonstr.,tram,82,1971635_east,,
Heinrich-Dunckerstr. Ecke Ehrlichstr.,tram,82,1971636_east,,
Hönower Wiesenweg,tram,82,1971637_east,,
Kraftwerk Klingenberg,tram,82,1971638_east,,
Karlshorsterstr.,tram,82,1971639_east,,
S-Bhf. Ostkreuz,tram,82,1971640_east,,
S-Bhf. Mahlsdorf,tram,83,1971641_east,,
Alt-Mahlsdorf,tram,83,1971642_east,,
Rahnsdorferstr.,tram,83,1971643_east,,
Bürgerwäldchen,tram,83,1971644_east,,
Ruhlsdorferstr.,tram,83,1971645_east,,
Mahlsdorf-Süd,tram,83,1971646_east,,
Wongrowitzer Steig,tram,83,1971647_east,,
S-Bhf. Köpenick,tram,83,1971648_east,,
Lindenstr. Ecke Bahnhofstr.,tram,83,1971649_east,,
"Köpenick, Strab.-Betriebshof",tram,83,1971650_east,,
VEB Bootswerften,tram,83,1971651_east,,
Wendenschloß Ecke Ekhofstr.,tram,83,1971652_east,,
"Friedrichshagen, Wasserwerk",tram,84,1971653_east,,
"Bölschestr., Brauerei",tram,84,1971654_east,,
S-Bhf. Friedrichshagen,tram,84,1971655_east,,
Hirschgarten,tram,84,1971656_east,,
Bahnhofstr. Ecke Lindenstr.,tram,84,1971657_east,,
Schloßplatz Köpenick,tram,84,1971658_east,,
S-Bhf. Spindlersfeld,tram,84,1971659_east,,
S-Bhf. Adlershof,tram,84,1971660_east,,
"Altglienicke, Kirche",tram,84,1971661_east,,
Am Falkenberg,tram,84,1971662_east,,
Wendenschloß,tram,85,1971663_east,,
VEB Bootswerften,tram,85,1971664_east,,
"Köpenick, Strab.-Betriebshof",tram,85,1971665_east,,
Lindenstr. Ecke Hegelschule,tram,85,1971666_east,,
Pionierpark,tram,85,1971667_east,,
Edisonstr.,tram,85,1971668_east,,
Bhf. Schöneweide,tram,85,1971669_east,,
"Johannisthal, Haeckelstr.",tram,85,1971670_east,,
Alt-Schmöckwitz,tram,86,1971671_east,,
Karolinenhof Mitte,tram,86,1971672_east,,
Richtershorn,tram,86,1971673_east,,
S-Bhf. Grünau,tram,86,1971674_east,,
Chemische Fabrik,tram,86,1971675_east,,
Jachtwerft,tram,86,1971676_east,,
Schloßplatz Köpenick,tram,86,1971677_east,,
Lindenstr. Ecke Bahnhofstr.,tram,86,1971678_east,,
S-Bhf. Köpenick,tram,86,1971679_east,,
Hirtestr.,tram,86,1971680_east,,
Rahnsdorf,tram,87,1971681_east,,
Müggelseedamm,tram,87,1971682_east,,
S-Bhf. Friedrichshagen,tram,87,1971683_east,,
Hirschgarten,tram,87,1971684_east,,
Bahnhofstr. Ecke Lindenstr.,tram,87,1971685_east,,
E.-Weinert-Klubh.,tram,87,1971686_east,,
Pionierpark,tram,87,1971687_east,,
Wilhelminenhofstr. Ecke Edisonstr.,tram,87,1971688_east,,
Bhf. Schöneweide,tram,87,1971689_east,,
Köpenicker Landstr. Ecke Baumschulenstr.,tram,87,1971690_east,,
S-Bhf. Plänterwald,tram,87,1971691_east,,
Am Treptower Park Ecke Elsenstr.,tram,87,1971692_east,,
Wiener Brücke,tram,87,1971693_east,,
Krankenhaus Köpenick,tram,95,1971694_east,,
Lindenstr. Ecke Hegelschule,tram,95,1971695_east,,
E.-Weinert-Klubh.,tram,95,1971696_east,,
Pionierpark,tram,95,1971697_east,,
Edisonstr.,tram,95,1971698_east,,
Bhf. Schöneweide,tram,95,1971699_east,,
Baumschulenstr. Ecke Köpenicker Landstr.,tram,95,1971700_east,,
S-Bhf. Plänterwald,tram,95,1971701_east,,
Elsenstr. Ecke Am Treptower Park,tram,95,1971702_east,,
Wiener Brücke,tram,95,1971703_east,,
Falkenbergerstr.,tram,99,1971704_east,,
Stadion Buschallee,tram,99,1971705_east,,
Kniprodeallee,tram,99,1971706_east,,
Klement-Gottwald-Allee,tram,99,1971707_east,,
Pasedagplatz,tram,99,1971708_east,,
S-Bhf. Friedrichshagen (Grenze),tram,S-Bhf. Friedrichshagen <> Rüdersdorf,1971709_east,,
"Schöneiche, Waldstr.",tram,S-Bhf. Friedrichshagen <> Rüdersdorf,1971710_east,,
"Schöneiche, Goethepark",tram,S-Bhf. Friedrichshagen <> Rüdersdorf,1971711_east,,
"Schöneiche, Rahnsdorferstr.",tram,S-Bhf. Friedrichshagen <> Rüdersdorf,1971712_east,,
"Schöneiche, Dorfstr.",tram,S-Bhf. Friedrichshagen <> Rüdersdorf,1971713_east,,
"Schöneiche, Dorfaue",tram,S-Bhf. Friedrichshagen <> Rüdersdorf,1971714_east,,
"Schöneiche, Schillerstr.",tram,S-Bhf. Friedrichshagen <> Rüdersdorf,1971715_east,,
"Schöneiche, Grätzwalde",tram,S-Bhf. Friedrichshagen <> Rüdersdorf,1971716_east,,
"Schöneiche, Jägerstr.",tram,S-Bhf. Friedrichshagen <> Rüdersdorf,1971717_east,,
"Rüdersdorf, Berghof",tram,S-Bhf. Friedrichshagen <> Rüdersdorf,1971718_east,,
"Rüdersdorf, Torellplatz",tram,S-Bhf. Friedrichshagen <> Rüdersdorf,1971719_east,,
"Rüdersdorf, Heinitzstr.",tram,S-Bhf. Friedrichshagen <> Rüdersdorf,1971720_east,,
"Rüdersdorf, Post",tram,S-Bhf. Friedrichshagen <> Rüdersdorf,1971721_east,,
"Rüdersdorf, Schulstr.",tram,S-Bhf. Friedrichshagen <> Rüdersdorf,1971722_east,,
"Rüdersdorf, Karl-Marx-Platz",tram,S-Bhf. Friedrichshagen <> Rüdersdorf,1971723_east,,
S-Bhf. Rahnsdorf,tram,S-Bhf. Rahnsdorf <> Woltersdorfer Schleuse (VEB Woltersdorf),1971724_east,,
Goethestr.,tram,S-Bhf. Rahnsdorf <> Woltersdorfer Schleuse (VEB Woltersdorf),1971725_east,,
Eichendamm,tram,S-Bhf. Rahnsdorf <> Woltersdorfer Schleuse (VEB Woltersdorf),1971726_east,,
Lerchenstr.,tram,S-Bhf. Rahnsdorf <> Woltersdorfer Schleuse (VEB Woltersdorf),1971727_east,,
Fasanenstr.,tram,S-Bhf. Rahnsdorf <> Woltersdorfer Schleuse (VEB Woltersdorf),1971728_east,,
Thälmannplatz,tram,S-Bhf. Rahnsdorf <> Woltersdorfer Schleuse (VEB Woltersdorf),1971729_east,,
Blumenstr.,tram,S-Bhf. Rahnsdorf <> Woltersdorfer Schleuse (VEB Woltersdorf),1971730_east,,
"Woltersdorf, Krankenhaus",tram,S-Bhf. Rahnsdorf <> Woltersdorfer Schleuse (VEB Woltersdorf),1971731_east,,
Woltersdorfer Schleuse,tram,S-Bhf. Rahnsdorf <> Woltersdorfer Schleuse (VEB Woltersdorf),1971732_east,,
Pankow (Vinetastr.),u-bahn,A,1971733_east,,
Schönhauserallee,u-bahn,A,1971734_east,,
Dimitroffstr.,u-bahn,A,1971735_east,,
Senefelderplatz,u-bahn,A,1971736_east,,
Luxemburgplatz,u-bahn,A,1971737_east,,
Alexanderplatz,u-bahn,A,1971738_east,,
Klosterstr.,u-bahn,A,1971739_east,,
Märkisches Museum,u-bahn,A,1971740_east,,
Spittelmarkt,u-bahn,A,1971741_east,,
Hausvogteiplatz,u-bahn,A,1971742_east,,
Stadtmitte,u-bahn,A,1971743_east,,
Thälmannplatz,u-bahn,A,1971744_east,,
Alexanderplatz,u-bahn,E,1971745_east,,
Schillingstr.,u-bahn,E,1971746_east,,
Strausbergerplatz,u-bahn,E,1971747_east,,
Marchlewskistr.,u-bahn,E,1971748_east,,
Frankfurter Tor,u-bahn,E,1971749_east,,
Samariterstr.,u-bahn,E,1971750_east,,
Frankfurterallee,u-bahn,E,1971751_east,,
Magdalenenstr.,u-bahn,E,1971752_east,,
Bahnhof Lichtenberg,u-bahn,E,1971753_east,,
Friedrichsfelde,u-bahn,E,1971754_east,,
